~VERSION INFORMATION
VERS.           2.0   :CWLS Log ASCII Standard - VERSION 2.0
WRAP.           NO    :One Line per depth step
PROD.  Schlumberger   :LAS Producer
PROG.  DLIS to ASCII 2.3                               :LAS Program name and version
CREA.        2020/12/24 10:22                          :LAS Creation date {YYYY/MM/DD hh:mm}
DLIS_CREA.  2020-Dec-24 10:21                          :DLIS Creation date and time {YYYY-MMM-DD hh:mm}
SOURCE.     PNS_Processed.dlis                         :DLIS File Name
FILE-ID.     ToolSpecific_ConPr_R07_Drill_SONICVISION8 :File Identification Number
#--------------------------------------------------
~WELL INFORMATION
#MNEM.UNIT      DATA             DESCRIPTION
#---- ------ --------------   -----------------------------
STRT .M      4299.9660       :START DEPTH     
STOP .M      5201.7168       :STOP DEPTH     
STEP .M         0.1524       :STEP     
NULL .          -999.25      :NULL VALUE
COMP .        BP Development Australia Pty Ltd         :COMPANY
WELL .        Ironbark-1                               :WELL
FLD  .        Ironbark                                 :FIELD
LOC  .        WA-359-P                                 :LOCATION
CNTY .                                                 :COUNTY
STAT .        Western Australia                        :STATE
CTRY .        Australia                                :COUNTRY
API  .                                                 :API NUMBER
UWI  .        20AWA0029                                :UNIQUE WELL ID
DATE .        30-Oct-2020                              :LOG DATE {DD-MMM-YYYY}
SRVC .        Schlumberger                             :SERVICE COMPANY
LATI .DEG     19° 9' 34.079" S                        :LATITUDE
LONG .DEG     116° 4' 35.795" E                       :LONGITUDE
GDAT .                                                 :GeoDetic Datum
#-----------------------------------------------------------------------------
~PARAMETER INFORMATION
#MNEM.UNIT    VALUE                      DESCRIPTION
#---- -----   --------------------       ------------------------
RUN  .          7                        :RUN NUMBER
PDAT .        MSL                        :Permanent Datum
EPD  .M           0.000000               :Elevation of Permanent Datum above Mean Sea Level
LMF  .          DF                       :Logging Measured From (Name of Logging Elevation Reference)
APD  .M          23.850000               :Elevation of Depth Reference (LMF) above Permanent Datum
#-----------------------------------------------------------------------------
~CURVE INFORMATION
#MNEM.UNIT   API CODE                                  DESCRIPTION
#---- -----  --------                                  -----------------------
MD   .M                                                :DEPTH (BOREHOLE) {F10.4}
BS   .IN                                               :Bit Size {F13.4}
DCAV .IN                                               :Density Caliper, Average - filtered if Orion compressed {F13.4}
DEVI .DEG                                              :Hole Deviation {F13.4}
DTCO_MPS.US/F                                          :Compressional slowness {F13.4}
DTSH_MPS.US/F                                          :Shear slowness {F13.4}
GR_ARC.GAPI                                            :ARC Gamma Ray {F13.4}
PR   .UNITLESS                                         :Possion's Ratio {F13.4}
ROP5 .M/HR                                             :Rate of penetration averaged over the last 5 ft (1.5 m) {F13.4}
VPVS .UNITLESS                                         :VpVs Ratio {F13.4}
#-----------------------------------------------------------------------------
# 
#      MD         BS           DCAV         DEVI       DTCO_MPS     DTSH_MPS      GR_ARC        PR           ROP5         VPVS
#
~A  
# ...
 5173.6752      12.2500   -9999.0000       0.2182      64.9882     126.4204     137.7130       0.3202       8.6669       1.9464
 5173.8276      12.2500   -9999.0000       0.2182      64.5828     125.1748     129.4668       0.3184       9.0492       1.9387
 5173.9800      12.2500   -9999.0000       0.2182      66.8142     126.4502     122.5366       0.3063       6.9980       1.8931
 5174.1324      12.2500   -9999.0000       0.2182      69.9755     129.8578     121.8600       0.2954       6.7195       1.8559
 5174.2848      12.2500   -9999.0000       0.2182      71.7572     131.9117     126.7498       0.2898       6.0967       1.8384
 5174.4372      12.2500   -9999.0000       0.2182      71.4496     132.4850     132.0552       0.2949       6.0861       1.8543
 5174.5896      12.2500   -9999.0000       0.2182      71.3571     132.6988     133.9747       0.2966       5.7449       1.8597
 5174.7420      12.2500   -9999.0000       0.2182      71.8393     134.3957     136.7231       0.2999       5.8275       1.8708
 5174.8944      12.2500   -9999.0000       0.2182      71.5442     134.0042     141.2279       0.3006       5.8699       1.8730
 5175.0468      12.2500   -9999.0000       0.2182      70.8818     132.0683     141.3574       0.2977       5.3866       1.8632
 5175.1992      12.2500   -9999.0000       0.2182      69.8562     129.4119     137.8590       0.2944       5.8860       1.8525
 5175.3516      12.2500   -9999.0000       0.2182      68.9417     127.7823     137.5523       0.2947       5.6613       1.8535
 5175.5040      12.2500   -9999.0000       0.2182      70.0892     130.0416     137.6181       0.2953       6.9737       1.8555
 5175.6564      12.2500   -9999.0000       0.2182      73.1137     135.9749     132.7571       0.2966       7.3138       1.8597
 5175.8088      12.2500   -9999.0000       0.2182      74.0738     139.1801     130.8462       0.3023       8.0958       1.8789
 5175.9612      12.2500   -9999.0000       0.2182      73.5264     135.1583     138.4884       0.2895       8.5602       1.8381
 5176.1136      12.2500   -9999.0000       0.2182      70.9048     128.3401     146.2021       0.2803       9.0179       1.8100
 5176.2660      12.2500   -9999.0000       0.2182      68.6114     123.3418     141.8501       0.2758       9.3902       1.7976
 5176.4184      12.2500   -9999.0000       0.2182      67.8389     120.2806     132.1385       0.2667       9.9362       1.7730
 5176.5708      12.2500   -9999.0000       0.2182      67.8947     120.3008     130.1056       0.2662      12.5690       1.7719
 5176.7232      12.2500   -9999.0000       0.2182      68.0509     123.2994     129.6965       0.2807      12.3650       1.8119
 5176.8756      12.2500   -9999.0000       0.2182      69.4280     126.5253     122.8288       0.2841      12.8754       1.8222
 5177.0280      12.2500   -9999.0000       0.2182      70.9500     133.1872     115.1951       0.3017      12.5613       1.8771
 5177.1804      12.2500   -9999.0000       0.2182      72.4814     136.4715     114.6827       0.3034      11.0314       1.8828
 5177.3328      12.2500   -9999.0000       0.2182      73.8779     139.8755     119.1036       0.3062      10.0473       1.8934
 5177.4852      12.2500   -9999.0000       0.2182      74.2918     134.5039     121.3162       0.2799       8.5794       1.8105
 5177.6376      12.2500   -9999.0000       0.2182      73.9293     133.8033     120.9903       0.2800       8.2116       1.8099
 5177.7900      12.2500   -9999.0000       0.2182      73.9884     133.2244     121.2287       0.2768       8.2840       1.8006
 5177.9424      12.2500   -9999.0000       0.2182      74.5576     132.6565     121.7593       0.2691       7.8285       1.7793
 5178.0948      12.2500   -9999.0000       0.2182      74.4613     135.4778     113.8564       0.2831       7.5530       1.8195
 5178.2472      12.2500   -9999.0000       0.2182      74.4865     142.4180      98.1114       0.3111       7.2392       1.9119
 5178.3996      12.2500   -9999.0000       0.2182      76.1308     148.2851      91.0383       0.3210       6.4977       1.9479
 5178.5520      12.2500   -9999.0000       0.2182      75.5892     145.7267      96.9638       0.3158       5.1590       1.9279
 5178.7044      12.2500   -9999.0000       0.2182      74.3447     140.9155     106.5051       0.3071       5.5466       1.8954
 5178.8568      12.2500   -9999.0000       0.2182      71.8048     135.4949     114.6942       0.3047       6.1772       1.8870
 5179.0092      12.2500   -9999.0000       0.2182      71.2407     134.4390     124.5631       0.3048       7.2413       1.8871
 5179.1616      12.2500   -9999.0000       0.2182      71.3469     134.1640     132.7190       0.3028       7.5947       1.8805
 5179.3140      12.2500   -9999.0000       0.2182      71.3207     134.4477     135.9472       0.3042       7.1862       1.8851
 5179.4664      12.2500   -9999.0000       0.2182      71.8453     134.6774     139.0372       0.3011       6.5793       1.8746
 5179.6188      12.2500   -9999.0000       0.2182      71.9267     133.2476     141.4290       0.2943       6.9497       1.8526
 5179.7712      12.2500   -9999.0000       0.2182      72.1750     131.9982     142.3245       0.2867       7.1317       1.8289
 5179.9236      12.2500   -9999.0000       0.2182      71.6049     130.3869     141.3606       0.2840       7.1099       1.8209
 5180.0760      12.2500   -9999.0000       0.2182      69.7034     127.3192     139.8213       0.2860       9.4138       1.8268
 5180.2284      12.2500   -9999.0000       0.2182      69.6625     128.4539     138.8659       0.2917       8.5092       1.8440
 5180.3808      12.2500   -9999.0000       0.2182      71.9004     132.0231     135.2035       0.2892       7.6215       1.8362
 5180.5332      12.2500   -9999.0000       0.2182      73.2608     135.9048     132.8111       0.2951       7.3197       1.8551
 5180.6856      12.2500   -9999.0000       0.2182      75.0983     139.7757     138.3696       0.2971       6.7849       1.8613
 5180.8380      12.2500   -9999.0000       0.2182      74.7599     140.6557     149.9516       0.3031       6.5498       1.8815
 5180.9904      12.2500   -9999.0000       0.2182      74.0982     140.0805     155.5943       0.3057       6.9684       1.8905
 5181.1428      12.2500   -9999.0000       0.2182      73.8312     138.2435     150.0480       0.3004       6.2662       1.8724
 5181.2952      12.2500   -9999.0000       0.2182      72.7725     136.1195     145.5495       0.2999       6.3759       1.8705
 5181.4476      12.2500   -9999.0000       0.2182      71.2082     133.8239     147.4060       0.3025       7.1389       1.8794
 5181.6000      12.2500   -9999.0000       0.2182      70.5763     132.3996     149.5418       0.3015       7.5979       1.8760
 5181.7524      12.2500   -9999.0000       0.2182      69.8005     130.3017     148.9214       0.2988       8.3990       1.8668
 5181.9048      12.2500   -9999.0000       0.2182      69.2984     130.1334     145.2005       0.3021       8.7645       1.8779
 5182.0572      12.2500   -9999.0000       0.2182      69.0204     130.2154     137.8408       0.3046       8.7518       1.8867
 5182.2096      12.2500   -9999.0000       0.2182      68.5194     130.7329     134.1628       0.3106       9.1071       1.9080
 5182.3620      12.2500   -9999.0000       0.2182      69.5315     131.3076     137.5813       0.3051       9.1053       1.8885
 5182.5144      12.2500   -9999.0000       0.2182      70.0608     130.9959     137.9438       0.2996       9.2349       1.8698
 5182.6668      12.2500   -9999.0000       0.2182      69.7268     130.9005     136.5431       0.3018       9.2284       1.8775
 5182.8192      12.2500   -9999.0000       0.2182      68.4940     130.1362     136.9811       0.3084       8.9364       1.8999
 5182.9716      12.2500   -9999.0000       0.2182      67.8579     127.0604     134.9865       0.3004       9.1314       1.8725
 5183.1240      12.2500   -9999.0000       0.2182      67.7666     125.3754     133.3282       0.2936       7.7422       1.8501
