~VERSION INFORMATION
VERS.           2.0   :CWLS Log ASCII Standard - VERSION 2.0
WRAP.           NO    :One Line per depth step
PROD.  Schlumberger   :LAS Producer
PROG.  DLIS to ASCII 2.3                               :LAS Program name and version
CREA.        2020/12/07 11:58                          :LAS Creation date {YYYY/MM/DD hh:mm}
DLIS_CREA.  2020-Dec-07 11:16                          :DLIS Creation date and time {YYYY-MMM-DD hh:mm}
SOURCE.     sonicVISION_2.dlis                         :DLIS File Name
FILE-ID.     ToolSpecific_ConPr_R05_Drill_SONICVISION9 :File Identification Number
#--------------------------------------------------
~WELL INFORMATION
#MNEM.UNIT      DATA             DESCRIPTION
#---- ------ --------------   -----------------------------
STRT .M      2896.9716       :START DEPTH     
STOP .M      3794.9124       :STOP DEPTH     
STEP .M         0.1524       :STEP     
NULL .          -999.25      :NULL VALUE
COMP .        BP Development Australia Pty Ltd         :COMPANY
WELL .        Ironbark-1                               :WELL
FLD  .        WA-359-2                                 :FIELD
LOC  .        Northern Carnarvon Basin                 :LOCATION
CNTY .                                                 :COUNTY
STAT .        Western Australia                        :STATE
CTRY .        Australia                                :COUNTRY
API  .                                                 :API NUMBER
UWI  .        20AWA0029                                :UNIQUE WELL ID
DATE .        30-Nov-2020                              :LOG DATE {DD-MMM-YYYY}
SRVC .        Schlumberger                             :SERVICE COMPANY
LATI .DEG     19° 9' 34.079" S                        :LATITUDE
LONG .DEG     116° 4' 35.795" E                       :LONGITUDE
GDAT .                                                 :GeoDetic Datum
#-----------------------------------------------------------------------------
~PARAMETER INFORMATION
#MNEM.UNIT    VALUE                      DESCRIPTION
#---- -----   --------------------       ------------------------
RUN  .          Run5_16.5in              :RUN NUMBER
PDAT .        MSL                        :Permanent Datum
EPD  .C3           0.000000              :Elevation of Permanent Datum above Mean Sea Level
LMF  .          DF                       :Logging Measured From (Name of Logging Elevation Reference)
APD  .M          23.850000               :Elevation of Depth Reference (LMF) above Permanent Datum
#-----------------------------------------------------------------------------
~CURVE INFORMATION
#MNEM.UNIT   API CODE                                  DESCRIPTION
#---- -----  --------                                  -----------------------
DEPT .M                                                :DEPTH (BOREHOLE) {F10.4}
BS   .IN                                               :Bit Size {F13.4}
DEVI .DEG                                              :Hole Deviation {F13.4}
DTCO_MPS.US/F                                          : {F13.4}
DTSH_MPS.US/F                                          :Shear slowness {F13.4}
GR_ARC.GAPI                                            :ARC Gamma Ray {F13.4}
PR   .UNITLESS                                         :Possion's Ratio {F13.4}
ROP5 .M/HR                                             :Rate of penetration averaged over the last 5 ft (1.5 m) {F13.4}
VPVS .UNITLESS                                         :VpVs Ratio {F13.4}
#-----------------------------------------------------------------------------
# 
#     DEPT        BS           DEVI       DTCO_MPS     DTSH_MPS      GR_ARC        PR           ROP5         VPVS
#
~A  
# ...
 3249.0156      16.5000       2.3892      82.6115     154.9617     123.8636       0.3015      29.7079       1.8758
 3249.1680      16.5000       2.3906      81.7380     152.3222     131.0671       0.2978      27.8008       1.8635
 3249.3204      16.5000       2.3920      81.2547     149.9813     146.3116       0.2923      29.4295       1.8458
 3249.4728      16.5000       2.3935      81.0134     147.8460     156.6045       0.2855      29.6802       1.8250
 3249.6252      16.5000       2.3950      79.8096     145.8366     153.9338       0.2862      30.8520       1.8273
 3249.7776      16.5000       2.3969      78.5057     142.9702     142.8036       0.2842      30.9059       1.8211
 3249.9300      16.5000       2.3977      77.0170     139.9367     126.4656       0.2827      22.9798       1.8170
 3250.0824      16.5000       2.3995      75.9996     138.2117     113.7223       0.2833      22.9732       1.8186
 3250.2348      16.5000       2.4008      74.4867     138.2233     119.2116       0.2954      21.3120       1.8557
 3250.3872      16.5000       2.4023      77.5256     140.3229     132.8283       0.2803      21.3909       1.8100
 3250.5396      16.5000       2.4038      79.9551     145.4932     140.6454       0.2837      21.1889       1.8197
 3250.6920      16.5000       2.4054      81.6930     152.5304     146.5570       0.2989      21.1757       1.8671
 3250.8444      16.5000       2.4068      83.1108     157.3075     148.8379       0.3064      21.2532       1.8927
 3250.9968      16.5000       2.4082      84.4714     160.3489     147.1344       0.3079      21.1842       1.8983
 3251.1492      16.5000       2.4098      84.5936     162.6012     146.8371       0.3144      21.4754       1.9221
 3251.3016      16.5000       2.4113      84.0642     164.2884     143.1689       0.3227      21.1220       1.9543
 3251.4540      16.5000       2.4127      85.4887     166.0528     136.4359       0.3197      26.5009       1.9424
 3251.6064      16.5000       2.4143      88.2339     167.4827     134.7469       0.3079      26.9737       1.8982
 3251.7588      16.5000       2.4158      90.8956     167.8339     137.9322       0.2925      29.4075       1.8464
 3251.9112      16.5000       2.4172      91.6252     168.0208     146.1802       0.2884      29.6074       1.8338
 3252.0636      16.5000       2.4186      91.4034     168.4967     155.2944       0.2915      29.7949       1.8434
 3252.2160      16.5000       2.4201      90.7226     169.1785     159.4051       0.2982      30.7624       1.8648
 3252.3684      16.5000       2.4216      90.1221     169.2235     162.1912       0.3020      31.4637       1.8777
 3252.5208      16.5000       2.4231      89.8295     168.0986     162.5521       0.3001      31.8785       1.8713
 3252.6732      16.5000       2.4247      89.6634     164.7684     153.8327       0.2896      31.7424       1.8376
 3252.8256      16.5000       2.4261      89.5260     161.2227     142.8939       0.2771      31.6302       1.8008
 3252.9780      16.5000       2.4275      89.6546     160.6619     140.5299       0.2739      32.5298       1.7920
 3253.1304      16.5000       2.4291      90.1929     163.2613     141.7967       0.2804      32.8642       1.8101
 3253.2828      16.5000       2.4304      91.3024     167.8750     140.4361       0.2900      31.6329       1.8387
 3253.4352      16.5000       2.4319      91.7797     170.8376     141.2487       0.2971      32.0769       1.8614
 3253.5876      16.5000       2.4335      91.6255     170.6122     138.5244       0.2973      32.5802       1.8621
 3253.7400      16.5000       2.4349      89.2527     167.7601     129.3967       0.3026      31.6384       1.8796
 3253.8924      16.5000       2.4363      86.1107     165.7528     135.3730       0.3152      31.1011       1.9249
 3254.0448      16.5000       2.4378      83.7347     164.5148     157.1104       0.3252      30.1949       1.9647
 3254.1972      16.5000       2.4393      83.0073     163.8274     163.6850       0.3273      28.8330       1.9737
 3254.3496      16.5000       2.4408      83.5498     164.3740     146.5592       0.3258      28.5689       1.9674
 3254.5020      16.5000       2.4424      83.7894     164.3293     133.2427       0.3243      28.8411       1.9612
 3254.6544      16.5000       2.4439      83.4436     161.8606     133.8280       0.3190      28.9989       1.9398
 3254.8068      16.5000       2.4454      82.7599     156.9678     133.8100       0.3075      30.6850       1.8967
 3254.9592      16.5000       2.4468      81.9817     150.6164     134.2431       0.2895      30.6346       1.8372
 3255.1116      16.5000       2.4483      81.3393     145.1335     141.4466       0.2710      29.9214       1.7843
 3255.2640      16.5000       2.4497      81.2834     142.0624     145.3299       0.2566      28.7358       1.7477
 3255.4164      16.5000       2.4513      81.6421     141.6906     138.7529       0.2515      29.6654       1.7355
 3255.5688      16.5000       2.4528      82.1818     143.8856     135.6441       0.2579      29.6014       1.7508
 3255.7212      16.5000       2.4541      82.2184     146.0718     142.4449       0.2681      29.5000       1.7766
 3255.8736      16.5000       2.4555      81.8801     147.2497     144.3158       0.2762      29.3426       1.7984
 3256.0260      16.5000       2.4572      81.4674     147.8872     136.7874       0.2822      27.9497       1.8153
 3256.1784      16.5000       2.4586      81.0459     147.7277     130.9661       0.2847      27.0730       1.8228
 3256.3308      16.5000       2.4599      80.2376     147.4607     134.8494       0.2897      25.6934       1.8378
 3256.4832      16.5000       2.4615      79.2309     148.0407     145.6800       0.2993      26.0032       1.8685
 3256.6356      16.5000       2.4630      79.4742     150.2508     154.6051       0.3058      26.2884       1.8906
 3256.7880      16.5000       2.4644      80.9223     154.5977     157.2664       0.3113      27.4039       1.9104
 3256.9404      16.5000       2.4660      82.4407     158.6968     152.0311       0.3152      27.8808       1.9250
 3257.0928      16.5000       2.4676      82.8696     160.4883     142.1879       0.3182      28.8833       1.9366
 3257.2452      16.5000       2.4689      85.4301     161.5761     137.0364       0.3060      29.2042       1.8913
 3257.3976      16.5000       2.4705      86.8072     161.8696     140.3892       0.2982      29.8793       1.8647
 3257.5500      16.5000       2.4718      87.1391     161.8893     145.6591       0.2960      30.9916       1.8578
 3257.7024      16.5000       2.4735      86.7757     162.1810     147.8721       0.2994      32.4620       1.8690
 3257.8548      16.5000       2.4747      86.7311     163.1653     152.6721       0.3031      32.6624       1.8813
 3258.0072      16.5000       2.4764      87.2058     163.3108     155.6820       0.3006      32.9687       1.8727
 3258.1596      16.5000       2.4776      87.7718     162.1499     149.0299       0.2928      32.3535       1.8474
 3258.3120      16.5000       2.4793      88.5220     162.8554     144.2530       0.2903      32.5403       1.8397
 3258.4644      16.5000       2.4809      89.1212     165.1856     146.2409       0.2947      31.3735       1.8535
 3258.6168      16.5000       2.4823      89.5871     168.7479     149.8051       0.3038      29.6464       1.8836
 3258.7692      16.5000       2.4837      89.9285     170.7222     154.1908       0.3080      29.8302       1.8984
 3258.9216      16.5000       2.4852      90.2049     171.4623     152.2708       0.3087      29.8075       1.9008
 3259.0740      16.5000       2.4865      90.4084     171.8809     149.8859       0.3088      27.9493       1.9012
 3259.2264      16.5000       2.4882      90.3304     171.9506     152.9060       0.3094      27.4851       1.9036
 3259.3788      16.5000       2.4897      89.3630     171.0886     147.7263       0.3124      28.1335       1.9145
 3259.5312      16.5000       2.4912      88.1795     170.7852     139.8803       0.3183      27.1059       1.9368
