~VERSION INFORMATION
VERS.           2.0   :CWLS Log ASCII Standard - VERSION 2.0
WRAP.           NO    :One Line per depth step
PROD.  Schlumberger   :LAS Producer
PROG.  DLIS to ASCII 2.3                               :LAS Program name and version
CREA.        2021/01/04 14:54                          :LAS Creation date {YYYY/MM/DD hh:mm}
DLIS_CREA.  2021-Jan-04 14:41                          :DLIS Creation date and time {YYYY-MMM-DD hh:mm}
SOURCE.     PnS_Processed.dlis                         :DLIS File Name
FILE-ID.     ConPr_R08_Drill_ARC6_TELE675_SONICVISION6 :File Identification Number
#--------------------------------------------------
~WELL INFORMATION
#MNEM.UNIT      DATA             DESCRIPTION
#---- ------ --------------   -----------------------------
STRT .M      5170.0176       :START DEPTH     
STOP .M      5614.8732       :STOP DEPTH     
STEP .M         0.1524       :STEP     
NULL .          -999.25      :NULL VALUE
COMP .        BP Development Australia Pty Ltd         :COMPANY
WELL .        Ironbark-1                               :WELL
FLD  .        Ironbark                                 :FIELD
LOC  .        WA-359-P                                 :LOCATION
CNTY .                                                 :COUNTY
STAT .        Western Australia                        :STATE
CTRY .        Australia                                :COUNTRY
API  .                                                 :API NUMBER
UWI  .        20AWA0029                                :UNIQUE WELL ID
DATE .        30-Oct-2020                              :LOG DATE {DD-MMM-YYYY}
SRVC .        Schlumberger                             :SERVICE COMPANY
LATI .DEG     19° 9' 34.079" S                        :LATITUDE
LONG .DEG     116° 4' 35.795" E                       :LONGITUDE
GDAT .                                                 :GeoDetic Datum
#-----------------------------------------------------------------------------
~PARAMETER INFORMATION
#MNEM.UNIT    VALUE                      DESCRIPTION
#---- -----   --------------------       ------------------------
RUN  .          Run8_8.5in               :RUN NUMBER
PDAT .        MSL                        :Permanent Datum
EPD  .M           0.000000               :Elevation of Permanent Datum above Mean Sea Level
LMF  .          DF                       :Logging Measured From (Name of Logging Elevation Reference)
APD  .M          23.850000               :Elevation of Depth Reference (LMF) above Permanent Datum
#-----------------------------------------------------------------------------
~CURVE INFORMATION
#MNEM.UNIT   API CODE                                  DESCRIPTION
#---- -----  --------                                  -----------------------
MD   .M                                                :DEPTH (BOREHOLE) {F10.4}
BS   .IN                                               :Bit Size {F13.4}
DCAV .IN                                               :Density Caliper, Average - filtered if Orion compressed {F13.4}
DEVI .DEG                                              :Hole Deviation {F13.4}
DTCO_MPS.US/F                                          :Compressional slowness {F13.4}
DTSH_MPS.US/F                                          :Shear slowness {F13.4}
GR_ARC.GAPI                                            :ARC Gamma Ray {F13.4}
PR   .UNITLESS                                         :Possion's Ratio {F13.4}
ROP5 .M/HR                                             :Rate of penetration averaged over the last 5 ft (1.5 m) {F13.4}
VPVS .UNITLESS                                         :VpVs Ratio {F13.4}
#-----------------------------------------------------------------------------
# 
#      MD         BS           DCAV         DEVI       DTCO_MPS     DTSH_MPS      GR_ARC        PR           ROP5         VPVS
#
~A  
# ...
 5256.4284       8.5000       8.3587       0.1240      75.5632     153.4090     170.7671       0.3398      35.5237       2.0302
 5256.5808       8.5000       8.3289       0.1240      75.5864     154.6352     167.1081       0.3430      29.5197       2.0458
 5256.7332       8.5000       8.3466       0.1241      75.4412     154.9275     162.4414       0.3446      28.0101       2.0536
 5256.8856       8.5000       8.3496       0.1242      75.3058     155.0053     155.8459       0.3455      27.1609       2.0583
 5257.0380       8.5000       8.3601       0.1243      75.2542     155.3188     153.5940       0.3466      27.4949       2.0639
 5257.1904       8.5000       8.3582       0.1244      76.2980     155.4217     158.8169       0.3412      28.2297       2.0370
 5257.3428       8.5000       8.3275       0.1245      78.6447     153.6935     167.4300       0.3226      26.1165       1.9543
 5257.4952       8.5000       8.3346       0.1246      80.1351     150.9124     176.4793       0.3037      26.9213       1.8832
 5257.6476       8.5000       8.3095       0.1247      79.5318     149.6250     178.6805       0.3031      25.3807       1.8813
 5257.8000       8.5000       8.3582       0.1248      79.5409     150.1805     166.6553       0.3051      23.8007       1.8881
 5257.9524       8.5000       8.3399       0.1249      79.5711     151.0056     148.5933       0.3078      24.7933       1.8977
 5258.1048       8.5000       8.3593       0.1251      78.1302     151.1971     139.9706       0.3178      29.4575       1.9352
 5258.2572       8.5000       8.3733       0.1252      76.5864     149.1669     140.8269       0.3210      30.6120       1.9477
 5258.4096       8.5000       8.3831       0.1254      75.3177     145.3896     139.0249       0.3166      28.2532       1.9304
 5258.5620       8.5000       8.3615       0.1255      74.3312     140.8590     133.9180       0.3070      26.0949       1.8950
 5258.7144       8.5000       8.3914       0.1257      72.8654     134.9441     133.3744       0.2942      24.2757       1.8520
 5258.8668       8.5000       8.3248       0.1259      69.9507     127.8678     133.0616       0.2865      22.6785       1.8280
 5259.0192       8.5000       8.3339       0.1261      68.3149     122.0710     130.7368       0.2720      22.0424       1.7869
 5259.1716       8.5000       8.3622       0.1263      69.2260     120.7210     128.3197       0.2550      22.6265       1.7439
 5259.3240       8.5000       8.3796       0.1264      67.6527     123.2427     121.4618       0.2844      19.3271       1.8217
 5259.4764       8.5000       8.3868       0.1267      64.6120     129.5853     110.9843       0.3346      15.3801       2.0056
 5259.6288       8.5000       8.3862       0.1269      63.7279     139.3807     106.6559       0.3678      13.4760       2.1871
 5259.7812       8.5000       8.3886       0.1271      65.6049     143.6455     119.3527       0.3682      12.7678       2.1896
 5259.9336       8.5000       8.3697       0.1273      70.0614     138.5848     138.6340       0.3283      13.0352       1.9780
 5260.0860       8.5000       8.3646       0.1276      71.5961     132.8454     145.1786       0.2953      13.4560       1.8555
 5260.2384       8.5000       8.3403       0.1279      68.2440     129.6353     138.4066       0.3083      13.9468       1.8996
 5260.3908       8.5000       8.3575       0.1280      66.8383     127.0710     125.0975       0.3088      14.2074       1.9012
 5260.5432       8.5000       8.3715       0.1283      68.2205     124.0158     112.3787       0.2830      14.4268       1.8179
 5260.6956       8.5000       8.3793       0.1284      66.0016     120.5356     105.6812       0.2859      13.8072       1.8263
 5260.8480       8.5000       8.3692       0.1286      65.0117     118.5893     106.5241       0.2852      14.2009       1.8241
 5261.0004       8.5000       8.3549       0.1289      64.8914     117.5457     111.7835       0.2808      16.1798       1.8114
 5261.1528       8.5000       8.3318       0.1291      64.4767     116.1854     113.6857       0.2775      17.7889       1.8020
 5261.3052       8.5000       8.3351       0.1293      65.3467     115.0952     108.4330       0.2622      18.0591       1.7613
 5261.4576       8.5000       8.3345       0.1295      65.8076     114.4959     104.6038       0.2533      17.6473       1.7399
 5261.6100       8.5000       8.3550       0.1297      65.8550     117.6592     107.9495       0.2719      16.4745       1.7866
 5261.7624       8.5000       8.3676       0.1299      66.6080     123.6588     112.2524       0.2956      15.0467       1.8565
 5261.9148       8.5000       8.3630       0.1302      68.0864     127.5519     118.4942       0.3008      16.4030       1.8734
 5262.0672       8.5000       8.3076       0.1305      74.0059     129.1579     129.5917       0.2556      16.5904       1.7452
 5262.2196       8.5000       8.3487       0.1307      81.2852     131.1545     140.0094       0.1882      17.3468       1.6135
 5262.3720       8.5000       8.3580       0.1310      86.8755     137.7254     151.1722       0.1696      20.4635       1.5853
 5262.5244       8.5000       8.4008       0.1312      90.1919     143.9951     160.2041       0.1772      21.0767       1.5965
 5262.6768       8.5000       8.3144       0.1315      85.2927     140.9313     154.8988       0.2110      21.2996       1.6523
 5262.8292       8.5000       8.3416       0.1317      75.7627     130.4919     140.0055       0.2458      24.0173       1.7224
 5262.9816       8.5000       8.3381       0.1321      67.8783     123.1147     118.5783       0.2816      26.4251       1.8138
 5263.1340       8.5000       8.3363       0.1323      64.7654     121.8358      91.7055       0.3031      28.2186       1.8812
 5263.2864       8.5000       8.3776       0.1327      63.8709     123.0455      76.9646       0.3156      32.7449       1.9265
 5263.4388       8.5000       8.3870       0.1330      64.1520     127.0551      84.5002       0.3289      28.9594       1.9805
 5263.5912       8.5000       8.3587       0.1332      65.9325     132.5816     112.9375       0.3357      25.2298       2.0109
 5263.7436       8.5000       8.3421       0.1335      68.2022     136.9122     147.4722       0.3350      25.5843       2.0074
 5263.8960       8.5000       8.3439       0.1339      70.1000     139.9790     165.3877       0.3326      24.8873       1.9968
 5264.0484       8.5000       8.3461       0.1342      71.7720     142.0185     166.4148       0.3285      25.0362       1.9787
 5264.2008       8.5000       8.3710       0.1345      72.1834     142.4233     160.3202       0.3272      26.4195       1.9731
 5264.3532       8.5000       8.3647       0.1349      73.1663     143.4703     152.1510       0.3243      26.9945       1.9609
 5264.5056       8.5000       8.3751       0.1352      73.8338     145.6456     147.5208       0.3271      25.0536       1.9726
 5264.6580       8.5000       8.3748       0.1356      71.9144     145.8372     147.2201       0.3394      24.4545       2.0279
 5264.8104       8.5000       8.3564       0.1359      71.7591     145.9393     152.3271       0.3406      24.6256       2.0337
 5264.9628       8.5000       8.3348       0.1363      72.8126     146.5539     162.3872       0.3361      26.4319       2.0128
 5265.1152       8.5000       8.3584       0.1366      74.3773     147.5156     167.2474       0.3296      30.1938       1.9833
 5265.2676       8.5000       8.3475       0.1370      74.5208     148.4594     159.5176       0.3316      31.7930       1.9922
 5265.4200       8.5000       8.3414       0.1373      73.9583     149.4895     151.0663       0.3380      30.9665       2.0213
 5265.5724       8.5000       8.3268       0.1378      74.7504     149.4064     153.5697       0.3331      31.4501       1.9987
 5265.7248       8.5000       8.3335       0.1382      75.3052     149.1010     158.3187       0.3288      30.3893       1.9800
 5265.8772       8.5000       8.3553       0.1385      75.6411     149.8748     156.7091       0.3291      28.6618       1.9814
