~VERSION INFORMATION
VERS.           2.0   :CWLS Log ASCII Standard - VERSION 2.0
WRAP.           NO    :One Line per depth step
PROD.  Schlumberger   :LAS Producer
PROG.  DLIS to ASCII 2.3                               :LAS Program name and version
CREA.        2020/12/07 11:58                          :LAS Creation date {YYYY/MM/DD hh:mm}
DLIS_CREA.  2020-Dec-07 11:16                          :DLIS Creation date and time {YYYY-MMM-DD hh:mm}
SOURCE.     sonicVISION_2.dlis                         :DLIS File Name
FILE-ID.     ToolSpecific_ConPr_R05_Drill_SONICVISION9 :File Identification Number
#--------------------------------------------------
~WELL INFORMATION
#MNEM.UNIT      DATA             DESCRIPTION
#---- ------ --------------   -----------------------------
STRT .M      2896.9716       :START DEPTH     
STOP .M      3794.9124       :STOP DEPTH     
STEP .M         0.1524       :STEP     
NULL .          -999.25      :NULL VALUE
COMP .        BP Development Australia Pty Ltd         :COMPANY
WELL .        Ironbark-1                               :WELL
FLD  .        WA-359-2                                 :FIELD
LOC  .        Northern Carnarvon Basin                 :LOCATION
CNTY .                                                 :COUNTY
STAT .        Western Australia                        :STATE
CTRY .        Australia                                :COUNTRY
API  .                                                 :API NUMBER
UWI  .        20AWA0029                                :UNIQUE WELL ID
DATE .        30-Nov-2020                              :LOG DATE {DD-MMM-YYYY}
SRVC .        Schlumberger                             :SERVICE COMPANY
LATI .DEG     19° 9' 34.079" S                        :LATITUDE
LONG .DEG     116° 4' 35.795" E                       :LONGITUDE
GDAT .                                                 :GeoDetic Datum
#-----------------------------------------------------------------------------
~PARAMETER INFORMATION
#MNEM.UNIT    VALUE                      DESCRIPTION
#---- -----   --------------------       ------------------------
RUN  .          Run5_16.5in              :RUN NUMBER
PDAT .        MSL                        :Permanent Datum
EPD  .C3           0.000000              :Elevation of Permanent Datum above Mean Sea Level
LMF  .          DF                       :Logging Measured From (Name of Logging Elevation Reference)
APD  .M          23.850000               :Elevation of Depth Reference (LMF) above Permanent Datum
#-----------------------------------------------------------------------------
~CURVE INFORMATION
#MNEM.UNIT   API CODE                                  DESCRIPTION
#---- -----  --------                                  -----------------------
DEPT .M                                                :DEPTH (BOREHOLE) {F10.4}
BS   .IN                                               :Bit Size {F13.4}
DEVI .DEG                                              :Hole Deviation {F13.4}
DTCO_MPS.US/F                                          : {F13.4}
DTSH_MPS.US/F                                          :Shear slowness {F13.4}
GR_ARC.GAPI                                            :ARC Gamma Ray {F13.4}
PR   .UNITLESS                                         :Possion's Ratio {F13.4}
ROP5 .M/HR                                             :Rate of penetration averaged over the last 5 ft (1.5 m) {F13.4}
VPVS .UNITLESS                                         :VpVs Ratio {F13.4}
#-----------------------------------------------------------------------------
# 
#     DEPT        BS           DEVI       DTCO_MPS     DTSH_MPS      GR_ARC        PR           ROP5         VPVS
#
~A  
# ...
 3601.0596      16.5000       3.0290      60.9173     148.2081     140.4272       0.3984       4.1263       2.4329
 3601.2120      16.5000       3.0294      62.1175     147.5691     138.4585       0.3923       4.3684       2.3756
 3601.3644      16.5000       3.0297      62.5100     145.1166     130.4309       0.3861       4.3615       2.3215
 3601.5168      16.5000       3.0299      62.6302     141.4059     125.4271       0.3780       4.2181       2.2578
 3601.6692      16.5000       3.0302      63.5613     140.0459     122.2000       0.3703       4.3594       2.2033
 3601.8216      16.5000       3.0305      66.3496     139.3499     123.0660       0.3534       4.4941       2.1002
 3601.9740      16.5000       3.0308      69.7062     138.9899     129.7934       0.3320       4.5196       1.9939
 3602.1264      16.5000       3.0311      72.1525     139.2179     132.3205       0.3164       5.0324       1.9295
 3602.2788      16.5000       3.0314      72.4500     141.3154     130.8960       0.3217       6.1974       1.9505
 3602.4312      16.5000       3.0316      71.9378     143.9961     131.6794       0.3337       5.9437       2.0017
 3602.5836      16.5000       3.0319      72.0382     143.9145     134.1445       0.3328       6.0989       1.9978
 3602.7360      16.5000       3.0322      71.6322     142.3982     134.8852       0.3306       5.8513       1.9879
 3602.8884      16.5000       3.0325      69.3466     140.2579     134.6992       0.3382       4.9398       2.0226
 3603.0408      16.5000       3.0328      68.8754     137.5703     134.1986       0.3327       4.7344       1.9974
 3603.1932      16.5000       3.0331      69.1540     137.1319     130.5778       0.3295       4.5631       1.9830
 3603.3456      16.5000       3.0334      67.5279     137.5880     131.0830       0.3413       4.5568       2.0375
 3603.4980      16.5000       3.0336      65.8498     137.5539     130.1056       0.3513       3.9851       2.0889
 3603.6504      16.5000       3.0339      65.9070     133.9988     120.3088       0.3404       3.5399       2.0331
 3603.8028      16.5000       3.0342      65.8823     131.1600     107.5207       0.3313       3.3943       1.9908
 3603.9552      16.5000       3.0345      67.7910     128.6478      89.0871       0.3078       3.6423       1.8977
 3604.1076      16.5000       3.0348      70.9241     128.3143      81.5823       0.2800       3.5386       1.8092
 3604.2600      16.5000       3.0351      77.3241     136.3558     104.5992       0.2630       3.4761       1.7634
 3604.4124      16.5000       3.0354      81.4660     152.9313     137.8906       0.3019       3.4244       1.8772
 3604.5648      16.5000       3.0356      81.6756     160.9255     153.4029       0.3265       3.2588       1.9703
 3604.7172      16.5000       3.0360      80.6808     161.2252     141.6263       0.3330       3.4406       1.9983
 3604.8696      16.5000       3.0362      76.2674     156.7094     113.6949       0.3448       3.6704       2.0547
 3605.0220      16.5000       3.0365      69.4612     147.1475      91.8660       0.3566       4.2290       2.1184
 3605.1744      16.5000       3.0368      65.4227     140.8212      85.8110       0.3624       4.9241       2.1525
 3605.3268      16.5000       3.0371      65.7979     143.2896      89.0915       0.3664       4.5159       2.1777
 3605.4792      16.5000       3.0373      70.4260     149.1105      98.4375       0.3564       4.0551       2.1173
 3605.6316      16.5000       3.0376      74.9403     152.4606     117.2373       0.3407       3.6605       2.0344
 3605.7840      16.5000       3.0380      76.4701     152.7880     134.1057       0.3329       3.6558       1.9980
 3605.9364      16.5000       3.0383      76.4750     150.6980     133.3511       0.3266       4.1843       1.9706
 3606.0888      16.5000       3.0386      74.4652     148.1944     115.4486       0.3311       4.7123       1.9901
 3606.2412      16.5000       3.0388      71.5287     140.7245     106.2638       0.3258       4.6003       1.9674
 3606.3936      16.5000       3.0391      68.0018     132.3429     114.0173       0.3206       4.2048       1.9462
 3606.5460      16.5000       3.0394      66.5352     130.4687     111.0654       0.3243       3.6199       1.9609
 3606.6984      16.5000       3.0397      66.8308     133.0468      97.6418       0.3313       3.0537       1.9908
 3606.8508      16.5000       3.0399      69.8161     135.7244      96.6871       0.3201       3.1580       1.9440
 3607.0032      16.5000       3.0394      72.6078     136.9494     111.1338       0.3045       3.1595       1.8862
 3607.1556      16.5000       3.0387      73.3153     137.1010     122.3399       0.2998       3.3431       1.8700
 3607.3080      16.5000       3.0376      75.8351     137.0661     121.4367       0.2794       3.5770       1.8074
 3607.4604      16.5000       3.0367      75.4211     136.9494     129.4450       0.2823       3.6545       1.8158
 3607.6128      16.5000       3.0359      73.3667     133.3288     146.6177       0.2828       3.6857       1.8173
 3607.7652      16.5000       3.0351      66.9997     127.0587     149.0904       0.3074       3.5215       1.8964
 3607.9176      16.5000       3.0343      63.8562     119.6921     141.3723       0.3011       3.6123       1.8744
 3608.0700      16.5000       3.0333      63.5360     116.3041     129.2427       0.2873       4.1786       1.8305
 3608.2224      16.5000       3.0323      64.0765     120.1376     116.6828       0.3012       4.5508       1.8749
 3608.3748      16.5000       3.0315      65.0111     127.8058     111.7957       0.3255       4.1946       1.9659
 3608.5272      16.5000       3.0307      66.5130     134.0875     105.3252       0.3368       4.2493       2.0160
 3608.6796      16.5000       3.0299      68.1118     138.3756      97.8083       0.3401       4.2987       2.0316
 3608.8320      16.5000       3.0289      70.7825     139.9747     100.1779       0.3282       3.4528       1.9775
 3608.9844      16.5000       3.0281      72.3842     142.1791     115.7837       0.3251       3.0681       1.9642
 3609.1368      16.5000       3.0273      73.5730     146.0620     128.0099       0.3300       2.8518       1.9853
 3609.2892      16.5000       3.0263      75.8929     149.2210     125.8712       0.3255       2.9219       1.9662
 3609.4416      16.5000       3.0254      78.0267     149.9411     128.1869       0.3143       2.9048       1.9217
 3609.5940      16.5000       3.0248      77.9490     149.9465     136.4431       0.3148       2.7861       1.9237
 3609.7464      16.5000       3.0236      77.0264     149.4112     140.2539       0.3190       3.1176       1.9397
 3609.8988      16.5000       3.0230      76.9170     147.4509     143.7159       0.3131       3.5362       1.9170
 3610.0512      16.5000       3.0219      76.8711     145.6195     146.6427       0.3068       3.8264       1.8943
 3610.2036      16.5000       3.0211      76.3814     142.7096     145.0311       0.2993       3.9435       1.8684
 3610.3560      16.5000       3.0203      72.7087     139.3544     138.9608       0.3130       4.4855       1.9166
 3610.5084      16.5000       3.0196      69.4159     135.2125     133.5539       0.3211       4.4893       1.9479
 3610.6608      16.5000       3.0185      66.5671     131.2056     132.7651       0.3267       5.1956       1.9710
 3610.8132      16.5000       3.0177      63.7954     128.5342     134.6155       0.3366       4.5306       2.0148
 3610.9656      16.5000       3.0167      63.4221     126.3151     126.3069       0.3315       4.7702       1.9917
 3611.1180      16.5000       3.0160      64.9704     124.5095     105.6655       0.3129       4.5723       1.9164
 3611.2704      16.5000       3.0152      66.3976     123.8541      97.7782       0.2983       3.9529       1.8653
 3611.4228      16.5000       3.0141      65.9504     123.6900     104.9577       0.3014       3.8467       1.8755
 3611.5752      16.5000       3.0133      65.3852     124.9290     104.8314       0.3114       3.7146       1.9107
