~VERSION INFORMATION
VERS.           2.0   :CWLS Log ASCII Standard - VERSION 2.0
WRAP.           NO    :One Line per depth step
PROD.  Schlumberger   :LAS Producer
PROG.  DLIS to ASCII 2.3                               :LAS Program name and version
CREA.        2020/12/24 10:22                          :LAS Creation date {YYYY/MM/DD hh:mm}
DLIS_CREA.  2020-Dec-24 10:21                          :DLIS Creation date and time {YYYY-MMM-DD hh:mm}
SOURCE.     PNS_Processed.dlis                         :DLIS File Name
FILE-ID.     ToolSpecific_ConPr_R07_Drill_SONICVISION8 :File Identification Number
#--------------------------------------------------
~WELL INFORMATION
#MNEM.UNIT      DATA             DESCRIPTION
#---- ------ --------------   -----------------------------
STRT .M      4299.9660       :START DEPTH     
STOP .M      5201.7168       :STOP DEPTH     
STEP .M         0.1524       :STEP     
NULL .          -999.25      :NULL VALUE
COMP .        BP Development Australia Pty Ltd         :COMPANY
WELL .        Ironbark-1                               :WELL
FLD  .        Ironbark                                 :FIELD
LOC  .        WA-359-P                                 :LOCATION
CNTY .                                                 :COUNTY
STAT .        Western Australia                        :STATE
CTRY .        Australia                                :COUNTRY
API  .                                                 :API NUMBER
UWI  .        20AWA0029                                :UNIQUE WELL ID
DATE .        30-Oct-2020                              :LOG DATE {DD-MMM-YYYY}
SRVC .        Schlumberger                             :SERVICE COMPANY
LATI .DEG     19° 9' 34.079" S                        :LATITUDE
LONG .DEG     116° 4' 35.795" E                       :LONGITUDE
GDAT .                                                 :GeoDetic Datum
#-----------------------------------------------------------------------------
~PARAMETER INFORMATION
#MNEM.UNIT    VALUE                      DESCRIPTION
#---- -----   --------------------       ------------------------
RUN  .          7                        :RUN NUMBER
PDAT .        MSL                        :Permanent Datum
EPD  .M           0.000000               :Elevation of Permanent Datum above Mean Sea Level
LMF  .          DF                       :Logging Measured From (Name of Logging Elevation Reference)
APD  .M          23.850000               :Elevation of Depth Reference (LMF) above Permanent Datum
#-----------------------------------------------------------------------------
~CURVE INFORMATION
#MNEM.UNIT   API CODE                                  DESCRIPTION
#---- -----  --------                                  -----------------------
MD   .M                                                :DEPTH (BOREHOLE) {F10.4}
BS   .IN                                               :Bit Size {F13.4}
DCAV .IN                                               :Density Caliper, Average - filtered if Orion compressed {F13.4}
DEVI .DEG                                              :Hole Deviation {F13.4}
DTCO_MPS.US/F                                          :Compressional slowness {F13.4}
DTSH_MPS.US/F                                          :Shear slowness {F13.4}
GR_ARC.GAPI                                            :ARC Gamma Ray {F13.4}
PR   .UNITLESS                                         :Possion's Ratio {F13.4}
ROP5 .M/HR                                             :Rate of penetration averaged over the last 5 ft (1.5 m) {F13.4}
VPVS .UNITLESS                                         :VpVs Ratio {F13.4}
#-----------------------------------------------------------------------------
# 
#      MD         BS           DCAV         DEVI       DTCO_MPS     DTSH_MPS      GR_ARC        PR           ROP5         VPVS
#
~A  
 4299.9660   -9998.8819   -9998.8819   -9998.8819   -9998.8819   -9998.8819   -9998.8819   -9998.8819   -9998.8819   -9998.8819
 4300.1184      16.5000      14.3709       2.9084   -9999.0000   -9999.0000      65.6632   -9999.0000     372.2332   -9999.0000
 4300.2708      16.5000      11.8044       2.9079      91.2666   -9999.0000      65.8401   -9999.0000     372.6632   -9999.0000
 4300.4232      16.5000       9.2461       2.9073      94.9481   -9999.0000      67.1368   -9999.0000     373.0302   -9999.0000
 4300.5756      16.5000      12.1364       2.9067      93.9697   -9999.0000      69.5536   -9999.0000     374.2573   -9999.0000
 4300.7280      16.5000      14.3709       2.9060      92.4512   -9999.0000      70.7620   -9999.0000     370.9105   -9999.0000
 4300.8804      16.5000       9.7352       2.9054      84.9913   -9999.0000      70.4378   -9999.0000     361.4727   -9999.0000
 4301.0328      16.5000      13.8706       2.9048      80.5620   -9999.0000      69.7894   -9999.0000     339.7383   -9999.0000
 4301.1852      16.5000      13.1814       2.9042      79.5026   -9999.0000      68.4926   -9999.0000     273.0813   -9999.0000
 4301.3376      16.5000      14.2041       2.9036      79.2246   -9999.0000      66.5474   -9999.0000     200.5300   -9999.0000
 4301.4900      16.5000      14.4042       2.9030      77.6244   -9999.0000      65.5748   -9999.0000     151.8834   -9999.0000
 4301.6424      16.5000      14.8711       2.9024      76.0599   -9999.0000      66.2821   -9999.0000      85.5799   -9999.0000
 4301.7948      16.5000      14.4709       2.9020      75.6220   -9999.0000      67.6968   -9999.0000       9.8832   -9999.0000
 4301.9472      16.5000      13.8372       2.9012      75.8255   -9999.0000      68.4042   -9999.0000       9.8651   -9999.0000
 4302.0996      16.5000      13.2036       2.9006      75.5880   -9999.0000      68.6694   -9999.0000       9.8357   -9999.0000
 4302.2520      16.5000      13.4037       2.9000      76.2290   -9999.0000      69.1999   -9999.0000       9.7303   -9999.0000
 4302.4044      16.5000      13.5037       2.8995      76.3245   -9999.0000      69.4652   -9999.0000       9.5121   -9999.0000
 4302.5568      16.5000      13.6038       2.8989      75.7533   -9999.0000      68.4042   -9999.0000       9.4647   -9999.0000
 4302.7092      16.5000      14.2708       2.8983      75.9402   -9999.0000      66.2821   -9999.0000       9.4870   -9999.0000
 4302.8616      16.5000      13.6038       2.8977      75.8650   -9999.0000      65.2211   -9999.0000       9.5756   -9999.0000
 4303.0140      16.5000      13.8706       2.8971      75.4278   -9999.0000      65.8990   -9999.0000       9.6971   -9999.0000
 4303.1664      16.5000      14.1374       2.8964      77.1321   -9999.0000      67.2548   -9999.0000      10.1644   -9999.0000
 4303.3188      16.5000      14.6043       2.8959      79.4496   -9999.0000      67.9326   -9999.0000     100.5548   -9999.0000
 4303.4712      16.5000      15.0712       2.8952      81.4794   -9999.0000      69.7010   -9999.0000      90.6621   -9999.0000
 4303.6236      16.5000      13.7372       2.8947      80.2298   -9999.0000      73.2377   -9999.0000      82.7412   -9999.0000
 4303.7760      16.5000      13.4037       2.8941      71.6192   -9999.0000      76.7744   -9999.0000      82.2048   -9999.0000
 4303.9284      16.5000      14.1707       2.8935      63.4217   -9999.0000      80.1343   -9999.0000      94.5488   -9999.0000
 4304.0808      16.5000      14.9378       2.8929      59.1712   -9999.0000      77.5112   -9999.0000      97.4272   -9999.0000
 4304.2332      16.5000      14.0040       2.8923      57.8436   -9999.0000      69.1705   -9999.0000      99.5465   -9999.0000
 4304.3856      16.5000      13.9373       2.8917      56.8477   -9999.0000      66.1348   -9999.0000     101.6311   -9999.0000
 4304.5380      16.5000      13.4704       2.8911      57.1036   -9999.0000      68.9199   -9999.0000     103.9058   -9999.0000
 4304.6904      16.5000      13.8539       2.8905      57.9287   -9999.0000      69.8041   -9999.0000     107.6145   -9999.0000
 4304.8428      16.5000      14.2374       2.8899      58.0806   -9999.0000      66.7095   -9999.0000     121.1675   -9999.0000
 4304.9952      16.5000      13.9373       2.8893      58.7039   -9999.0000      62.1707   -9999.0000     142.7892   -9999.0000
 4305.1476      16.5000      14.0040       2.8887      56.7909   -9999.0000      58.6193   -9999.0000     176.1874   -9999.0000
 4305.3000      16.5000      13.5711       2.8881      54.7009   -9999.0000      55.7604   -9999.0000     220.4086   -9999.0000
 4305.4524      16.5000      13.1369       2.8875      55.6226   -9999.0000      52.6363   -9999.0000     264.4804   -9999.0000
 4305.6048      16.5000      13.8706       2.8869      59.0375   -9999.0000      51.7522   -9999.0000     286.8491   -9999.0000
 4305.7572      16.5000      14.3041       2.8863      62.5816   -9999.0000      52.4300   -9999.0000     299.2360   -9999.0000
 4305.9096      16.5000      14.7377       2.8857      63.5209   -9999.0000      51.7522   -9999.0000     300.4522   -9999.0000
 4306.0620      16.5000      13.8039       2.8851      60.1076   -9999.0000      49.9838   -9999.0000     289.6847   -9999.0000
 4306.2144      16.5000      13.8706       2.8845      56.7703   -9999.0000      47.8028   -9999.0000     260.4341   -9999.0000
 4306.3668      16.5000      13.9373       2.8839      55.0961   -9999.0000      46.7123   -9999.0000     217.4860   -9999.0000
 4306.5192      16.5000      13.8039       2.8832      55.9503   -9999.0000      46.2408   -9999.0000      86.5425   -9999.0000
 4306.6716      16.5000      14.2041       2.8828      56.7983   -9999.0000      45.2977   -9999.0000      38.8999   -9999.0000
 4306.8240      16.5000      14.1373       2.8821      58.9810   -9999.0000      44.8261   -9999.0000      38.2258   -9999.0000
 4306.9764      16.5000      14.0707       2.8815      60.4776   -9999.0000      44.0303   -9999.0000      37.8020   -9999.0000
 4307.1288      16.5000      13.9373       2.8809      59.8719   -9999.0000      42.4388   -9999.0000      37.2892   -9999.0000
 4307.2812      16.5000      13.5371       2.8803      58.1099   -9999.0000      41.6430   -9999.0000      36.4244   -9999.0000
 4307.4336      16.5000      13.3370       2.8798      57.9759   -9999.0000      43.2935   -9999.0000      35.5359   -9999.0000
 4307.5860      16.5000      13.6705       2.8792      58.1105   -9999.0000      46.5945   -9999.0000      35.1236   -9999.0000
 4307.7384      16.5000      13.5704       2.8786      59.6543   -9999.0000      48.2449   -9999.0000      35.1633   -9999.0000
 4307.8908      16.5000      13.4704       2.8779      68.6930   -9999.0000      47.4786   -9999.0000      35.5850   -9999.0000
 4308.0432      16.5000      13.7368       2.8773      75.3090   -9999.0000      45.9461   -9999.0000      45.4023   -9999.0000
 4308.1956      16.5000      14.0040       2.8768      78.4060   -9999.0000      45.1798   -9999.0000      92.5299   -9999.0000
 4308.3480      16.5000      13.8039       2.8762      78.0272   -9999.0000      44.3840   -9999.0000      80.8261   -9999.0000
 4308.5004      16.5000      13.6038       2.8756      75.7966   -9999.0000      42.7925   -9999.0000      77.7910   -9999.0000
 4308.6528      16.5000      13.6038       2.8750      73.7211   -9999.0000      40.8178   -9999.0000      77.2175   -9999.0000
 4308.8052      16.5000      13.8706       2.8744      70.9630   -9999.0000      37.8337   -9999.0000      78.6441   -9999.0000
 4308.9576      16.5000      13.8206       2.8738      69.8142   -9999.0000      37.4653   -9999.0000      81.1592   -9999.0000
 4309.1100      16.5000      13.7705       2.8732      69.3337   -9999.0000      42.2104   -9999.0000      82.9006   -9999.0000
 4309.2624      16.5000      13.8039       2.8726      71.1671   -9999.0000      42.8711   -9999.0000      84.2970   -9999.0000
 4309.4148      16.5000      13.9041       2.8720      73.3147   -9999.0000      38.0426   -9999.0000      86.2875   -9999.0000
