~VERSION INFORMATION
VERS.           2.0   :CWLS Log ASCII Standard - VERSION 2.0
WRAP.           NO    :One Line per depth step
PROD.  Schlumberger   :LAS Producer
PROG.  DLIS to ASCII 2.3                               :LAS Program name and version
CREA.        2020/12/07 11:58                          :LAS Creation date {YYYY/MM/DD hh:mm}
DLIS_CREA.  2020-Dec-07 11:16                          :DLIS Creation date and time {YYYY-MMM-DD hh:mm}
SOURCE.     sonicVISION_2.dlis                         :DLIS File Name
FILE-ID.     ToolSpecific_ConPr_R05_Drill_SONICVISION9 :File Identification Number
#--------------------------------------------------
~WELL INFORMATION
#MNEM.UNIT      DATA             DESCRIPTION
#---- ------ --------------   -----------------------------
STRT .M      2896.9716       :START DEPTH     
STOP .M      3794.9124       :STOP DEPTH     
STEP .M         0.1524       :STEP     
NULL .          -999.25      :NULL VALUE
COMP .        BP Development Australia Pty Ltd         :COMPANY
WELL .        Ironbark-1                               :WELL
FLD  .        WA-359-2                                 :FIELD
LOC  .        Northern Carnarvon Basin                 :LOCATION
CNTY .                                                 :COUNTY
STAT .        Western Australia                        :STATE
CTRY .        Australia                                :COUNTRY
API  .                                                 :API NUMBER
UWI  .        20AWA0029                                :UNIQUE WELL ID
DATE .        30-Nov-2020                              :LOG DATE {DD-MMM-YYYY}
SRVC .        Schlumberger                             :SERVICE COMPANY
LATI .DEG     19° 9' 34.079" S                        :LATITUDE
LONG .DEG     116° 4' 35.795" E                       :LONGITUDE
GDAT .                                                 :GeoDetic Datum
#-----------------------------------------------------------------------------
~PARAMETER INFORMATION
#MNEM.UNIT    VALUE                      DESCRIPTION
#---- -----   --------------------       ------------------------
RUN  .          Run5_16.5in              :RUN NUMBER
PDAT .        MSL                        :Permanent Datum
EPD  .C3           0.000000              :Elevation of Permanent Datum above Mean Sea Level
LMF  .          DF                       :Logging Measured From (Name of Logging Elevation Reference)
APD  .M          23.850000               :Elevation of Depth Reference (LMF) above Permanent Datum
#-----------------------------------------------------------------------------
~CURVE INFORMATION
#MNEM.UNIT   API CODE                                  DESCRIPTION
#---- -----  --------                                  -----------------------
DEPT .M                                                :DEPTH (BOREHOLE) {F10.4}
BS   .IN                                               :Bit Size {F13.4}
DEVI .DEG                                              :Hole Deviation {F13.4}
DTCO_MPS.US/F                                          : {F13.4}
DTSH_MPS.US/F                                          :Shear slowness {F13.4}
GR_ARC.GAPI                                            :ARC Gamma Ray {F13.4}
PR   .UNITLESS                                         :Possion's Ratio {F13.4}
ROP5 .M/HR                                             :Rate of penetration averaged over the last 5 ft (1.5 m) {F13.4}
VPVS .UNITLESS                                         :VpVs Ratio {F13.4}
#-----------------------------------------------------------------------------
# 
#     DEPT        BS           DEVI       DTCO_MPS     DTSH_MPS      GR_ARC        PR           ROP5         VPVS
#
~A  
# ...
 3195.6756      16.5000       1.3443      80.5192     145.4155     164.7186       0.2789      27.8724       1.8060
 3195.8280      16.5000       1.3465      80.2685     145.0186     164.9088       0.2792      27.3726       1.8067
 3195.9804      16.5000       1.3492      79.6751     145.2964     162.2183       0.2850      27.7271       1.8236
 3196.1328      16.5000       1.3518      78.9812     144.0908     160.5888       0.2853      29.1034       1.8244
 3196.2852      16.5000       1.3542      78.4186     142.4196     163.1884       0.2825      29.6354       1.8161
 3196.4376      16.5000       1.3564      77.6853     139.8331     159.4325       0.2768      28.4989       1.8000
 3196.5900      16.5000       1.3591      76.6808     135.6030     138.5515       0.2650      28.1217       1.7684
 3196.7424      16.5000       1.3612      74.5209     131.6958     110.8365       0.2645      26.7665       1.7672
 3196.8948      16.5000       1.3643      71.8205     128.7795      94.5752       0.2743      26.3460       1.7931
 3197.0472      16.5000       1.3661      69.3982     129.4044     102.6430       0.2981      24.9213       1.8647
 3197.1996      16.5000       1.3687      69.0020     135.2559     125.9058       0.3241      24.2780       1.9602
 3197.3520      16.5000       1.3716      70.4888     144.9462     144.2689       0.3451      24.5991       2.0563
 3197.5044      16.5000       1.3739      72.6946     155.1459     158.1455       0.3593      23.3901       2.1342
 3197.6568      16.5000       1.3764      75.1458     158.9523     165.4336       0.3561      22.8525       2.1153
 3197.8092      16.5000       1.3789      74.9285     158.0065     167.3550       0.3549      23.9355       2.1088
 3197.9616      16.5000       1.3814      74.4228     156.1548     171.6543       0.3530      24.8071       2.0982
 3198.1140      16.5000       1.3838      74.7066     155.5507     168.3026       0.3501      24.2680       2.0822
 3198.2664      16.5000       1.3862      75.6989     157.0544     162.2695       0.3487      25.2904       2.0747
 3198.4188      16.5000       1.3889      77.1628     158.9881     167.0114       0.3459      25.5315       2.0604
 3198.5712      16.5000       1.3912      78.6649     160.6749     175.2399       0.3424      28.2870       2.0425
 3198.7236      16.5000       1.3938      80.9686     159.7565     174.3824       0.3272      29.0514       1.9731
 3198.8760      16.5000       1.3959      83.3190     157.7997     167.2821       0.3067      26.1588       1.8939
 3199.0284      16.5000       1.3987      83.8636     157.5180     161.3770       0.3022      27.3531       1.8783
 3199.1808      16.5000       1.4012      82.9083     157.6083     157.0470       0.3087      27.9894       1.9010
 3199.3332      16.5000       1.4036      81.6690     155.0190     155.2359       0.3079      27.0617       1.8981
 3199.4856      16.5000       1.4061      79.9099     149.8318     149.8051       0.3012      26.5967       1.8750
 3199.6380      16.5000       1.4087      77.3654     144.5637     139.4617       0.2993      26.2710       1.8686
 3199.7904      16.5000       1.4111      76.3600     143.4761     132.5375       0.3024      25.8367       1.8789
 3199.9428      16.5000       1.4136      76.4730     146.4168     135.7461       0.3124      26.7758       1.9146
 3200.0952      16.5000       1.4162      77.4005     150.4443     149.5403       0.3200      27.9641       1.9437
 3200.2476      16.5000       1.4186      78.9157     152.4802     162.3991       0.3171      27.8012       1.9322
 3200.4000      16.5000       1.4211      80.2415     151.7124     165.9590       0.3058      30.5209       1.8907
 3200.5524      16.5000       1.4235      80.6626     151.2731     164.7897       0.3014      28.9354       1.8754
 3200.7048      16.5000       1.4261      80.8557     152.7048     163.2912       0.3052      28.4574       1.8886
 3200.8572      16.5000       1.4284      81.1548     154.4369     160.3203       0.3093      28.6351       1.9030
 3201.0096      16.5000       1.4310      81.1952     153.7693     158.3253       0.3067      29.1224       1.8938
 3201.1620      16.5000       1.4335      80.3507     150.1041     153.9157       0.2992      29.8060       1.8681
 3201.3144      16.5000       1.4362      79.7495     145.6448     146.1925       0.2859      30.7690       1.8263
 3201.4668      16.5000       1.4387      79.0678     143.3662     150.0758       0.2814      29.5062       1.8132
 3201.6192      16.5000       1.4409      78.1663     143.6040     162.8445       0.2895      27.8119       1.8372
 3201.7716      16.5000       1.4435      76.9817     142.5654     162.0165       0.2942      28.6309       1.8519
 3201.9240      16.5000       1.4459      75.7185     140.0593     154.2413       0.2935      27.9661       1.8497
 3202.0764      16.5000       1.4484      74.8150     137.4638     153.6184       0.2896      28.3410       1.8374
 3202.2288      16.5000       1.4508      74.4009     137.8583     141.5405       0.2945      28.2863       1.8529
 3202.3812      16.5000       1.4538      74.8300     140.0080     123.8130       0.3001      28.9063       1.8710
 3202.5336      16.5000       1.4560      75.2523     140.7536     122.7664       0.2999      24.0078       1.8704
 3202.6860      16.5000       1.4587      74.9914     139.8988     129.2987       0.2984      23.9617       1.8655
 3202.8384      16.5000       1.4608      73.5362     138.3137     130.2659       0.3030      22.7206       1.8809
 3202.9908      16.5000       1.4636      72.1678     137.1710     124.1487       0.3086      23.1126       1.9007
 3203.1432      16.5000       1.4661      71.2933     136.4247     124.4771       0.3122      22.8753       1.9136
 3203.2956      16.5000       1.4684      71.5380     136.0846     132.9438       0.3091      21.1712       1.9023
 3203.4480      16.5000       1.4710      71.9885     136.2764     131.5399       0.3065      21.5104       1.8930
 3203.6004      16.5000       1.4735      71.4538     134.4016     126.9817       0.3030      21.9649       1.8810
 3203.7528      16.5000       1.4759      70.1050     131.5268     133.5971       0.3016      21.8361       1.8761
 3203.9052      16.5000       1.4785      69.4633     130.7903     145.5392       0.3036      21.5239       1.8829
 3204.0576      16.5000       1.4811      70.2390     131.2451     165.0784       0.2993      24.2963       1.8686
 3204.2100      16.5000       1.4832      72.0847     133.0899     191.5469       0.2924      21.5042       1.8463
 3204.3624      16.5000       1.4855      73.8167     135.0822     205.0734       0.2871      20.4957       1.8300
 3204.5148      16.5000       1.4885      74.6419     135.3240     210.7179       0.2814      20.3502       1.8130
 3204.6672      16.5000       1.4910      75.2926     132.8627     215.9726       0.2635      20.4696       1.7646
 3204.8196      16.5000       1.4934      74.3701     129.0576     206.2788       0.2514      21.6054       1.7353
 3204.9720      16.5000       1.4959      72.6090     125.0967     182.2212       0.2460      21.1615       1.7229
 3205.1244      16.5000       1.4985      71.2728     121.8815     151.7107       0.2402      19.7998       1.7101
 3205.2768      16.5000       1.5013      70.9107     120.4319     125.6536       0.2347      19.3433       1.6984
 3205.4292      16.5000       1.5033      71.3723     120.8527     114.2347       0.2322      17.9205       1.6933
 3205.5816      16.5000       1.5059      71.9686     121.6598     116.0320       0.2308      17.3705       1.6905
 3205.7340      16.5000       1.5084      72.7384     122.0629     123.6095       0.2247      18.8633       1.6781
 3205.8864      16.5000       1.5109      73.5114     123.4215     125.5424       0.2251      19.8178       1.6789
 3206.0388      16.5000       1.5137      74.3875     126.3344     118.2898       0.2347      19.3095       1.6983
 3206.1912      16.5000       1.5161      75.0055     129.2496     111.6290       0.2461      19.2387       1.7232
