~VERSION INFORMATION
VERS.           2.0   :CWLS Log ASCII Standard - VERSION 2.0
WRAP.           NO    :One Line per depth step
PROD.  Schlumberger   :LAS Producer
PROG.  DLIS to ASCII 2.3                               :LAS Program name and version
CREA.        2021/01/04 14:54                          :LAS Creation date {YYYY/MM/DD hh:mm}
DLIS_CREA.  2021-Jan-04 14:41                          :DLIS Creation date and time {YYYY-MMM-DD hh:mm}
SOURCE.     PnS_Processed.dlis                         :DLIS File Name
FILE-ID.     ConPr_R08_Drill_ARC6_TELE675_SONICVISION6 :File Identification Number
#--------------------------------------------------
~WELL INFORMATION
#MNEM.UNIT      DATA             DESCRIPTION
#---- ------ --------------   -----------------------------
STRT .M      5170.0176       :START DEPTH     
STOP .M      5614.8732       :STOP DEPTH     
STEP .M         0.1524       :STEP     
NULL .          -999.25      :NULL VALUE
COMP .        BP Development Australia Pty Ltd         :COMPANY
WELL .        Ironbark-1                               :WELL
FLD  .        Ironbark                                 :FIELD
LOC  .        WA-359-P                                 :LOCATION
CNTY .                                                 :COUNTY
STAT .        Western Australia                        :STATE
CTRY .        Australia                                :COUNTRY
API  .                                                 :API NUMBER
UWI  .        20AWA0029                                :UNIQUE WELL ID
DATE .        30-Oct-2020                              :LOG DATE {DD-MMM-YYYY}
SRVC .        Schlumberger                             :SERVICE COMPANY
LATI .DEG     19° 9' 34.079" S                        :LATITUDE
LONG .DEG     116° 4' 35.795" E                       :LONGITUDE
GDAT .                                                 :GeoDetic Datum
#-----------------------------------------------------------------------------
~PARAMETER INFORMATION
#MNEM.UNIT    VALUE                      DESCRIPTION
#---- -----   --------------------       ------------------------
RUN  .          Run8_8.5in               :RUN NUMBER
PDAT .        MSL                        :Permanent Datum
EPD  .M           0.000000               :Elevation of Permanent Datum above Mean Sea Level
LMF  .          DF                       :Logging Measured From (Name of Logging Elevation Reference)
APD  .M          23.850000               :Elevation of Depth Reference (LMF) above Permanent Datum
#-----------------------------------------------------------------------------
~CURVE INFORMATION
#MNEM.UNIT   API CODE                                  DESCRIPTION
#---- -----  --------                                  -----------------------
MD   .M                                                :DEPTH (BOREHOLE) {F10.4}
BS   .IN                                               :Bit Size {F13.4}
DCAV .IN                                               :Density Caliper, Average - filtered if Orion compressed {F13.4}
DEVI .DEG                                              :Hole Deviation {F13.4}
DTCO_MPS.US/F                                          :Compressional slowness {F13.4}
DTSH_MPS.US/F                                          :Shear slowness {F13.4}
GR_ARC.GAPI                                            :ARC Gamma Ray {F13.4}
PR   .UNITLESS                                         :Possion's Ratio {F13.4}
ROP5 .M/HR                                             :Rate of penetration averaged over the last 5 ft (1.5 m) {F13.4}
VPVS .UNITLESS                                         :VpVs Ratio {F13.4}
#-----------------------------------------------------------------------------
# 
#      MD         BS           DCAV         DEVI       DTCO_MPS     DTSH_MPS      GR_ARC        PR           ROP5         VPVS
#
~A  
 5170.0176      12.2500      10.5576       0.2165   -9999.0000   -9999.0000     129.7238   -9999.0000       7.9487   -9999.0000
 5170.1700      12.2500      10.5516       0.2164   -9999.0000   -9999.0000     133.6660   -9999.0000       7.1831   -9999.0000
 5170.3224      12.2500      10.5103       0.2162   -9999.0000   -9999.0000     135.5313   -9999.0000       7.1961   -9999.0000
 5170.4748      12.2500      10.3363       0.2161   -9999.0000   -9999.0000     133.0840   -9999.0000       7.6622   -9999.0000
 5170.6272      12.2500      10.4664       0.2160   -9999.0000   -9999.0000     128.5508   -9999.0000       8.4745   -9999.0000
 5170.7796      12.2500      10.3611       0.2159   -9999.0000   -9999.0000     124.9437   -9999.0000       9.3048   -9999.0000
 5170.9320      12.2500      10.2420       0.2158   -9999.0000   -9999.0000     122.8094   -9999.0000      10.5482   -9999.0000
 5171.0844      12.2500       9.9491       0.2157   -9999.0000   -9999.0000     120.0931   -9999.0000      10.0735   -9999.0000
 5171.2368      12.2500       9.4919       0.2156   -9999.0000   -9999.0000     118.5982   -9999.0000      10.3432   -9999.0000
 5171.3892      12.2500       9.5272       0.2155   -9999.0000   -9999.0000     121.4953   -9999.0000       9.9208   -9999.0000
 5171.5416      12.2500       9.5621       0.2153   -9999.0000   -9999.0000     127.5278   -9999.0000      10.5911   -9999.0000
 5171.6940      12.2500       9.5550       0.2153   -9999.0000   -9999.0000     134.3539   -9999.0000      15.5103   -9999.0000
 5171.8464      12.2500       9.8422       0.2151   -9999.0000   -9999.0000     138.8915   -9999.0000      20.0665   -9999.0000
 5171.9988      12.2500      10.0061       0.2150   -9999.0000   -9999.0000     141.1933   -9999.0000      18.2250   -9999.0000
 5172.1512      12.2500      10.3526       0.2149   -9999.0000   -9999.0000     143.9847   -9999.0000      18.6138   -9999.0000
 5172.3036      12.2500      10.3395       0.2148   -9999.0000   -9999.0000     147.6491   -9999.0000      18.5587   -9999.0000
 5172.4560      12.2500      10.1585       0.2147   -9999.0000   -9999.0000     150.0568   -9999.0000      20.1841   -9999.0000
 5172.6084      12.2500      10.2506       0.2146   -9999.0000   -9999.0000     149.7790   -9999.0000      29.5744   -9999.0000
 5172.7608      12.2500      10.2902       0.2145   -9999.0000   -9999.0000     149.4218   -9999.0000      34.1382   -9999.0000
 5172.9132      12.2500      10.2285       0.2144   -9999.0000   -9999.0000     150.2288   -9999.0000      48.3516   -9999.0000
 5173.0656      12.2500      10.1099       0.2143   -9999.0000   -9999.0000     148.6876   -9999.0000      48.0467   -9999.0000
 5173.2180      12.2500      10.2116       0.2142   -9999.0000   -9999.0000     140.0160   -9999.0000      50.8978   -9999.0000
 5173.3704      12.2500       9.9381       0.2141   -9999.0000   -9999.0000     127.1375   -9999.0000      53.0542   -9999.0000
 5173.5228      12.2500       9.7527       0.2140   -9999.0000   -9999.0000     122.9108   -9999.0000      75.9581   -9999.0000
 5173.6752      12.2500       9.7117       0.2138   -9999.0000   -9999.0000     128.0437   -9999.0000      80.2336   -9999.0000
 5173.8276      12.2500       9.9454       0.2137   -9999.0000   -9999.0000     132.6606   -9999.0000      79.8545   -9999.0000
 5173.9800      12.2500      10.0789       0.2136   -9999.0000   -9999.0000     135.4784   -9999.0000      81.1795   -9999.0000
 5174.1324      12.2500      10.3739       0.2135   -9999.0000   -9999.0000     138.7195   -9999.0000      77.4647   -9999.0000
 5174.2848      12.2500      10.3037       0.2134   -9999.0000   -9999.0000     141.3653   -9999.0000      67.7757   -9999.0000
 5174.4372      12.2500      10.3675       0.2133   -9999.0000   -9999.0000     142.2120   -9999.0000      65.6812   -9999.0000
 5174.5896      12.2500      10.3574       0.2132   -9999.0000   -9999.0000     141.6167   -9999.0000      61.4166   -9999.0000
 5174.7420      12.2500      10.4249       0.2131   -9999.0000   -9999.0000     140.1483   -9999.0000      58.0778   -9999.0000
 5174.8944      12.2500      10.4104       0.2130   -9999.0000   -9999.0000     139.3810   -9999.0000      52.7825   -9999.0000
 5175.0468      12.2500      10.3958       0.2129   -9999.0000   -9999.0000     139.7514   -9999.0000      50.1800   -9999.0000
 5175.1992      12.2500      10.3774       0.2128   -9999.0000   -9999.0000     139.5662   -9999.0000      47.6080   -9999.0000
 5175.3516      12.2500      10.3678       0.2127   -9999.0000   -9999.0000     137.4495   -9999.0000      44.9171   -9999.0000
 5175.5040      12.2500      10.4610       0.2126   -9999.0000   -9999.0000     134.8037   -9999.0000      44.9980   -9999.0000
 5175.6564      12.2500      10.4519       0.2125   -9999.0000   -9999.0000     133.2692   -9999.0000      46.6012   -9999.0000
 5175.8088      12.2500      10.4657       0.2124   -9999.0000   -9999.0000     132.1103   -9999.0000      51.0664   -9999.0000
 5175.9612      12.2500      10.2859       0.2123   -9999.0000   -9999.0000     132.3140   -9999.0000      52.4119   -9999.0000
 5176.1136      12.2500      10.3507       0.2122   -9999.0000   -9999.0000     133.2921   -9999.0000      54.7316   -9999.0000
 5176.2660      12.2500      10.4405       0.2121   -9999.0000   -9999.0000     131.8757   -9999.0000      59.0081   -9999.0000
 5176.4184      12.2500      10.4291       0.2119   -9999.0000   -9999.0000     128.6170   -9999.0000      69.8231   -9999.0000
 5176.5708      12.2500      10.3730       0.2118   -9999.0000   -9999.0000     124.3396   -9999.0000      75.5052   -9999.0000
 5176.7232      12.2500      10.4113       0.2117   -9999.0000   -9999.0000     117.6721   -9999.0000      82.2465   -9999.0000
 5176.8756      12.2500      10.2542       0.2116   -9999.0000   -9999.0000     110.9386   -9999.0000      92.9358   -9999.0000
 5177.0280      12.2500      10.2430       0.2115      69.1949   -9999.0000     107.0051   -9999.0000      92.9981   -9999.0000
 5177.1804      12.2500      10.1732       0.2114      67.6505   -9999.0000     106.3525   -9999.0000      91.2039   -9999.0000
 5177.3328      12.2500      10.5111       0.2113      70.0152   -9999.0000     108.5926   -9999.0000      89.6144   -9999.0000
 5177.4852      12.2500      10.2053       0.2112      72.0899   -9999.0000     111.2825   -9999.0000      86.5083   -9999.0000
 5177.6376      12.2500      10.2501       0.2111      73.2306   -9999.0000     112.4996   -9999.0000      87.0726   -9999.0000
 5177.7900      12.2500       9.9831       0.2110      75.8829   -9999.0000     111.8646   -9999.0000      83.3257   -9999.0000
 5177.9424      12.2500      10.0624       0.2109      77.9443   -9999.0000     109.2982   -9999.0000      83.3616   -9999.0000
 5178.0948      12.2500      10.2022       0.2108      77.6158   -9999.0000     103.3240   -9999.0000      80.7986   -9999.0000
 5178.2472      12.2500      10.2224       0.2107      74.9251   -9999.0000      98.4345   -9999.0000      79.4377   -9999.0000
 5178.3996      12.2500      10.3341       0.2106      74.3283   -9999.0000     102.9094   -9999.0000      77.7083   -9999.0000
 5178.5520      12.2500      10.3978       0.2105      76.2323   -9999.0000     114.9620   -9999.0000      77.8440   -9999.0000
 5178.7044      12.2500      10.3097       0.2104      79.3006   -9999.0000     127.9017   -9999.0000      77.7660   -9999.0000
 5178.8568      12.2500      10.1821       0.2103      82.4634   -9999.0000     136.9839   -9999.0000      79.2566   -9999.0000
 5179.0092      12.2500      10.1126       0.2102      82.5205   -9999.0000     142.2649   -9999.0000      80.9976   -9999.0000
 5179.1616      12.2500      10.0013       0.2101      80.1342   -9999.0000     145.4332   -9999.0000      80.7063   -9999.0000
 5179.3140      12.2500      10.0732       0.2100      77.5068   -9999.0000     145.8235   -9999.0000      84.5236   -9999.0000
 5179.4664      12.2500       9.9905       0.2099      76.3634   -9999.0000     143.0785   -9999.0000      81.2483   -9999.0000
