~VERSION INFORMATION
VERS.           2.0   :CWLS Log ASCII Standard - VERSION 2.0
WRAP.           NO    :One Line per depth step
PROD.  Schlumberger   :LAS Producer
PROG.  DLIS to ASCII 2.3                               :LAS Program name and version
CREA.        2020/12/07 11:58                          :LAS Creation date {YYYY/MM/DD hh:mm}
DLIS_CREA.  2020-Dec-07 11:16                          :DLIS Creation date and time {YYYY-MMM-DD hh:mm}
SOURCE.     sonicVISION_2.dlis                         :DLIS File Name
FILE-ID.     ToolSpecific_ConPr_R05_Drill_SONICVISION9 :File Identification Number
#--------------------------------------------------
~WELL INFORMATION
#MNEM.UNIT      DATA             DESCRIPTION
#---- ------ --------------   -----------------------------
STRT .M      2896.9716       :START DEPTH     
STOP .M      3794.9124       :STOP DEPTH     
STEP .M         0.1524       :STEP     
NULL .          -999.25      :NULL VALUE
COMP .        BP Development Australia Pty Ltd         :COMPANY
WELL .        Ironbark-1                               :WELL
FLD  .        WA-359-2                                 :FIELD
LOC  .        Northern Carnarvon Basin                 :LOCATION
CNTY .                                                 :COUNTY
STAT .        Western Australia                        :STATE
CTRY .        Australia                                :COUNTRY
API  .                                                 :API NUMBER
UWI  .        20AWA0029                                :UNIQUE WELL ID
DATE .        30-Nov-2020                              :LOG DATE {DD-MMM-YYYY}
SRVC .        Schlumberger                             :SERVICE COMPANY
LATI .DEG     19° 9' 34.079" S                        :LATITUDE
LONG .DEG     116° 4' 35.795" E                       :LONGITUDE
GDAT .                                                 :GeoDetic Datum
#-----------------------------------------------------------------------------
~PARAMETER INFORMATION
#MNEM.UNIT    VALUE                      DESCRIPTION
#---- -----   --------------------       ------------------------
RUN  .          Run5_16.5in              :RUN NUMBER
PDAT .        MSL                        :Permanent Datum
EPD  .C3           0.000000              :Elevation of Permanent Datum above Mean Sea Level
LMF  .          DF                       :Logging Measured From (Name of Logging Elevation Reference)
APD  .M          23.850000               :Elevation of Depth Reference (LMF) above Permanent Datum
#-----------------------------------------------------------------------------
~CURVE INFORMATION
#MNEM.UNIT   API CODE                                  DESCRIPTION
#---- -----  --------                                  -----------------------
DEPT .M                                                :DEPTH (BOREHOLE) {F10.4}
BS   .IN                                               :Bit Size {F13.4}
DEVI .DEG                                              :Hole Deviation {F13.4}
DTCO_MPS.US/F                                          : {F13.4}
DTSH_MPS.US/F                                          :Shear slowness {F13.4}
GR_ARC.GAPI                                            :ARC Gamma Ray {F13.4}
PR   .UNITLESS                                         :Possion's Ratio {F13.4}
ROP5 .M/HR                                             :Rate of penetration averaged over the last 5 ft (1.5 m) {F13.4}
VPVS .UNITLESS                                         :VpVs Ratio {F13.4}
#-----------------------------------------------------------------------------
# 
#     DEPT        BS           DEVI       DTCO_MPS     DTSH_MPS      GR_ARC        PR           ROP5         VPVS
#
~A  
# ...
 3665.0676      16.5000       2.9235      77.3184     133.1463     128.2605       0.2456      17.4016       1.7221
 3665.2200      16.5000       2.9234      78.4008     135.2733     126.3474       0.2471      15.8710       1.7254
 3665.3724      16.5000       2.9232      79.8398     139.1760     120.3685       0.2547      14.9010       1.7432
 3665.5248      16.5000       2.9231      80.9592     142.8228     117.9503       0.2633      14.3322       1.7641
 3665.6772      16.5000       2.9229      81.2030     144.4138     118.6522       0.2688      14.4917       1.7784
 3665.8296      16.5000       2.9228      79.6125     143.1088     118.4362       0.2759      15.6747       1.7976
 3665.9820      16.5000       2.9226      77.8859     139.3166     118.3278       0.2727      16.4427       1.7887
 3666.1344      16.5000       2.9225      76.0418     132.7737     114.0025       0.2559      17.1840       1.7461
 3666.2868      16.5000       2.9223      76.0844     127.7207     106.4864       0.2250      16.9641       1.6787
 3666.4392      16.5000       2.9222      77.1549     130.9876      99.9471       0.2344      15.4536       1.6977
 3666.5916      16.5000       2.9221      78.7397     142.8651      96.0339       0.2819      16.6845       1.8144
 3666.7440      16.5000       2.9219      79.3303     147.9486     100.4661       0.2982      17.6998       1.8650
 3666.8964      16.5000       2.9217      77.5848     148.0451     109.5658       0.3107      18.9398       1.9082
 3667.0488      16.5000       2.9216      74.5294     143.8106     113.7467       0.3164      20.6480       1.9296
 3667.2012      16.5000       2.9215      73.3118     137.2825     122.2713       0.3005      20.6135       1.8726
 3667.3536      16.5000       2.9213      73.8398     131.1149     139.2106       0.2678      18.2263       1.7757
 3667.5060      16.5000       2.9212      75.5996     128.4330     148.0331       0.2349      16.7200       1.6989
 3667.6584      16.5000       2.9210      77.2451     128.2695     146.4164       0.2155      15.1659       1.6606
 3667.8108      16.5000       2.9209      79.1147     130.3220     139.5446       0.2082      14.0471       1.6473
 3667.9632      16.5000       2.9207      80.4760     133.7113     126.6299       0.2160      16.0320       1.6615
 3668.1156      16.5000       2.9206      80.9739     138.1252     110.2435       0.2382      15.7189       1.7058
 3668.2680      16.5000       2.9204      81.1823     140.3498      96.0303       0.2486      15.5711       1.7288
 3668.4204      16.5000       2.9203      81.2039     140.3489      91.4432       0.2484      15.6365       1.7284
 3668.5728      16.5000       2.9201      81.4390     139.0094     101.6807       0.2387      15.8877       1.7069
 3668.7252      16.5000       2.9200      81.2481     135.7580     119.0472       0.2210      16.5447       1.6709
 3668.8776      16.5000       2.9199      78.6354     129.4368     125.8988       0.2075      16.5889       1.6460
 3669.0300      16.5000       2.9197      73.6465     127.0134     119.4101       0.2468      18.2583       1.7246
 3669.1824      16.5000       2.9196      71.1997     128.4613     104.8313       0.2783      17.5341       1.8042
 3669.3348      16.5000       2.9195      71.6656     132.8493      89.9281       0.2948      16.0938       1.8537
 3669.4872      16.5000       2.9193      74.0042     138.5340      87.4326       0.3003      16.5039       1.8720
 3669.6396      16.5000       2.9191      76.5802     141.4576      98.3916       0.2927      18.1171       1.8472
 3669.7920      16.5000       2.9190      76.8780     142.7191     118.6507       0.2956      17.6077       1.8564
 3669.9444      16.5000       2.9188      76.0974     142.1743     135.9978       0.2992      16.8200       1.8683
 3670.0968      16.5000       2.9187      75.3418     140.2043     141.4828       0.2970      16.2307       1.8609
 3670.2492      16.5000       2.9185      75.7277     138.8445     146.2822       0.2883      16.0508       1.8335
 3670.4016      16.5000       2.9184      76.5225     140.6822     149.2938       0.2899      17.2175       1.8384
 3670.5540      16.5000       2.9183      77.6976     143.6346     143.4984       0.2932      17.2532       1.8486
 3670.7064      16.5000       2.9181      78.0768     145.6406     139.7459       0.2983      20.7067       1.8654
 3670.8588      16.5000       2.9180      78.6117     145.7661     141.7453       0.2949      23.3356       1.8543
 3671.0112      16.5000       2.9178      79.1754     144.2061     146.5667       0.2842      23.1209       1.8213
 3671.1636      16.5000       2.9177      79.7712     143.0088     151.1468       0.2742      22.8293       1.7927
 3671.3160      16.5000       2.9175      81.2926     144.3442     146.7261       0.2677      23.4827       1.7756
 3671.4684      16.5000       2.9174      84.4970     149.5962     131.0541       0.2657      22.2331       1.7704
 3671.6208      16.5000       2.9172      89.6320     162.3558     106.2417       0.2808      23.3284       1.8114
 3671.7732      16.5000       2.9171      92.6599     168.4525      80.5509       0.2831      24.1553       1.8180
 3671.9256      16.5000       2.9169      92.0372     165.1044      70.3322       0.2746      25.3523       1.7939
 3672.0780      16.5000       2.9168      89.0599     157.5430      80.5811       0.2652      24.7073       1.7690
 3672.2304      16.5000       2.9166      85.2809     151.5196     103.0877       0.2682      24.3740       1.7767
 3672.3828      16.5000       2.9165      81.3892     148.2920     132.6213       0.2845      26.2737       1.8220
 3672.5352      16.5000       2.9164      78.8278     145.3030     154.9078       0.2915      24.9104       1.8433
 3672.6876      16.5000       2.9162      79.7613     143.6442     159.2796       0.2771      21.0178       1.8009
 3672.8400      16.5000       2.9161      81.5708     144.8721     155.6524       0.2679      19.2224       1.7760
 3672.9924      16.5000       2.9159      81.9111     148.8599     152.3349       0.2829      21.2751       1.8173
 3673.1448      16.5000       2.9158      82.0282     153.0164     153.8963       0.2984      18.2418       1.8654
 3673.2972      16.5000       2.9156      81.9083     154.3518     154.4444       0.3040      17.8325       1.8844
 3673.4496      16.5000       2.9155      81.9809     152.3512     148.5606       0.2962      16.7616       1.8584
 3673.6020      16.5000       2.9153      82.2575     149.6477     148.3129       0.2835      16.3181       1.8193
 3673.7544      16.5000       2.9152      82.3783     148.5939     149.2058       0.2781      16.1277       1.8038
 3673.9068      16.5000       2.9151      82.5027     148.8766     138.6372       0.2784      15.6857       1.8045
 3674.0592      16.5000       2.9149      82.5999     149.2547     126.7397       0.2793      15.8783       1.8070
 3674.2116      16.5000       2.9147      81.6331     146.4360     123.6713       0.2746      16.9075       1.7938
 3674.3640      16.5000       2.9146      80.3300     141.6023     128.2716       0.2627      16.7136       1.7628
 3674.5164      16.5000       2.9145      79.0070     137.4650     132.7939       0.2534      16.0170       1.7399
 3674.6688      16.5000       2.9143      78.7080     134.8395     130.7990       0.2416      17.0176       1.7132
 3674.8212      16.5000       2.9142      78.6429     132.6703     128.1115       0.2291      16.2432       1.6870
 3674.9736      16.5000       2.9140      78.1810     130.5901     123.2440       0.2207      15.7139       1.6704
 3675.1260      16.5000       2.9139      77.6916     130.6008     112.7195       0.2261      15.7285       1.6810
 3675.2784      16.5000       2.9137      77.5712     131.3877     107.4775       0.2325      15.4715       1.6938
 3675.4308      16.5000       2.9135      77.8256     134.0402     112.7181       0.2457      16.6370       1.7223
 3675.5832      16.5000       2.9134      78.1873     137.5720     118.2389       0.2614      14.3282       1.7595
