~VERSION INFORMATION
VERS.           2.0   :CWLS Log ASCII Standard - VERSION 2.0
WRAP.           NO    :One Line per depth step
PROD.  Schlumberger   :LAS Producer
PROG.  DLIS to ASCII 2.3                               :LAS Program name and version
CREA.        2021/01/04 14:54                          :LAS Creation date {YYYY/MM/DD hh:mm}
DLIS_CREA.  2021-Jan-04 14:41                          :DLIS Creation date and time {YYYY-MMM-DD hh:mm}
SOURCE.     PnS_Processed.dlis                         :DLIS File Name
FILE-ID.     ConPr_R08_Drill_ARC6_TELE675_SONICVISION6 :File Identification Number
#--------------------------------------------------
~WELL INFORMATION
#MNEM.UNIT      DATA             DESCRIPTION
#---- ------ --------------   -----------------------------
STRT .M      5170.0176       :START DEPTH     
STOP .M      5614.8732       :STOP DEPTH     
STEP .M         0.1524       :STEP     
NULL .          -999.25      :NULL VALUE
COMP .        BP Development Australia Pty Ltd         :COMPANY
WELL .        Ironbark-1                               :WELL
FLD  .        Ironbark                                 :FIELD
LOC  .        WA-359-P                                 :LOCATION
CNTY .                                                 :COUNTY
STAT .        Western Australia                        :STATE
CTRY .        Australia                                :COUNTRY
API  .                                                 :API NUMBER
UWI  .        20AWA0029                                :UNIQUE WELL ID
DATE .        30-Oct-2020                              :LOG DATE {DD-MMM-YYYY}
SRVC .        Schlumberger                             :SERVICE COMPANY
LATI .DEG     19° 9' 34.079" S                        :LATITUDE
LONG .DEG     116° 4' 35.795" E                       :LONGITUDE
GDAT .                                                 :GeoDetic Datum
#-----------------------------------------------------------------------------
~PARAMETER INFORMATION
#MNEM.UNIT    VALUE                      DESCRIPTION
#---- -----   --------------------       ------------------------
RUN  .          Run8_8.5in               :RUN NUMBER
PDAT .        MSL                        :Permanent Datum
EPD  .M           0.000000               :Elevation of Permanent Datum above Mean Sea Level
LMF  .          DF                       :Logging Measured From (Name of Logging Elevation Reference)
APD  .M          23.850000               :Elevation of Depth Reference (LMF) above Permanent Datum
#-----------------------------------------------------------------------------
~CURVE INFORMATION
#MNEM.UNIT   API CODE                                  DESCRIPTION
#---- -----  --------                                  -----------------------
MD   .M                                                :DEPTH (BOREHOLE) {F10.4}
BS   .IN                                               :Bit Size {F13.4}
DCAV .IN                                               :Density Caliper, Average - filtered if Orion compressed {F13.4}
DEVI .DEG                                              :Hole Deviation {F13.4}
DTCO_MPS.US/F                                          :Compressional slowness {F13.4}
DTSH_MPS.US/F                                          :Shear slowness {F13.4}
GR_ARC.GAPI                                            :ARC Gamma Ray {F13.4}
PR   .UNITLESS                                         :Possion's Ratio {F13.4}
ROP5 .M/HR                                             :Rate of penetration averaged over the last 5 ft (1.5 m) {F13.4}
VPVS .UNITLESS                                         :VpVs Ratio {F13.4}
#-----------------------------------------------------------------------------
# 
#      MD         BS           DCAV         DEVI       DTCO_MPS     DTSH_MPS      GR_ARC        PR           ROP5         VPVS
#
~A  
# ...
 5400.4464       8.5000       8.3425       0.0994      59.5121     102.1451      84.0129       0.2431       4.9086       1.7164
 5400.5988       8.5000       8.3620       0.0987      60.7901     105.3038      94.1192       0.2501       4.6806       1.7323
 5400.7512       8.5000       8.3496       0.0973      63.9661     112.5173     111.1490       0.2612       5.1121       1.7590
 5400.9036       8.5000       8.3380       0.0961      69.2841     120.4472     128.9498       0.2527       5.0218       1.7385
 5401.0560       8.5000       8.3244       0.0953      71.9544     121.0449     136.6136       0.2268       4.5677       1.6822
 5401.2084       8.5000       8.3217       0.0940      71.1601     118.3007     126.4912       0.2165       4.8109       1.6625
 5401.3608       8.5000       8.3120       0.0927      68.7743     114.2302     103.7609       0.2157       4.9071       1.6609
 5401.5132       8.5000       8.3201       0.0919      64.6594     107.0526      79.7744       0.2128       4.7869       1.6556
 5401.6656       8.5000       8.3133       0.0905      60.3618      99.9206      64.4688       0.2127       5.6854       1.6554
 5401.8180       8.5000       8.3076       0.0894      59.5420      98.2551      65.2797       0.2098       4.7869       1.6502
 5401.9704       8.5000       8.3147       0.0889      61.0591     102.2416      82.0815       0.2228       5.4539       1.6745
 5402.1228       8.5000       8.3088       0.0878      62.7639     108.0271      97.9153       0.2452       6.2680       1.7212
 5402.2752       8.5000       8.3229       0.0866      64.6046     114.6050     102.5023       0.2671       6.3280       1.7739
 5402.4276       8.5000       8.3235       0.0857      64.8769     116.6183     107.1137       0.2759       5.9886       1.7975
 5402.5800       8.5000       8.3359       0.0846      63.7695     115.9327     112.3983       0.2831       6.7016       1.8180
 5402.7324       8.5000       8.3252       0.0834      62.2867     115.6930     108.6308       0.2959       6.5878       1.8574
 5402.8848       8.5000       8.3141       0.0825      61.1962     115.6635     102.6535       0.3056       5.6979       1.8900
 5403.0372       8.5000       8.3217       0.0816      62.9467     119.5803     104.7219       0.3083       5.7398       1.8997
 5403.1896       8.5000       8.3342       0.0806      64.7246     124.2925     112.5037       0.3140       5.7288       1.9203
 5403.3420       8.5000       8.2992       0.0794      63.6739     125.2576     120.5294       0.3258       7.1343       1.9672
 5403.4944       8.5000       8.3013       0.0785      64.4264     121.4740     127.1005       0.3043       8.8454       1.8855
 5403.6468       8.5000       8.3117       0.0773      65.4893     121.0717     126.0526       0.2932       8.9497       1.8487
 5403.7992       8.5000       8.3754       0.0765      62.5544     118.8478     115.6814       0.3084       7.0373       1.8999
 5403.9516       8.5000       8.3011       0.0754      59.4697     111.0265     103.6652       0.2988       7.1810       1.8669
 5404.1040       8.5000       8.2997       0.0748      57.9935     104.3019      88.3911       0.2763       6.5231       1.7985
 5404.2564       8.5000       8.3452       0.0734      60.0889     105.5017      72.6623       0.2599       5.9524       1.7558
 5404.4088       8.5000       8.3314       0.0725      64.8727     112.8176      67.3657       0.2530       5.9702       1.7391
 5404.5612       8.5000       8.3037       0.0714      72.0424     123.7855      77.9232       0.2439       6.9932       1.7182
 5404.7136       8.5000       8.3141       0.0704      79.6000     137.4692      98.7974       0.2478       6.9382       1.7270
 5404.8660       8.5000       8.3149       0.0693      81.6077     148.2271     114.2302       0.2825       6.9754       1.8163
 5405.0184       8.5000       8.3609       0.0684      80.6867     150.1539     122.3310       0.2970       7.1572       1.8610
 5405.1708       8.5000       8.2968       0.0673      79.6727     147.5046     129.7194       0.2940       7.2883       1.8514
 5405.3232       8.5000       8.2966       0.0662      78.9293     141.4525     131.4719       0.2739       9.3789       1.7921
 5405.4756       8.5000       8.3095       0.0654      78.2169     135.8149     124.0160       0.2519      10.2434       1.7364
 5405.6280       8.5000       8.3452       0.0642      76.7575     132.5906     119.5456       0.2480      12.2380       1.7274
 5405.7804       8.5000       8.3189       0.0633      75.5770     129.4229     125.6685       0.2413      15.8880       1.7125
 5405.9328       8.5000       8.3066       0.0623      73.4791     123.7103     128.8937       0.2275      22.7523       1.6836
 5406.0852       8.5000       8.2924       0.0612      68.7544     117.4789     119.5323       0.2395      27.1610       1.7087
 5406.2376       8.5000       8.3061       0.0601      65.5995     112.1802     105.4260       0.2402      31.8715       1.7101
 5406.3900       8.5000       8.3452       0.0593      65.2526     110.5862      93.6651       0.2329      24.1973       1.6947
 5406.5424       8.5000       8.3311       0.0583      65.0809     110.5448      85.5426       0.2348      18.6135       1.6986
 5406.6948       8.5000       8.3273       0.0569      64.2901     112.7247      81.3853       0.2590      17.3499       1.7534
 5406.8472       8.5000       8.3330       0.0560      63.4957     115.6992      78.5627       0.2845      14.6828       1.8222
 5406.9996       8.5000       8.3364       0.0553      63.4586     115.6385      76.9203       0.2845      11.6060       1.8223
 5407.1520       8.5000       8.3510       0.0541      64.0489     115.5103      78.2073       0.2780      11.0470       1.8035
 5407.3044       8.5000       8.3526       0.0532      65.8047     115.4187      82.6257       0.2592       9.9068       1.7540
 5407.4568       8.5000       8.3304       0.0519      68.0424     114.9185      89.6968       0.2301      10.3455       1.6889
 5407.6092       8.5000       8.3364       0.0512      69.7182     118.0281      99.6343       0.2320       9.2171       1.6929
 5407.7616       8.5000       8.3088       0.0500      73.8076     133.7051     109.3339       0.2809       8.7805       1.8115
 5407.9140       8.5000       8.3207       0.0491      78.0575     150.5168     113.8593       0.3161       9.3044       1.9283
 5408.0664       8.5000       8.3527       0.0480      80.1165     157.1377     118.8969       0.3244      10.3474       1.9614
 5408.2188       8.5000       8.3363       0.0471      80.9381     156.8283     133.3755       0.3185      10.3123       1.9376
 5408.3712       8.5000       8.4160       0.0460      81.0511     152.0876     151.0461       0.3017      11.4814       1.8764
 5408.5236       8.5000       8.3234       0.0451      79.1212     148.4101     160.0202       0.3015      15.0027       1.8757
 5408.6760       8.5000       8.3447       0.0440      75.7040     144.4151     159.6045       0.3105      16.3031       1.9076
 5408.8284       8.5000       8.3534       0.0430      73.1906     134.8092     154.1728       0.2910      19.8732       1.8419
 5408.9808       8.5000       8.3676       0.0417      72.4432     127.4067     146.5959       0.2611      20.0107       1.7587
 5409.1332       8.5000       8.3344       0.0409      72.9804     126.2906     134.7442       0.2493      22.8124       1.7305
 5409.2856       8.5000       8.3462       0.0399      74.5510     129.3537     122.0271       0.2513      24.7033       1.7351
 5409.4380       8.5000       8.3273       0.0389      75.9090     136.5734     119.3588       0.2765      24.5677       1.7992
 5409.5904       8.5000       8.3197       0.0380      78.2019     143.4016     124.7380       0.2884      22.3258       1.8337
 5409.7428       8.5000       8.3276       0.0367      81.1328     145.3231     130.2959       0.2736      24.7566       1.7912
 5409.8952       8.5000       8.3399       0.0358      81.4987     148.3584     132.8512       0.2839      21.7229       1.8204
