~VERSION INFORMATION
VERS.           2.0   :CWLS Log ASCII Standard - VERSION 2.0
WRAP.           NO    :One Line per depth step
PROD.  Schlumberger   :LAS Producer
PROG.  DLIS to ASCII 2.3                               :LAS Program name and version
CREA.        2020/12/07 11:58                          :LAS Creation date {YYYY/MM/DD hh:mm}
DLIS_CREA.  2020-Dec-07 11:16                          :DLIS Creation date and time {YYYY-MMM-DD hh:mm}
SOURCE.     sonicVISION_2.dlis                         :DLIS File Name
FILE-ID.     ToolSpecific_ConPr_R05_Drill_SONICVISION9 :File Identification Number
#--------------------------------------------------
~WELL INFORMATION
#MNEM.UNIT      DATA             DESCRIPTION
#---- ------ --------------   -----------------------------
STRT .M      2896.9716       :START DEPTH     
STOP .M      3794.9124       :STOP DEPTH     
STEP .M         0.1524       :STEP     
NULL .          -999.25      :NULL VALUE
COMP .        BP Development Australia Pty Ltd         :COMPANY
WELL .        Ironbark-1                               :WELL
FLD  .        WA-359-2                                 :FIELD
LOC  .        Northern Carnarvon Basin                 :LOCATION
CNTY .                                                 :COUNTY
STAT .        Western Australia                        :STATE
CTRY .        Australia                                :COUNTRY
API  .                                                 :API NUMBER
UWI  .        20AWA0029                                :UNIQUE WELL ID
DATE .        30-Nov-2020                              :LOG DATE {DD-MMM-YYYY}
SRVC .        Schlumberger                             :SERVICE COMPANY
LATI .DEG     19° 9' 34.079" S                        :LATITUDE
LONG .DEG     116° 4' 35.795" E                       :LONGITUDE
GDAT .                                                 :GeoDetic Datum
#-----------------------------------------------------------------------------
~PARAMETER INFORMATION
#MNEM.UNIT    VALUE                      DESCRIPTION
#---- -----   --------------------       ------------------------
RUN  .          Run5_16.5in              :RUN NUMBER
PDAT .        MSL                        :Permanent Datum
EPD  .C3           0.000000              :Elevation of Permanent Datum above Mean Sea Level
LMF  .          DF                       :Logging Measured From (Name of Logging Elevation Reference)
APD  .M          23.850000               :Elevation of Depth Reference (LMF) above Permanent Datum
#-----------------------------------------------------------------------------
~CURVE INFORMATION
#MNEM.UNIT   API CODE                                  DESCRIPTION
#---- -----  --------                                  -----------------------
DEPT .M                                                :DEPTH (BOREHOLE) {F10.4}
BS   .IN                                               :Bit Size {F13.4}
DEVI .DEG                                              :Hole Deviation {F13.4}
DTCO_MPS.US/F                                          : {F13.4}
DTSH_MPS.US/F                                          :Shear slowness {F13.4}
GR_ARC.GAPI                                            :ARC Gamma Ray {F13.4}
PR   .UNITLESS                                         :Possion's Ratio {F13.4}
ROP5 .M/HR                                             :Rate of penetration averaged over the last 5 ft (1.5 m) {F13.4}
VPVS .UNITLESS                                         :VpVs Ratio {F13.4}
#-----------------------------------------------------------------------------
# 
#     DEPT        BS           DEVI       DTCO_MPS     DTSH_MPS      GR_ARC        PR           ROP5         VPVS
#
~A  
# ...
 2960.9796      17.5000       0.0825      95.5497   -9999.0000      39.0835   -9999.0000      17.8224   -9999.0000
 2961.1320      17.5000       0.0829      95.6612   -9999.0000      32.2898   -9999.0000      18.7652   -9999.0000
 2961.2844      17.5000       0.0833      95.6702   -9999.0000      30.2611   -9999.0000      18.9780   -9999.0000
 2961.4368      17.5000       0.0838      95.7442   -9999.0000      30.7604   -9999.0000      20.2274   -9999.0000
 2961.5892      17.5000       0.0843      95.7430   -9999.0000      23.4045   -9999.0000      20.6944   -9999.0000
 2961.7416      17.5000       0.0848      95.2951   -9999.0000      21.1517   -9999.0000      21.5748   -9999.0000
 2961.8940      17.5000       0.0853      95.1465   -9999.0000      28.2764   -9999.0000      20.2578   -9999.0000
 2962.0464      17.5000       0.0857      95.4346   -9999.0000      29.6792   -9999.0000      19.2469   -9999.0000
 2962.1988      17.5000       0.0862      96.0952   -9999.0000      27.9352   -9999.0000      21.1508   -9999.0000
 2962.3512      17.5000       0.0867      96.2988   -9999.0000      32.8936   -9999.0000      19.4618   -9999.0000
 2962.5036      17.5000       0.0873      98.8215   -9999.0000      38.0597   -9999.0000      18.4821   -9999.0000
 2962.6560      17.5000       0.0876     100.7166   -9999.0000      35.7823   -9999.0000      17.6361   -9999.0000
 2962.8084      17.5000       0.0881     102.3254   -9999.0000      28.3263   -9999.0000      16.7296   -9999.0000
 2962.9608      17.5000       0.0887     104.1957   -9999.0000      21.9464   -9999.0000      16.6434   -9999.0000
 2963.1132      17.5000       0.0891     104.7245   -9999.0000      21.0186   -9999.0000      15.1623   -9999.0000
 2963.2656      17.5000       0.0896     104.7567   -9999.0000      26.3149   -9999.0000      14.8653   -9999.0000
 2963.4180      17.5000       0.0901     105.1844   -9999.0000      28.8030   -9999.0000      15.1984   -9999.0000
 2963.5704      17.5000       0.0906     106.6843   -9999.0000      25.6415   -9999.0000      16.8351   -9999.0000
 2963.7228      17.5000       0.0911     107.7335   -9999.0000      26.6519   -9999.0000      17.9492   -9999.0000
 2963.8752      17.5000       0.0916     107.9483   -9999.0000      26.6118   -9999.0000      17.5407   -9999.0000
 2964.0276      17.5000       0.0921     107.8504   -9999.0000      24.6256   -9999.0000      16.8550   -9999.0000
 2964.1800      17.5000       0.0926     107.5186   -9999.0000      29.2184   -9999.0000      18.4699   -9999.0000
 2964.3324      17.5000       0.0932     107.1434   -9999.0000      33.9646   -9999.0000      19.9155   -9999.0000
 2964.4848      17.5000       0.0935     106.0258   -9999.0000      32.9738   -9999.0000      18.9183   -9999.0000
 2964.6372      17.5000       0.0942     104.5184   -9999.0000      30.7132   -9999.0000      22.1289   -9999.0000
 2964.7896      17.5000       0.0946     102.9662   -9999.0000      27.6034   -9999.0000      22.9793   -9999.0000
 2964.9420      17.5000       0.0951     101.7267   -9999.0000      27.3753   -9999.0000      22.4769   -9999.0000
 2965.0944      17.5000       0.0956     101.7364   -9999.0000      35.9933   -9999.0000      21.6298   -9999.0000
 2965.2468      17.5000       0.0961     102.7359   -9999.0000      38.7060   -9999.0000      21.4409   -9999.0000
 2965.3992      17.5000       0.0966     103.4021   -9999.0000      33.2687   -9999.0000      21.5334   -9999.0000
 2965.5516      17.5000       0.0972     104.2924   -9999.0000      34.4175   -9999.0000      22.9771   -9999.0000
 2965.7040      17.5000       0.0976     104.1930   -9999.0000      35.0709   -9999.0000      22.4560   -9999.0000
 2965.8564      17.5000       0.0982     104.3049   -9999.0000      33.0541   -9999.0000      22.5969   -9999.0000
 2966.0088      17.5000       0.0987     103.6701   -9999.0000      38.3852   -9999.0000      23.4625   -9999.0000
 2966.1612      17.5000       0.0991     103.4218   -9999.0000      44.8675   -9999.0000      21.3914   -9999.0000
 2966.3136      17.5000       0.0997     103.6727   -9999.0000      42.4779   -9999.0000      20.3220   -9999.0000
 2966.4660      17.5000       0.1002     104.4734   -9999.0000      35.1511   -9999.0000      19.2050   -9999.0000
 2966.6184      17.5000       0.1008     104.7156   -9999.0000      33.9386   -9999.0000      19.5965   -9999.0000
 2966.7708      17.5000       0.1013     104.1957   -9999.0000      36.2881   -9999.0000      20.1690   -9999.0000
 2966.9232      17.5000       0.1018     102.3165   -9999.0000      33.6108   -9999.0000      20.9734   -9999.0000
 2967.0756      17.5000       0.1023     100.4358   -9999.0000      28.4919   -9999.0000      20.7115   -9999.0000
 2967.2280      17.5000       0.1029      97.3817   -9999.0000      27.6191   -9999.0000      20.9944   -9999.0000
 2967.3804      17.5000       0.1033      93.2762   -9999.0000      30.0016   -9999.0000      20.1838   -9999.0000
 2967.5328      17.5000       0.1039      93.3719   -9999.0000      31.8854   -9999.0000      20.8780   -9999.0000
 2967.6852      17.5000       0.1044      98.3891   -9999.0000      35.7996   -9999.0000      22.8562   -9999.0000
 2967.8376      17.5000       0.1049     104.1896   -9999.0000      39.2646   -9999.0000      24.1069   -9999.0000
 2967.9900      17.5000       0.1055     108.5741   -9999.0000      36.8757   -9999.0000      24.8637   -9999.0000
 2968.1424      17.5000       0.1060     110.9769   -9999.0000      29.3568   -9999.0000      25.0395   -9999.0000
 2968.2948      17.5000       0.1065     111.6922   -9999.0000      23.8802   -9999.0000      24.9973   -9999.0000
 2968.4472      17.5000       0.1070   -9999.0000   -9999.0000      25.6258   -9999.0000      25.6952   -9999.0000
 2968.5996      17.5000       0.1076   -9999.0000   -9999.0000      30.4963   -9999.0000      27.1351   -9999.0000
 2968.7520      17.5000       0.1081   -9999.0000   -9999.0000      32.2688   -9999.0000      26.2420   -9999.0000
 2968.9044      17.5000       0.1087   -9999.0000   -9999.0000      30.3391   -9999.0000      26.4626   -9999.0000
 2969.0568      17.5000       0.1092   -9999.0000   -9999.0000      26.3239   -9999.0000      26.1848   -9999.0000
 2969.2092      17.5000       0.1097   -9999.0000   -9999.0000      21.8481   -9999.0000      25.4481   -9999.0000
 2969.3616      17.5000       0.1103   -9999.0000   -9999.0000      23.2731   -9999.0000      25.7801   -9999.0000
 2969.5140      17.5000       0.1108   -9999.0000   -9999.0000      27.8303   -9999.0000      27.7579   -9999.0000
 2969.6664      17.5000       0.1113   -9999.0000   -9999.0000      27.4281   -9999.0000      28.5668   -9999.0000
 2969.8188      17.5000       0.1119   -9999.0000   -9999.0000      26.5525   -9999.0000      29.4002   -9999.0000
 2969.9712      17.5000       0.1124   -9999.0000   -9999.0000      29.7893   -9999.0000      28.5900   -9999.0000
 2970.1236      17.5000       0.1129   -9999.0000   -9999.0000      35.5569   -9999.0000      26.2830   -9999.0000
 2970.2760      17.5000       0.1135   -9999.0000   -9999.0000      40.3337   -9999.0000      25.2231   -9999.0000
 2970.4284      17.5000       0.1141   -9999.0000   -9999.0000      38.8819   -9999.0000      23.5232   -9999.0000
 2970.5808      17.5000       0.1146   -9999.0000   -9999.0000      34.0096   -9999.0000      19.9785   -9999.0000
 2970.7332      17.5000       0.1151   -9999.0000   -9999.0000      32.1070   -9999.0000      19.9131   -9999.0000
 2970.8856      17.5000       0.1157   -9999.0000   -9999.0000      30.4404   -9999.0000      20.5330   -9999.0000
 2971.0380      17.5000       0.1163   -9999.0000   -9999.0000      24.9488   -9999.0000      21.2631   -9999.0000
 2971.1904      17.5000       0.1167   -9999.0000   -9999.0000      20.1570   -9999.0000      19.3122   -9999.0000
 2971.3428      17.5000       0.1173   -9999.0000   -9999.0000      20.8097   -9999.0000      18.8861   -9999.0000
 2971.4952      17.5000       0.1179   -9999.0000   -9999.0000      23.2787   -9999.0000      19.0674   -9999.0000
