~VERSION INFORMATION
VERS.           2.0   :CWLS Log ASCII Standard - VERSION 2.0
WRAP.           NO    :One Line per depth step
PROD.  Schlumberger   :LAS Producer
PROG.  DLIS to ASCII 2.3                               :LAS Program name and version
CREA.        2021/01/04 14:54                          :LAS Creation date {YYYY/MM/DD hh:mm}
DLIS_CREA.  2021-Jan-04 14:41                          :DLIS Creation date and time {YYYY-MMM-DD hh:mm}
SOURCE.     PnS_Processed.dlis                         :DLIS File Name
FILE-ID.     ConPr_R08_Drill_ARC6_TELE675_SONICVISION6 :File Identification Number
#--------------------------------------------------
~WELL INFORMATION
#MNEM.UNIT      DATA             DESCRIPTION
#---- ------ --------------   -----------------------------
STRT .M      5170.0176       :START DEPTH     
STOP .M      5614.8732       :STOP DEPTH     
STEP .M         0.1524       :STEP     
NULL .          -999.25      :NULL VALUE
COMP .        BP Development Australia Pty Ltd         :COMPANY
WELL .        Ironbark-1                               :WELL
FLD  .        Ironbark                                 :FIELD
LOC  .        WA-359-P                                 :LOCATION
CNTY .                                                 :COUNTY
STAT .        Western Australia                        :STATE
CTRY .        Australia                                :COUNTRY
API  .                                                 :API NUMBER
UWI  .        20AWA0029                                :UNIQUE WELL ID
DATE .        30-Oct-2020                              :LOG DATE {DD-MMM-YYYY}
SRVC .        Schlumberger                             :SERVICE COMPANY
LATI .DEG     19° 9' 34.079" S                        :LATITUDE
LONG .DEG     116° 4' 35.795" E                       :LONGITUDE
GDAT .                                                 :GeoDetic Datum
#-----------------------------------------------------------------------------
~PARAMETER INFORMATION
#MNEM.UNIT    VALUE                      DESCRIPTION
#---- -----   --------------------       ------------------------
RUN  .          Run8_8.5in               :RUN NUMBER
PDAT .        MSL                        :Permanent Datum
EPD  .M           0.000000               :Elevation of Permanent Datum above Mean Sea Level
LMF  .          DF                       :Logging Measured From (Name of Logging Elevation Reference)
APD  .M          23.850000               :Elevation of Depth Reference (LMF) above Permanent Datum
#-----------------------------------------------------------------------------
~CURVE INFORMATION
#MNEM.UNIT   API CODE                                  DESCRIPTION
#---- -----  --------                                  -----------------------
MD   .M                                                :DEPTH (BOREHOLE) {F10.4}
BS   .IN                                               :Bit Size {F13.4}
DCAV .IN                                               :Density Caliper, Average - filtered if Orion compressed {F13.4}
DEVI .DEG                                              :Hole Deviation {F13.4}
DTCO_MPS.US/F                                          :Compressional slowness {F13.4}
DTSH_MPS.US/F                                          :Shear slowness {F13.4}
GR_ARC.GAPI                                            :ARC Gamma Ray {F13.4}
PR   .UNITLESS                                         :Possion's Ratio {F13.4}
ROP5 .M/HR                                             :Rate of penetration averaged over the last 5 ft (1.5 m) {F13.4}
VPVS .UNITLESS                                         :VpVs Ratio {F13.4}
#-----------------------------------------------------------------------------
# 
#      MD         BS           DCAV         DEVI       DTCO_MPS     DTSH_MPS      GR_ARC        PR           ROP5         VPVS
#
~A  
# ...
 5198.8212      12.2500      10.0860       0.1981      63.4673   -9999.0000      62.4873   -9999.0000      31.6832   -9999.0000
 5198.9736      12.2500      10.1447       0.1980      67.6433   -9999.0000      59.2815   -9999.0000      32.0652   -9999.0000
 5199.1260      12.2500      10.1176       0.1979      72.1688   -9999.0000      62.3930   -9999.0000      32.1992   -9999.0000
 5199.2784      12.2500      10.0597       0.1979      76.0407     128.4475      83.2998       0.2302      26.1107       1.6892
 5199.4308      12.2500       9.9983       0.1978      79.2548     141.4847     116.1972       0.2714      28.6786       1.7852
 5199.5832      12.2500      10.2687       0.1977      78.9911     145.0509     138.0230       0.2892      27.9348       1.8363
 5199.7356      12.2500      10.6595       0.1976      76.4112     141.8593     138.5234       0.2956      29.8134       1.8565
 5199.8880      12.2500      10.4440       0.1975      73.0408     132.0965     132.3940       0.2798      33.0045       1.8085
 5200.0404      12.2500      10.2129       0.1974      69.2007     117.2864     121.4826       0.2330      47.1825       1.6949
 5200.1928      12.2500      10.6066       0.1974      67.8352     110.5386      98.2464       0.1979      32.8922       1.6295
 5200.3452      12.2500      10.6211       0.1973      63.8389     107.7366      77.6170       0.2295      31.7300       1.6876
 5200.4976      12.2500       9.5871       0.1972      60.5896     108.3045      78.9070       0.2722      31.2111       1.7875
 5200.6500      12.2500      10.4489       0.1971      63.4661     109.6173     104.7731       0.2479      21.0702       1.7272
 5200.8024      12.2500       9.7309       0.1970      66.1583     111.3294     131.0724       0.2270      25.1796       1.6828
 5200.9548      12.2500       9.9048       0.1970      67.6941     113.3280     135.4274       0.2226      25.0298       1.6741
 5201.1072      12.2500       9.5740       0.1969      68.0893     113.3128     133.0007       0.2174      25.2378       1.6642
 5201.2596      12.2500       9.4609       0.1968      67.7562     111.0339     137.5963       0.2033      24.6714       1.6387
 5201.4120      12.2500       9.4864       0.1967      67.9938     110.1779     147.0946       0.1924      24.5084       1.6204
 5201.5644      12.2500       9.4545       0.1966      68.7701     110.6623     163.3509       0.1854      21.7427       1.6092
 5201.7168      12.2500       9.3567       0.1966      68.1838     109.7458     168.9148       0.1857      19.0350       1.6096
 5201.8692      12.2500       8.9257       0.1965      66.3143     107.6648     156.3020       0.1944      15.7580       1.6236
 5202.0216       8.5000       8.4242       0.1964      66.7474     105.0852      85.1096       0.1619      13.0985       1.5744
 5202.1740       8.5000       8.3744       0.1963      65.0821     104.2828      92.0973       0.1810      11.7993       1.6023
 5202.3264       8.5000       8.5166       0.1962      63.0997     104.2388      91.5537       0.2108      10.0553       1.6520
 5202.4788       8.5000       8.4523       0.1962      62.6494     103.5665      80.9063       0.2114       8.1640       1.6531
 5202.6312       8.5000       8.3699       0.1961      62.2976     101.8114      84.1560       0.2008       6.6357       1.6343
 5202.7836       8.5000       8.3271       0.1960      60.7936      98.9292     118.7780       0.1966       5.9604       1.6273
 5202.9360       8.5000       8.3201       0.1959      60.7534      98.2359     161.7716       0.1903       4.6554       1.6170
 5203.0884       8.5000       8.3191       0.1959      61.9096      98.2650     165.3428       0.1709       4.1981       1.5872
 5203.2408       8.5000       8.3749       0.1958      62.7441      99.1727     114.2715       0.1663       4.2260       1.5806
 5203.3932       8.5000       8.3223       0.1957      63.9993     100.3115      58.5027       0.1568       4.1931       1.5674
 5203.5456       8.5000       8.3155       0.1956      65.6679     102.4090      38.0480       0.1508       4.0750       1.5595
 5203.6980       8.5000       8.3208       0.1955      67.1075     106.2159      38.5469       0.1678       4.2306       1.5828
 5203.8504       8.5000       8.3139       0.1955      67.8398     109.0022      39.8599       0.1839       4.1072       1.6068
 5204.0028       8.5000       8.3329       0.1954      67.3288     108.6333      39.5963       0.1881       4.0909       1.6135
 5204.1552       8.5000       8.3307       0.1953      66.6737     107.2255      39.9763       0.1848       4.4959       1.6082
 5204.3076       8.5000       8.3185       0.1952      66.4937     106.5462      41.6312       0.1810       4.4158       1.6024
 5204.4600       8.5000       8.3025       0.1951      66.4265     106.2742      45.7946       0.1794       4.9901       1.5999
 5204.6124       8.5000       8.3185       0.1951      66.3460     105.9441      48.9485       0.1774       4.8945       1.5968
 5204.7648       8.5000       8.3498       0.1950      66.0180     106.6381      49.0473       0.1893       4.6780       1.6153
 5204.9172       8.5000       8.3619       0.1949      66.3262     108.0439      47.7339       0.1976       4.9411       1.6290
 5205.0696       8.5000       8.3446       0.1949      65.9380     107.3250      47.5959       0.1968       4.7345       1.6277
 5205.2220       8.5000       8.3487       0.1948      64.6966     105.5936      54.1593       0.1995       5.0893       1.6321
 5205.3744       8.5000       8.3336       0.1947      64.3725     105.8323      61.5933       0.2064       5.4754       1.6441
 5205.5268       8.5000       8.3232       0.1946      65.5549     109.3449      58.7004       0.2194       6.2878       1.6680
 5205.6792       8.5000       8.3151       0.1945      68.2685     112.2982      48.1300       0.2069       5.3300       1.6449
 5205.8316       8.5000       8.3138       0.1945      69.7948     111.2214      38.7273       0.1752       5.4273       1.5935
 5205.9840       8.5000       8.3163       0.1944      68.7749     106.4932      33.7452       0.1423       5.5810       1.5484
 5206.1364       8.5000       8.3028       0.1943      66.3028     102.1537      30.6949       0.1360       6.3538       1.5407
 5206.2888       8.5000       8.3145       0.1942      65.2857     100.9406      27.5088       0.1404       6.2733       1.5461
 5206.4412       8.5000       8.2960       0.1942      64.3379     100.9051      27.1069       0.1575       5.7425       1.5684
 5206.5936       8.5000       8.3064       0.1941      64.5510     101.1330      31.0680       0.1563       6.5103       1.5667
 5206.7460       8.5000       8.3254       0.1940      65.9340     101.4762      33.2312       0.1347       5.7532       1.5391
 5206.8984       8.5000       8.3330       0.1939      66.2761     101.7930      30.9279       0.1321       5.6882       1.5359
 5207.0508       8.5000       8.3385       0.1939      65.9122     101.9193      29.9842       0.1405       5.3282       1.5463
 5207.2032       8.5000       8.2989       0.1938      64.8007     101.4373      34.2213       0.1553       6.4026       1.5654
 5207.3556       8.5000       8.3257       0.1937      63.9352     100.9447      41.8396       0.1651       7.0181       1.5789
 5207.5080       8.5000       8.3056       0.1936      64.2070     101.0644      49.4612       0.1616       6.6296       1.5740
 5207.6604       8.5000       8.3258       0.1936      64.7377     101.2016      51.5641       0.1537       6.2913       1.5633
 5207.8128       8.5000       8.3082       0.1935      65.3692     102.9005      45.1217       0.1617       7.0353       1.5741
 5207.9652       8.5000       8.3212       0.1934      66.7269     105.3831      37.2070       0.1654       6.8724       1.5793
 5208.1176       8.5000       8.3270       0.1933      67.3910     106.1953      33.3468       0.1629       6.8535       1.5758
 5208.2700       8.5000       8.3019       0.1933      67.2269     107.2156      31.8034       0.1761       7.5192       1.5948
