~VERSION INFORMATION
VERS.           2.0   :CWLS Log ASCII Standard - VERSION 2.0
WRAP.           NO    :One Line per depth step
PROD.  Schlumberger   :LAS Producer
PROG.  DLIS to ASCII 2.3                               :LAS Program name and version
CREA.        2020/12/24 10:22                          :LAS Creation date {YYYY/MM/DD hh:mm}
DLIS_CREA.  2020-Dec-24 10:21                          :DLIS Creation date and time {YYYY-MMM-DD hh:mm}
SOURCE.     PNS_Processed.dlis                         :DLIS File Name
FILE-ID.     ToolSpecific_ConPr_R07_Drill_SONICVISION8 :File Identification Number
#--------------------------------------------------
~WELL INFORMATION
#MNEM.UNIT      DATA             DESCRIPTION
#---- ------ --------------   -----------------------------
STRT .M      4299.9660       :START DEPTH     
STOP .M      5201.7168       :STOP DEPTH     
STEP .M         0.1524       :STEP     
NULL .          -999.25      :NULL VALUE
COMP .        BP Development Australia Pty Ltd         :COMPANY
WELL .        Ironbark-1                               :WELL
FLD  .        Ironbark                                 :FIELD
LOC  .        WA-359-P                                 :LOCATION
CNTY .                                                 :COUNTY
STAT .        Western Australia                        :STATE
CTRY .        Australia                                :COUNTRY
API  .                                                 :API NUMBER
UWI  .        20AWA0029                                :UNIQUE WELL ID
DATE .        30-Oct-2020                              :LOG DATE {DD-MMM-YYYY}
SRVC .        Schlumberger                             :SERVICE COMPANY
LATI .DEG     19° 9' 34.079" S                        :LATITUDE
LONG .DEG     116° 4' 35.795" E                       :LONGITUDE
GDAT .                                                 :GeoDetic Datum
#-----------------------------------------------------------------------------
~PARAMETER INFORMATION
#MNEM.UNIT    VALUE                      DESCRIPTION
#---- -----   --------------------       ------------------------
RUN  .          7                        :RUN NUMBER
PDAT .        MSL                        :Permanent Datum
EPD  .M           0.000000               :Elevation of Permanent Datum above Mean Sea Level
LMF  .          DF                       :Logging Measured From (Name of Logging Elevation Reference)
APD  .M          23.850000               :Elevation of Depth Reference (LMF) above Permanent Datum
#-----------------------------------------------------------------------------
~CURVE INFORMATION
#MNEM.UNIT   API CODE                                  DESCRIPTION
#---- -----  --------                                  -----------------------
MD   .M                                                :DEPTH (BOREHOLE) {F10.4}
BS   .IN                                               :Bit Size {F13.4}
DCAV .IN                                               :Density Caliper, Average - filtered if Orion compressed {F13.4}
DEVI .DEG                                              :Hole Deviation {F13.4}
DTCO_MPS.US/F                                          :Compressional slowness {F13.4}
DTSH_MPS.US/F                                          :Shear slowness {F13.4}
GR_ARC.GAPI                                            :ARC Gamma Ray {F13.4}
PR   .UNITLESS                                         :Possion's Ratio {F13.4}
ROP5 .M/HR                                             :Rate of penetration averaged over the last 5 ft (1.5 m) {F13.4}
VPVS .UNITLESS                                         :VpVs Ratio {F13.4}
#-----------------------------------------------------------------------------
# 
#      MD         BS           DCAV         DEVI       DTCO_MPS     DTSH_MPS      GR_ARC        PR           ROP5         VPVS
#
~A  
# ...
 4645.6092      12.2500      12.4699       0.8219      76.9419     151.5954     106.6679       0.3258      19.5404       1.9700
 4645.7616      12.2500      12.4032       0.8223      84.1212     165.8042     110.6134       0.3264      16.3613       1.9712
 4645.9140      12.2500      12.2698       0.8227      84.9868     172.9678     125.1320       0.3407      14.3274       2.0353
 4646.0664      12.2500      12.5700       0.8229      82.7374     165.5257     134.8081       0.3326      12.8607       2.0000
 4646.2188      12.2500      12.4199       0.8234      80.2411     154.5471     134.0766       0.3154      13.4002       1.9260
 4646.3712      12.2500      12.2698       0.8238      79.7975     154.1732     132.1738       0.3170      13.1609       1.9321
 4646.5236      12.2500      12.2698       0.8241      80.2238     156.4029     133.5334       0.3214      12.6252       1.9496
 4646.6760      12.2500      12.3810       0.8245      80.6899     157.8079     132.8663       0.3230      13.1169       1.9558
 4646.8284      12.2500      12.3365       0.8249      80.5967     156.3036     129.2186       0.3189      13.3962       1.9393
 4646.9808      12.2500      12.3365       0.8252      79.5763     154.4290     125.9518       0.3192      14.8936       1.9406
 4647.1332      12.2500      12.4699       0.8257      78.0113     150.6376     125.7953       0.3167      14.9917       1.9309
 4647.2856      12.2500      12.2698       0.8260      77.0934     147.5290     128.2916       0.3121      17.0677       1.9136
 4647.4380      12.2500      12.2698       0.8264      76.0335     144.5480     131.2404       0.3087      20.5415       1.9011
 4647.5904      12.2500      12.3699       0.8268      75.5256     142.7694     136.4341       0.3057      23.6192       1.8903
 4647.7428      12.2500      12.2698       0.8272      75.4764     141.1125     144.4477       0.2996      22.3081       1.8697
 4647.8952      12.2500      12.4699       0.8276      74.7956     138.7051     150.3227       0.2950      22.4689       1.8545
 4648.0476      12.2500      12.3365       0.8280      73.4848     136.1375     150.3247       0.2944      23.4844       1.8526
 4648.2000      12.2500      12.3699       0.8283      72.9068     135.7281     146.3933       0.2971      21.9555       1.8618
 4648.3524      12.2500      12.3699       0.8287      72.0016     136.2725     144.3204       0.3063      21.4643       1.8927
 4648.5048      12.2500      12.5199       0.8291      72.3772     134.7632     144.9220       0.2971      22.2033       1.8621
 4648.6572      12.2500      12.6700       0.8295      72.8479     133.8963     144.0189       0.2897      21.7801       1.8380
 4648.8096      12.2500      12.6922       0.8298      72.6303     132.9233     142.4724       0.2870      22.7984       1.8303
 4648.9620      12.2500      12.7145       0.8302      71.1158     133.6792     141.0329       0.3025      18.8486       1.8800
 4649.1144      12.2500      12.7367       0.8306      70.0035     134.0753     137.2391       0.3126      18.0387       1.9154
 4649.2668      12.2500      12.3699       0.8311      70.7101     133.6779     132.5983       0.3057      18.3491       1.8907
 4649.4192      12.2500      12.3810       0.8314      71.3994     133.8762     129.3831       0.3012      15.7819       1.8750
 4649.5716      12.2500      12.3921       0.8317      71.6888     134.2585     131.2797       0.3006      14.1700       1.8728
 4649.7240      12.2500      12.4032       0.8322      71.2715     133.9389     135.9305       0.3025      14.1195       1.8793
 4649.8764      12.2500      12.4449       0.8325      71.1848     132.1135     137.7150       0.2953      14.2468       1.8559
 4650.0288      12.2500      12.4866       0.8329      71.6128     131.0847     137.9733       0.2872      12.9871       1.8305
 4650.1812      12.2500      12.5283       0.8334      71.9276     132.6140     137.7377       0.2916      12.5510       1.8437
 4650.3336      12.2500      12.5700       0.8336      72.2937     134.5584     138.3281       0.2971      10.4619       1.8613
 4650.4860      12.2500      12.4922       0.8340      72.9588     136.1244     138.3015       0.2984      11.0923       1.8658
 4650.6384      12.2500      12.4145       0.8344      73.4738     139.0115     136.6143       0.3061      10.7355       1.8919
 4650.7908      12.2500      12.3365       0.8349      74.6579     143.1091     137.1649       0.3130      10.2054       1.9168
 4650.9432      12.2500      12.3699       0.8352      75.4572     144.2223     141.2156       0.3115       9.4692       1.9114
 4651.0956      12.2500      12.4032       0.8356      75.5538     145.2890     147.4872       0.3145      10.1887       1.9231
 4651.2480      12.2500      12.3865       0.8359      75.2045     147.1502     151.4253       0.3232      10.2865       1.9567
 4651.4004      12.2500      12.3699       0.8364      75.2523     147.7281     150.1552       0.3248      10.3774       1.9631
 4651.5528      12.2500      12.3532       0.8368      75.8510     146.7816     150.0305       0.3178      10.4161       1.9352
 4651.7052      12.2500      12.3365       0.8371      75.5808     145.5821     153.6953       0.3155       9.8832       1.9262
 4651.8576      12.2500      12.3032       0.8376      74.9735     143.2951     154.5203       0.3115      11.6120       1.9112
 4652.0100      12.2500      12.2698       0.8378      73.6036     138.8300     148.3922       0.3045      11.5863       1.8862
 4652.1624      12.2500      12.2698       0.8383      71.4275     135.0942     140.6052       0.3060      12.3779       1.8914
 4652.3148      12.2500      12.2698       0.8387      70.4482     133.6996     136.4610       0.3078      12.9238       1.8979
 4652.4672      12.2500      12.4699       0.8391      71.4995     135.5069     133.0108       0.3071      16.4631       1.8953
 4652.6196      12.2500      12.4699       0.8395      73.2722     138.2691     129.5181       0.3048      16.6021       1.8871
 4652.7720      12.2500      12.4699       0.8398      76.7830     144.2937     128.2668       0.3025      15.5308       1.8793
 4652.9244      12.2500      12.4699       0.8402      78.1483     146.7054     129.9558       0.3019      14.8649       1.8773
 4653.0768      12.2500      12.4699       0.8406      77.9160     145.4752     134.5943       0.2988      14.9837       1.8669
 4653.2292      12.2500      12.4699       0.8410      74.6447     136.4100     140.8155       0.2859      17.1766       1.8269
 4653.3816      12.2500      12.5366       0.8413      71.7637     128.1005     146.3003       0.2711      15.0957       1.7850
 4653.5340      12.2500      12.5033       0.8418      69.6888     124.6351     145.0902       0.2724      15.6516       1.7886
 4653.6864      12.2500      12.4699       0.8421      70.2177     122.1762     138.2537       0.2532      14.2214       1.7401
 4653.8388      12.2500      12.4366       0.8426      70.3275     122.1934     135.3635       0.2523      13.0838       1.7375
 4653.9912      12.2500      12.4032       0.8429      70.4275     124.3453     138.3192       0.2637      12.3722       1.7656
 4654.1436      12.2500      12.4032       0.8432      70.4027     125.8965     141.5697       0.2724      11.4218       1.7883
 4654.2960      12.2500      12.4699       0.8436      70.3899     124.8737     141.7822       0.2671      11.3912       1.7741
 4654.4484      12.2500      12.4199       0.8440      69.5581     125.6352     138.8787       0.2787      10.8369       1.8063
 4654.6008      12.2500      12.3699       0.8444      69.3579     126.8643     131.8838       0.2868      10.2812       1.8291
 4654.7532      12.2500      12.2698       0.8449      71.6347     131.8098     126.6593       0.2903      10.0930       1.8398
 4654.9056      12.2500      12.3032       0.8451      74.8028     139.7338     130.4452       0.2991       9.0770       1.8680
 4655.0580      12.2500      12.3365       0.8456      77.1558     143.5847     138.6869       0.2970       9.0229       1.8611
