~VERSION INFORMATION
VERS.           2.0   :CWLS Log ASCII Standard - VERSION 2.0
WRAP.           NO    :One Line per depth step
PROD.  Schlumberger   :LAS Producer
PROG.  DLIS to ASCII 2.3                               :LAS Program name and version
CREA.        2020/12/07 11:58                          :LAS Creation date {YYYY/MM/DD hh:mm}
DLIS_CREA.  2020-Dec-07 11:16                          :DLIS Creation date and time {YYYY-MMM-DD hh:mm}
SOURCE.     sonicVISION_2.dlis                         :DLIS File Name
FILE-ID.     ToolSpecific_ConPr_R05_Drill_SONICVISION9 :File Identification Number
#--------------------------------------------------
~WELL INFORMATION
#MNEM.UNIT      DATA             DESCRIPTION
#---- ------ --------------   -----------------------------
STRT .M      2896.9716       :START DEPTH     
STOP .M      3794.9124       :STOP DEPTH     
STEP .M         0.1524       :STEP     
NULL .          -999.25      :NULL VALUE
COMP .        BP Development Australia Pty Ltd         :COMPANY
WELL .        Ironbark-1                               :WELL
FLD  .        WA-359-2                                 :FIELD
LOC  .        Northern Carnarvon Basin                 :LOCATION
CNTY .                                                 :COUNTY
STAT .        Western Australia                        :STATE
CTRY .        Australia                                :COUNTRY
API  .                                                 :API NUMBER
UWI  .        20AWA0029                                :UNIQUE WELL ID
DATE .        30-Nov-2020                              :LOG DATE {DD-MMM-YYYY}
SRVC .        Schlumberger                             :SERVICE COMPANY
LATI .DEG     19° 9' 34.079" S                        :LATITUDE
LONG .DEG     116° 4' 35.795" E                       :LONGITUDE
GDAT .                                                 :GeoDetic Datum
#-----------------------------------------------------------------------------
~PARAMETER INFORMATION
#MNEM.UNIT    VALUE                      DESCRIPTION
#---- -----   --------------------       ------------------------
RUN  .          Run5_16.5in              :RUN NUMBER
PDAT .        MSL                        :Permanent Datum
EPD  .C3           0.000000              :Elevation of Permanent Datum above Mean Sea Level
LMF  .          DF                       :Logging Measured From (Name of Logging Elevation Reference)
APD  .M          23.850000               :Elevation of Depth Reference (LMF) above Permanent Datum
#-----------------------------------------------------------------------------
~CURVE INFORMATION
#MNEM.UNIT   API CODE                                  DESCRIPTION
#---- -----  --------                                  -----------------------
DEPT .M                                                :DEPTH (BOREHOLE) {F10.4}
BS   .IN                                               :Bit Size {F13.4}
DEVI .DEG                                              :Hole Deviation {F13.4}
DTCO_MPS.US/F                                          : {F13.4}
DTSH_MPS.US/F                                          :Shear slowness {F13.4}
GR_ARC.GAPI                                            :ARC Gamma Ray {F13.4}
PR   .UNITLESS                                         :Possion's Ratio {F13.4}
ROP5 .M/HR                                             :Rate of penetration averaged over the last 5 ft (1.5 m) {F13.4}
VPVS .UNITLESS                                         :VpVs Ratio {F13.4}
#-----------------------------------------------------------------------------
# 
#     DEPT        BS           DEVI       DTCO_MPS     DTSH_MPS      GR_ARC        PR           ROP5         VPVS
#
~A  
# ...
 3782.4156      16.5000       2.9194   -9999.0000   -9999.0000     145.7630   -9999.0000       6.2879   -9999.0000
 3782.5680      16.5000       2.9194   -9999.0000   -9999.0000     149.6021   -9999.0000       6.0778   -9999.0000
 3782.7204      16.5000       2.9194   -9999.0000   -9999.0000     151.6085   -9999.0000       5.8951   -9999.0000
 3782.8728      16.5000       2.9194   -9999.0000   -9999.0000     156.2940   -9999.0000       5.9640   -9999.0000
 3783.0252      16.5000       2.9194   -9999.0000   -9999.0000     158.1695   -9999.0000       5.7399   -9999.0000
 3783.1776      16.5000       2.9194   -9999.0000   -9999.0000     154.5460   -9999.0000       6.1276   -9999.0000
 3783.3300      16.5000       2.9194   -9999.0000   -9999.0000     148.7986   -9999.0000       6.0084   -9999.0000
 3783.4824      16.5000       2.9194   -9999.0000   -9999.0000     144.6954   -9999.0000       5.9995   -9999.0000
 3783.6348      16.5000       2.9194   -9999.0000   -9999.0000     143.6366   -9999.0000       6.1295   -9999.0000
 3783.7872      16.5000       2.9194   -9999.0000   -9999.0000     141.2556   -9999.0000       6.2868   -9999.0000
 3783.9396      16.5000       2.9194   -9999.0000   -9999.0000     138.8573   -9999.0000       6.2048   -9999.0000
 3784.0920      16.5000       2.9194   -9999.0000   -9999.0000     137.3106   -9999.0000       6.1967   -9999.0000
 3784.2444      16.5000       2.9194   -9999.0000   -9999.0000     136.0462   -9999.0000       6.4387   -9999.0000
 3784.3968      16.5000       2.9194   -9999.0000   -9999.0000     138.2961   -9999.0000       5.9645   -9999.0000
 3784.5492      16.5000       2.9194   -9999.0000   -9999.0000     143.1971   -9999.0000       5.2804   -9999.0000
 3784.7016      16.5000       2.9194   -9999.0000   -9999.0000     145.9946   -9999.0000       5.0766   -9999.0000
 3784.8540      16.5000       2.9194   -9999.0000   -9999.0000     136.2493   -9999.0000       5.2560   -9999.0000
 3785.0064      16.5000       2.9194   -9999.0000   -9999.0000     113.7805   -9999.0000       5.1763   -9999.0000
 3785.1588      16.5000       2.9194   -9999.0000   -9999.0000      95.0392   -9999.0000       5.0274   -9999.0000
 3785.3112      16.5000       2.9194   -9999.0000   -9999.0000      91.8997   -9999.0000       4.3952   -9999.0000
 3785.4636      16.5000       2.9194   -9999.0000   -9999.0000     105.7020   -9999.0000       4.0292   -9999.0000
 3785.6160      16.5000       2.9194   -9999.0000   -9999.0000     121.7856   -9999.0000       3.8253   -9999.0000
 3785.7684      16.5000       2.9194   -9999.0000   -9999.0000     125.2198   -9999.0000       3.6565   -9999.0000
 3785.9208      16.5000       2.9194   -9999.0000   -9999.0000     124.4934   -9999.0000       3.4928   -9999.0000
 3786.0732      16.5000       2.9194   -9999.0000   -9999.0000     123.3862   -9999.0000       3.6596   -9999.0000
 3786.2256      16.5000       2.9194   -9999.0000   -9999.0000     120.1901   -9999.0000       3.4913   -9999.0000
 3786.3780      16.5000       2.9194   -9999.0000   -9999.0000     125.5971   -9999.0000       2.6102   -9999.0000
 3786.5304      16.5000       2.9194   -9999.0000   -9999.0000     137.9584   -9999.0000       2.3078   -9999.0000
 3786.6828      16.5000       2.9194   -9999.0000   -9999.0000     141.6566   -9999.0000       2.2388   -9999.0000
 3786.8352      16.5000       2.9194   -9999.0000   -9999.0000     136.9427   -9999.0000       2.3264   -9999.0000
 3786.9876      16.5000       2.9194   -9999.0000   -9999.0000     138.8577   -9999.0000       2.3452   -9999.0000
 3787.1400      16.5000       2.9194   -9999.0000   -9999.0000     147.5692   -9999.0000       2.3866   -9999.0000
 3787.2924      16.5000       2.9194   -9999.0000   -9999.0000     151.5296   -9999.0000       2.4810   -9999.0000
 3787.4448      16.5000       2.9194   -9999.0000   -9999.0000     151.7505   -9999.0000       2.5405   -9999.0000
 3787.5972      16.5000       2.9194   -9999.0000   -9999.0000     151.8761   -9999.0000       2.5527   -9999.0000
 3787.7496      16.5000       2.9194   -9999.0000   -9999.0000     145.5759   -9999.0000       2.7100   -9999.0000
 3787.9020      16.5000       2.9194   -9999.0000   -9999.0000     135.2589   -9999.0000       3.3994   -9999.0000
 3788.0544      16.5000       2.9194   -9999.0000   -9999.0000     129.3539   -9999.0000       3.7258   -9999.0000
 3788.2068      16.5000       2.9194   -9999.0000   -9999.0000     129.3338   -9999.0000       3.9607   -9999.0000
 3788.3592      16.5000       2.9194   -9999.0000   -9999.0000     133.6143   -9999.0000       3.9167   -9999.0000
 3788.5116      16.5000       2.9194   -9999.0000   -9999.0000     136.5907   -9999.0000       4.2147   -9999.0000
 3788.6640      16.5000       2.9194   -9999.0000   -9999.0000     137.3852   -9999.0000       4.4474   -9999.0000
 3788.8164      16.5000       2.9194   -9999.0000   -9999.0000     145.1112   -9999.0000       4.3952   -9999.0000
 3788.9688      16.5000       2.9194   -9999.0000   -9999.0000     150.9670   -9999.0000       4.5949   -9999.0000
 3789.1212      16.5000       2.9194   -9999.0000   -9999.0000     144.8728   -9999.0000       5.0871   -9999.0000
 3789.2736      16.5000       2.9194   -9999.0000   -9999.0000     141.6696   -9999.0000       5.0860   -9999.0000
 3789.4260      16.5000       2.9194   -9999.0000   -9999.0000     142.5025   -9999.0000       5.7824   -9999.0000
 3789.5784      16.5000       2.9194   -9999.0000   -9999.0000     141.0700   -9999.0000       6.8091   -9999.0000
 3789.7308      16.5000       2.9194   -9999.0000   -9999.0000     142.6346   -9999.0000       6.6586   -9999.0000
 3789.8832      16.5000       2.9194   -9999.0000   -9999.0000     147.4522   -9999.0000       7.3089   -9999.0000
 3790.0356      16.5000       2.9194   -9999.0000   -9999.0000     148.7288   -9999.0000       7.7203   -9999.0000
 3790.1880      16.5000       2.9194   -9999.0000   -9999.0000     146.1598   -9999.0000       8.0450   -9999.0000
 3790.3404      16.5000       2.9194   -9999.0000   -9999.0000     141.7534   -9999.0000       7.7175   -9999.0000
 3790.4928      16.5000       2.9194   -9999.0000   -9999.0000     131.1542   -9999.0000       6.8402   -9999.0000
 3790.6452      16.5000       2.9194   -9999.0000   -9999.0000     116.2717   -9999.0000       6.7060   -9999.0000
 3790.7976      16.5000       2.9194   -9999.0000   -9999.0000     102.6336   -9999.0000       6.4228   -9999.0000
 3790.9500      16.5000       2.9194   -9999.0000   -9999.0000     105.0009   -9999.0000       6.1482   -9999.0000
 3791.1024      16.5000       2.9194   -9999.0000   -9999.0000     126.2010   -9999.0000       5.2372   -9999.0000
 3791.2548      16.5000       2.9194   -9999.0000   -9999.0000     145.9919   -9999.0000       4.4306   -9999.0000
 3791.4072      16.5000       2.9194   -9999.0000   -9999.0000     151.8783   -9999.0000       4.3742   -9999.0000
 3791.5596      16.5000       2.9194   -9999.0000   -9999.0000     140.4302   -9999.0000       4.0693   -9999.0000
 3791.7120      16.5000       2.9194   -9999.0000   -9999.0000     117.1074   -9999.0000       3.5867   -9999.0000
 3791.8644      16.5000       2.9194   -9999.0000   -9999.0000      96.5083   -9999.0000       3.2993   -9999.0000
 3792.0168      16.5000       2.9194   -9999.0000   -9999.0000      90.6182   -9999.0000       2.9472   -9999.0000
 3792.1692      16.5000       2.9194   -9999.0000   -9999.0000      97.6089   -9999.0000       2.7118   -9999.0000
 3792.3216      16.5000       2.9194   -9999.0000   -9999.0000     110.8536   -9999.0000       2.5882   -9999.0000
 3792.4740      16.5000       2.9194   -9999.0000   -9999.0000     121.2896   -9999.0000       2.5272   -9999.0000
 3792.6264      16.5000       2.9194   -9999.0000   -9999.0000     127.3918   -9999.0000       2.4311   -9999.0000
 3792.7788      16.5000       2.9194   -9999.0000   -9999.0000     128.8179   -9999.0000       2.6865   -9999.0000
 3792.9312      16.5000       2.9194   -9999.0000   -9999.0000     128.4755   -9999.0000       2.7528   -9999.0000
