~VERSION INFORMATION
VERS.           2.0   :CWLS Log ASCII Standard - VERSION 2.0
WRAP.           NO    :One Line per depth step
PROD.  Schlumberger   :LAS Producer
PROG.  DLIS to ASCII 2.3                               :LAS Program name and version
CREA.        2021/01/04 14:54                          :LAS Creation date {YYYY/MM/DD hh:mm}
DLIS_CREA.  2021-Jan-04 14:41                          :DLIS Creation date and time {YYYY-MMM-DD hh:mm}
SOURCE.     PnS_Processed.dlis                         :DLIS File Name
FILE-ID.     ConPr_R08_Drill_ARC6_TELE675_SONICVISION6 :File Identification Number
#--------------------------------------------------
~WELL INFORMATION
#MNEM.UNIT      DATA             DESCRIPTION
#---- ------ --------------   -----------------------------
STRT .M      5170.0176       :START DEPTH     
STOP .M      5614.8732       :STOP DEPTH     
STEP .M         0.1524       :STEP     
NULL .          -999.25      :NULL VALUE
COMP .        BP Development Australia Pty Ltd         :COMPANY
WELL .        Ironbark-1                               :WELL
FLD  .        Ironbark                                 :FIELD
LOC  .        WA-359-P                                 :LOCATION
CNTY .                                                 :COUNTY
STAT .        Western Australia                        :STATE
CTRY .        Australia                                :COUNTRY
API  .                                                 :API NUMBER
UWI  .        20AWA0029                                :UNIQUE WELL ID
DATE .        30-Oct-2020                              :LOG DATE {DD-MMM-YYYY}
SRVC .        Schlumberger                             :SERVICE COMPANY
LATI .DEG     19° 9' 34.079" S                        :LATITUDE
LONG .DEG     116° 4' 35.795" E                       :LONGITUDE
GDAT .                                                 :GeoDetic Datum
#-----------------------------------------------------------------------------
~PARAMETER INFORMATION
#MNEM.UNIT    VALUE                      DESCRIPTION
#---- -----   --------------------       ------------------------
RUN  .          Run8_8.5in               :RUN NUMBER
PDAT .        MSL                        :Permanent Datum
EPD  .M           0.000000               :Elevation of Permanent Datum above Mean Sea Level
LMF  .          DF                       :Logging Measured From (Name of Logging Elevation Reference)
APD  .M          23.850000               :Elevation of Depth Reference (LMF) above Permanent Datum
#-----------------------------------------------------------------------------
~CURVE INFORMATION
#MNEM.UNIT   API CODE                                  DESCRIPTION
#---- -----  --------                                  -----------------------
MD   .M                                                :DEPTH (BOREHOLE) {F10.4}
BS   .IN                                               :Bit Size {F13.4}
DCAV .IN                                               :Density Caliper, Average - filtered if Orion compressed {F13.4}
DEVI .DEG                                              :Hole Deviation {F13.4}
DTCO_MPS.US/F                                          :Compressional slowness {F13.4}
DTSH_MPS.US/F                                          :Shear slowness {F13.4}
GR_ARC.GAPI                                            :ARC Gamma Ray {F13.4}
PR   .UNITLESS                                         :Possion's Ratio {F13.4}
ROP5 .M/HR                                             :Rate of penetration averaged over the last 5 ft (1.5 m) {F13.4}
VPVS .UNITLESS                                         :VpVs Ratio {F13.4}
#-----------------------------------------------------------------------------
# 
#      MD         BS           DCAV         DEVI       DTCO_MPS     DTSH_MPS      GR_ARC        PR           ROP5         VPVS
#
~A  
# ...
 5544.4644       8.5000       8.3916       0.1645      65.3539     112.1155      86.3848       0.2427       5.7288       1.7155
 5544.6168       8.5000       8.3627       0.1645      64.3823     109.4212      82.8191       0.2352       6.1779       1.6996
 5544.7692       8.5000       8.3250       0.1645      63.0756     106.5247      77.3668       0.2300       6.3691       1.6888
 5544.9216       8.5000       8.3253       0.1646      63.1469     103.7096      74.7878       0.2054       5.9713       1.6424
 5545.0740       8.5000       8.3278       0.1646      63.4000     102.8020      72.2618       0.1931       6.1157       1.6215
 5545.2264       8.5000       8.3727       0.1647      62.1411     102.7168      68.1793       0.2114       6.3993       1.6530
 5545.3788       8.5000       8.3738       0.1648      61.9965     102.4389      65.2323       0.2110       7.7036       1.6523
 5545.5312       8.5000       8.3310       0.1648      61.9299     102.1888      64.7923       0.2098       8.2163       1.6501
 5545.6836       8.5000       8.3721       0.1649      60.5416     102.2592      68.2733       0.2302       7.8554       1.6891
 5545.8360       8.5000       8.3031       0.1649      60.5999     102.3849      71.2130       0.2304       7.3248       1.6895
 5545.9884       8.5000       8.3196       0.1650      62.6993     102.0121      70.9041       0.1964       8.8587       1.6270
 5546.1408       8.5000       8.3027       0.1651      64.7476     101.2226      72.9403       0.1537       9.1713       1.5633
 5546.2932       8.5000       8.2983       0.1652      64.7656     100.5718      77.7806       0.1457       8.2126       1.5529
 5546.4456       8.5000       8.2992       0.1653      63.1805     100.3527      80.6767       0.1717       8.0419       1.5883
 5546.5980       8.5000       8.3292       0.1654      61.2090     100.4290      85.2358       0.2045       8.2095       1.6408
 5546.7504       8.5000       8.3276       0.1655      61.0274     100.1566      92.0548       0.2047       7.3957       1.6412
 5546.9028       8.5000       8.3182       0.1656      60.9886     100.3478      92.0766       0.2071       7.6203       1.6454
 5547.0552       8.5000       8.3356       0.1657      61.1073     100.7013      84.3687       0.2086       8.0766       1.6479
 5547.2076       8.5000       8.3394       0.1658      62.6942     100.3482      75.2364       0.1799       8.5003       1.6006
 5547.3600       8.5000       8.3193       0.1660      63.2628     100.1029      66.4823       0.1675       9.6322       1.5823
 5547.5124       8.5000       8.3177       0.1661      61.7374     100.1412      60.4979       0.1934       9.1660       1.6221
 5547.6648       8.5000       8.3498       0.1662      61.6699     100.5680      59.1585       0.1987       9.4337       1.6307
 5547.8172       8.5000       8.3641       0.1664      63.9586     101.0626      60.0787       0.1660      10.8973       1.5801
 5547.9696       8.5000       8.3651       0.1665      64.6069     100.9866      60.1118       0.1536      14.8058       1.5631
 5548.1220       8.5000       8.3418       0.1667      64.4281     100.8810      59.0187       0.1556      11.4769       1.5658
 5548.2744       8.5000       8.3638       0.1668      63.7809     100.5204      68.1938       0.1630      11.4176       1.5760
 5548.4268       8.5000       8.3178       0.1670      63.5588     100.5283      94.3189       0.1670       9.7803       1.5817
 5548.5792       8.5000       8.3135       0.1671      63.3451     101.0291     119.1324       0.1761       8.6751       1.5949
 5548.7316       8.5000       8.3113       0.1673      62.2304     102.3258     128.3120       0.2065       9.3518       1.6443
 5548.8840       8.5000       8.3398       0.1675      63.5537     107.8049     128.9850       0.2337       9.1856       1.6963
 5549.0364       8.5000       8.3509       0.1677      70.6599     117.9256     119.1844       0.2199       9.5600       1.6689
 5549.1888       8.5000       8.3520       0.1679      77.8755     123.1172      98.3340       0.1665       9.7823       1.5809
 5549.3412       8.5000       8.3258       0.1681      79.4607     121.9349      87.9935       0.1309       9.6969       1.5345
 5549.4936       8.5000       8.3765       0.1682      78.7863     121.1983      90.6129       0.1341       8.1751       1.5383
 5549.6460       8.5000       8.3174       0.1684      74.2814     118.3419      92.8094       0.1749       9.4868       1.5932
 5549.7984       8.5000       8.3140       0.1686      69.3237     115.3893      98.0322       0.2176       8.8483       1.6645
 5549.9508       8.5000       8.3032       0.1689      67.7433     114.5182     101.9569       0.2308       9.6409       1.6905
 5550.1032       8.5000       8.2908       0.1690      66.1561     114.0394      92.7901       0.2464       9.0225       1.7238
 5550.2556       8.5000       8.2941       0.1692      65.7742     113.5943      78.9608       0.2478       8.0139       1.7270
 5550.4080       8.5000       8.3104       0.1695      67.2181     112.4968      75.4906       0.2224       7.5269       1.6736
 5550.5604       8.5000       8.3073       0.1697      66.6814     110.7333      80.8793       0.2155       6.9323       1.6606
 5550.7128       8.5000       8.3008       0.1700      63.7295     109.1910      86.6652       0.2417       6.5954       1.7134
 5550.8652       8.5000       8.3064       0.1703      62.7959     108.4989      89.4680       0.2481       6.1248       1.7278
 5551.0176       8.5000       8.3094       0.1705      63.1077     108.0462      86.8237       0.2411       6.5456       1.7121
 5551.1700       8.5000       8.3201       0.1707      63.6221     107.9401      80.0086       0.2338       6.4268       1.6966
 5551.3224       8.5000       8.3134       0.1709      63.7219     107.4178      72.6546       0.2285       7.4105       1.6857
 5551.4748       8.5000       8.3247       0.1712      63.8228     105.4141      64.1786       0.2107       6.5013       1.6517
 5551.6272       8.5000       8.3485       0.1714      63.2313     101.3143      54.7900       0.1810       6.9279       1.6023
 5551.7796       8.5000       8.3457       0.1718      59.8617      97.5140      49.5479       0.1976       7.3570       1.6290
 5551.9320       8.5000       8.3754       0.1720      58.6790      96.2732      55.7110       0.2045       7.4330       1.6407
 5552.0844       8.5000       8.3725       0.1722      60.0404      96.1595      71.7648       0.1805       7.7613       1.6016
 5552.2368       8.5000       8.3552       0.1726      60.3759      96.0514      76.3477       0.1734       7.9154       1.5909
 5552.3892       8.5000       8.3402       0.1728      59.7145      94.9248      57.6374       0.1726       8.5889       1.5896
 5552.5416       8.5000       8.3149       0.1731      59.6869      93.0219      38.0505       0.1501       8.9268       1.5585
 5552.6940       8.5000       8.3043       0.1734      59.2615      91.4693      34.1987       0.1383       8.8174       1.5435
 5552.8464       8.5000       8.3357       0.1737      58.8390      91.1401      36.0518       0.1427       8.6381       1.5490
 5552.9988       8.5000       8.3441       0.1740      59.7905      93.2205      36.1820       0.1506      10.7021       1.5591
 5553.1512       8.5000       8.3145       0.1742      60.6834      95.1083      35.3393       0.1567       9.7145       1.5673
 5553.3036       8.5000       8.3030       0.1746      61.1212      96.6057      32.5637       0.1663      10.4696       1.5806
 5553.4560       8.5000       8.2906       0.1749      62.3062      97.7097      29.3275       0.1574      10.7497       1.5682
 5553.6084       8.5000       8.3416       0.1752      62.7733      98.0915      27.5511       0.1532      10.8204       1.5626
 5553.7608       8.5000       8.3976       0.1756      63.0171      98.8220      26.5359       0.1573      11.0105       1.5682
 5553.9132       8.5000       8.3419       0.1758      62.6361      98.8236      27.7013       0.1643      10.3891       1.5777
