~VERSION INFORMATION
VERS.           2.0   :CWLS Log ASCII Standard - VERSION 2.0
WRAP.           NO    :One Line per depth step
PROD.  Schlumberger   :LAS Producer
PROG.  DLIS to ASCII 2.3                               :LAS Program name and version
CREA.        2020/12/07 11:58                          :LAS Creation date {YYYY/MM/DD hh:mm}
DLIS_CREA.  2020-Dec-07 11:16                          :DLIS Creation date and time {YYYY-MMM-DD hh:mm}
SOURCE.     sonicVISION_2.dlis                         :DLIS File Name
FILE-ID.     ToolSpecific_ConPr_R05_Drill_SONICVISION9 :File Identification Number
#--------------------------------------------------
~WELL INFORMATION
#MNEM.UNIT      DATA             DESCRIPTION
#---- ------ --------------   -----------------------------
STRT .M      2896.9716       :START DEPTH     
STOP .M      3794.9124       :STOP DEPTH     
STEP .M         0.1524       :STEP     
NULL .          -999.25      :NULL VALUE
COMP .        BP Development Australia Pty Ltd         :COMPANY
WELL .        Ironbark-1                               :WELL
FLD  .        WA-359-2                                 :FIELD
LOC  .        Northern Carnarvon Basin                 :LOCATION
CNTY .                                                 :COUNTY
STAT .        Western Australia                        :STATE
CTRY .        Australia                                :COUNTRY
API  .                                                 :API NUMBER
UWI  .        20AWA0029                                :UNIQUE WELL ID
DATE .        30-Nov-2020                              :LOG DATE {DD-MMM-YYYY}
SRVC .        Schlumberger                             :SERVICE COMPANY
LATI .DEG     19° 9' 34.079" S                        :LATITUDE
LONG .DEG     116° 4' 35.795" E                       :LONGITUDE
GDAT .                                                 :GeoDetic Datum
#-----------------------------------------------------------------------------
~PARAMETER INFORMATION
#MNEM.UNIT    VALUE                      DESCRIPTION
#---- -----   --------------------       ------------------------
RUN  .          Run5_16.5in              :RUN NUMBER
PDAT .        MSL                        :Permanent Datum
EPD  .C3           0.000000              :Elevation of Permanent Datum above Mean Sea Level
LMF  .          DF                       :Logging Measured From (Name of Logging Elevation Reference)
APD  .M          23.850000               :Elevation of Depth Reference (LMF) above Permanent Datum
#-----------------------------------------------------------------------------
~CURVE INFORMATION
#MNEM.UNIT   API CODE                                  DESCRIPTION
#---- -----  --------                                  -----------------------
DEPT .M                                                :DEPTH (BOREHOLE) {F10.4}
BS   .IN                                               :Bit Size {F13.4}
DEVI .DEG                                              :Hole Deviation {F13.4}
DTCO_MPS.US/F                                          : {F13.4}
DTSH_MPS.US/F                                          :Shear slowness {F13.4}
GR_ARC.GAPI                                            :ARC Gamma Ray {F13.4}
PR   .UNITLESS                                         :Possion's Ratio {F13.4}
ROP5 .M/HR                                             :Rate of penetration averaged over the last 5 ft (1.5 m) {F13.4}
VPVS .UNITLESS                                         :VpVs Ratio {F13.4}
#-----------------------------------------------------------------------------
# 
#     DEPT        BS           DEVI       DTCO_MPS     DTSH_MPS      GR_ARC        PR           ROP5         VPVS
#
~A  
# ...
 3014.3196      17.5000       0.2569      97.0035   -9999.0000     168.5883   -9999.0000     199.6092   -9999.0000
 3014.4720      17.5000       0.2571      98.3547   -9999.0000     168.7298   -9999.0000     195.8797   -9999.0000
 3014.6244      17.5000       0.2574     101.2648   -9999.0000     164.5782   -9999.0000     192.9061   -9999.0000
 3014.7768      17.5000       0.2577     105.2931   -9999.0000     162.5023   -9999.0000     190.6948   -9999.0000
 3014.9292      17.5000       0.2580     108.2164   -9999.0000     160.9454   -9999.0000     188.3607   -9999.0000
 3015.0816      17.5000       0.2583     111.5025   -9999.0000     157.8316   -9999.0000     185.6383   -9999.0000
 3015.2340      17.5000       0.2586     110.2394   -9999.0000     155.1896   -9999.0000     186.0476   -9999.0000
 3015.3864      17.5000       0.2589     104.6019   -9999.0000     153.0194   -9999.0000     191.2776   -9999.0000
 3015.5388      17.5000       0.2592     100.3728   -9999.0000     151.9343   -9999.0000     194.9070   -9999.0000
 3015.6912      17.5000       0.2595      98.5597   -9999.0000     151.1323   -9999.0000     194.9259   -9999.0000
 3015.8436      17.5000       0.2598      98.0940   -9999.0000     149.5282   -9999.0000     186.5014   -9999.0000
 3015.9960      17.5000       0.2601      97.7796   -9999.0000     148.7262   -9999.0000     175.5412   -9999.0000
 3016.1484      17.5000       0.2603      96.9678   -9999.0000     148.0657   -9999.0000      80.3293   -9999.0000
 3016.3008      17.5000       0.2607      96.7255   -9999.0000     146.7447   -9999.0000      79.3673   -9999.0000
 3016.4532      17.5000       0.2610      97.3244   -9999.0000     146.0842   -9999.0000      79.6224   -9999.0000
 3016.6056      17.5000       0.2613      99.2297   -9999.0000     142.3099   -9999.0000      80.9044   -9999.0000
 3016.7580      17.5000       0.2616     100.8281   -9999.0000     134.7614   -9999.0000      83.0516   -9999.0000
 3016.9104      17.5000       0.2619     104.8450   -9999.0000     132.4024   -9999.0000      84.7043   -9999.0000
 3017.0628      17.5000       0.2622     109.4398   -9999.0000     135.2331   -9999.0000      85.8152   -9999.0000
 3017.2152      17.5000       0.2626     111.8586   -9999.0000     136.6485   -9999.0000      87.2614   -9999.0000
 3017.3676      17.5000       0.2629     112.2807   -9999.0000     135.7521   -9999.0000      90.6797   -9999.0000
 3017.5200      17.5000       0.2632     110.8010   -9999.0000     133.9593   -9999.0000      95.2330   -9999.0000
 3017.6724      17.5000       0.2635     105.6875   -9999.0000     131.3173   -9999.0000     278.9667   -9999.0000
 3017.8248      17.5000       0.2638     101.3006   -9999.0000     127.8261   -9999.0000     304.6674   -9999.0000
 3017.9772      17.5000       0.2641      96.4578   -9999.0000     126.0805   -9999.0000     320.5075   -9999.0000
 3018.1296      17.5000       0.2644      94.0796   -9999.0000     129.0528   -9999.0000     331.5566   -9999.0000
 3018.2820      17.5000       0.2647      93.0012   -9999.0000     134.9973   -9999.0000     338.4387   -9999.0000
 3018.4344      17.5000       0.2650      93.5388   -9999.0000     137.9695   -9999.0000     339.3223   -9999.0000
 3018.5868      17.5000       0.2652      96.7386   -9999.0000     138.1582   -9999.0000     325.5872   -9999.0000
 3018.7392      17.5000       0.2654     100.7182   -9999.0000     138.5356   -9999.0000     247.6460   -9999.0000
 3018.8916      17.5000       0.2657     104.4512   -9999.0000     139.8094   -9999.0000     216.3316   -9999.0000
 3019.0440      17.5000       0.2660     106.9935   -9999.0000     141.9797   -9999.0000     187.3281   -9999.0000
 3019.1964      17.5000       0.2663     108.0870   -9999.0000     143.0648   -9999.0000     175.2153   -9999.0000
 3019.3488      17.5000       0.2665     109.1198   -9999.0000     145.2822   -9999.0000     166.2958   -9999.0000
 3019.5012      17.5000       0.2668     110.7267   -9999.0000     149.7169   -9999.0000     150.7171   -9999.0000
 3019.6536      17.5000       0.2671     110.7186   -9999.0000     152.6892   -9999.0000     134.8784   -9999.0000
 3019.8060      17.5000       0.2673     108.6041   -9999.0000     154.1989   -9999.0000     127.9013   -9999.0000
 3019.9584      17.5000       0.2676     105.4459   -9999.0000     156.6993   -9999.0000     122.7752   -9999.0000
 3020.1108      17.5000       0.2679     102.5193   -9999.0000     160.1906   -9999.0000     120.4115   -9999.0000
 3020.2632      17.5000       0.2681      99.6401   -9999.0000     161.9362   -9999.0000     132.8779   -9999.0000
 3020.4156      17.5000       0.2684      97.1767   -9999.0000     160.6623   -9999.0000     139.6706   -9999.0000
 3020.5680      17.5000       0.2687      96.0542   -9999.0000     158.1147   -9999.0000     139.5182   -9999.0000
 3020.7204      17.5000       0.2689      95.3018   -9999.0000     156.6993   -9999.0000     135.1364   -9999.0000
 3020.8728      17.5000       0.2692      95.2553   -9999.0000     156.4163   -9999.0000     134.8813   -9999.0000
 3021.0252      17.5000       0.2695      98.5945   -9999.0000     158.7752   -9999.0000     140.0643   -9999.0000
 3021.1776      17.5000       0.2697     104.1052   -9999.0000     163.7761   -9999.0000     148.8532   -9999.0000
 3021.3300      17.5000       0.2700     108.4774   -9999.0000     166.2766   -9999.0000     151.5961   -9999.0000
 3021.4824      17.5000       0.2703     109.4295   -9999.0000     162.1720   -9999.0000     153.8999   -9999.0000
 3021.6348      17.5000       0.2706     107.6472   -9999.0000     153.9630   -9999.0000     153.0380   -9999.0000
 3021.7872      17.5000       0.2708     104.7685   -9999.0000     148.9149   -9999.0000     149.9453   -9999.0000
 3021.9396      17.5000       0.2711     102.0120   -9999.0000     147.0278   -9999.0000     151.1408   -9999.0000
 3022.0920      17.5000       0.2713      99.7757   -9999.0000     146.7447   -9999.0000     165.7923   -9999.0000
 3022.2444      17.5000       0.2716      97.9414   -9999.0000     148.0657   -9999.0000     176.4428   -9999.0000
 3022.3968      17.5000       0.2719      96.7356   -9999.0000     148.8677   -9999.0000     173.2084   -9999.0000
 3022.5492      17.5000       0.2722      96.2860   -9999.0000     149.1508   -9999.0000     171.4760   -9999.0000
 3022.7016      17.5000       0.2724      97.0211   -9999.0000     149.1508   -9999.0000     174.0651   -9999.0000
 3022.8540      17.5000       0.2727      98.0041   -9999.0000     149.6698   -9999.0000     175.6487   -9999.0000
 3023.0064      17.5000       0.2730      98.3693   -9999.0000     152.7599   -9999.0000     175.2544   -9999.0000
 3023.1588      17.5000       0.2732      99.0164   -9999.0000     155.3312   -9999.0000     176.6294   -9999.0000
 3023.3112      17.5000       0.2735     100.5979   -9999.0000     151.2974   -9999.0000     180.3458   -9999.0000
 3023.4636      17.5000       0.2738     102.3205   -9999.0000     144.3543   -9999.0000     181.0316   -9999.0000
 3023.6160      17.5000       0.2741     104.1812   -9999.0000     141.5865   -9999.0000     179.5127   -9999.0000
 3023.7684      17.5000       0.2743     104.4153   -9999.0000     138.6334   -9999.0000     178.0023   -9999.0000
 3023.9208      17.5000       0.2746     103.3958   -9999.0000     136.2636   -9999.0000     182.1547   -9999.0000
 3024.0732      17.5000       0.2749     102.1228   -9999.0000     138.7886   -9999.0000     187.6184   -9999.0000
 3024.2256      17.5000       0.2752     100.0732   -9999.0000     144.0027   -9999.0000     189.9285   -9999.0000
 3024.3780      17.5000       0.2754      97.3575   -9999.0000     148.8008   -9999.0000     190.8583   -9999.0000
 3024.5304      17.5000       0.2757      94.4117   -9999.0000     151.1026   -9999.0000     190.4932   -9999.0000
 3024.6828      17.5000       0.2760      93.8861   -9999.0000     154.4974   -9999.0000     189.3484   -9999.0000
 3024.8352      17.5000       0.2763      95.5473   -9999.0000     155.5336   -9999.0000     189.6960   -9999.0000
