~VERSION INFORMATION
VERS.           2.0   :CWLS Log ASCII Standard - VERSION 2.0
WRAP.           NO    :One Line per depth step
PROD.  Schlumberger   :LAS Producer
PROG.  DLIS to ASCII 2.3                               :LAS Program name and version
CREA.        2020/12/24 10:22                          :LAS Creation date {YYYY/MM/DD hh:mm}
DLIS_CREA.  2020-Dec-24 10:21                          :DLIS Creation date and time {YYYY-MMM-DD hh:mm}
SOURCE.     PNS_Processed.dlis                         :DLIS File Name
FILE-ID.     ToolSpecific_ConPr_R07_Drill_SONICVISION8 :File Identification Number
#--------------------------------------------------
~WELL INFORMATION
#MNEM.UNIT      DATA             DESCRIPTION
#---- ------ --------------   -----------------------------
STRT .M      4299.9660       :START DEPTH     
STOP .M      5201.7168       :STOP DEPTH     
STEP .M         0.1524       :STEP     
NULL .          -999.25      :NULL VALUE
COMP .        BP Development Australia Pty Ltd         :COMPANY
WELL .        Ironbark-1                               :WELL
FLD  .        Ironbark                                 :FIELD
LOC  .        WA-359-P                                 :LOCATION
CNTY .                                                 :COUNTY
STAT .        Western Australia                        :STATE
CTRY .        Australia                                :COUNTRY
API  .                                                 :API NUMBER
UWI  .        20AWA0029                                :UNIQUE WELL ID
DATE .        30-Oct-2020                              :LOG DATE {DD-MMM-YYYY}
SRVC .        Schlumberger                             :SERVICE COMPANY
LATI .DEG     19° 9' 34.079" S                        :LATITUDE
LONG .DEG     116° 4' 35.795" E                       :LONGITUDE
GDAT .                                                 :GeoDetic Datum
#-----------------------------------------------------------------------------
~PARAMETER INFORMATION
#MNEM.UNIT    VALUE                      DESCRIPTION
#---- -----   --------------------       ------------------------
RUN  .          7                        :RUN NUMBER
PDAT .        MSL                        :Permanent Datum
EPD  .M           0.000000               :Elevation of Permanent Datum above Mean Sea Level
LMF  .          DF                       :Logging Measured From (Name of Logging Elevation Reference)
APD  .M          23.850000               :Elevation of Depth Reference (LMF) above Permanent Datum
#-----------------------------------------------------------------------------
~CURVE INFORMATION
#MNEM.UNIT   API CODE                                  DESCRIPTION
#---- -----  --------                                  -----------------------
MD   .M                                                :DEPTH (BOREHOLE) {F10.4}
BS   .IN                                               :Bit Size {F13.4}
DCAV .IN                                               :Density Caliper, Average - filtered if Orion compressed {F13.4}
DEVI .DEG                                              :Hole Deviation {F13.4}
DTCO_MPS.US/F                                          :Compressional slowness {F13.4}
DTSH_MPS.US/F                                          :Shear slowness {F13.4}
GR_ARC.GAPI                                            :ARC Gamma Ray {F13.4}
PR   .UNITLESS                                         :Possion's Ratio {F13.4}
ROP5 .M/HR                                             :Rate of penetration averaged over the last 5 ft (1.5 m) {F13.4}
VPVS .UNITLESS                                         :VpVs Ratio {F13.4}
#-----------------------------------------------------------------------------
# 
#      MD         BS           DCAV         DEVI       DTCO_MPS     DTSH_MPS      GR_ARC        PR           ROP5         VPVS
#
~A  
# ...
 4885.6392      12.2500      12.2698       1.4733      99.1995     200.9756     127.6205       0.3386      10.6524       2.0275
 4885.7916      12.2500      12.9368       1.4731     105.5102     201.4636     133.7843       0.3107      10.6736       1.9104
 4885.9440      12.2500      12.8701       1.4728     104.2509     199.3603     146.6348       0.3117      11.5191       1.9127
 4886.0964      12.2500      12.2698       1.4725      99.2306     195.2889     153.8945       0.3258      13.6482       1.9681
 4886.2488      12.2500      12.4925       1.4723      90.4131     175.8656     149.5710       0.3199      21.0607       1.9446
 4886.4012      12.2500      12.7145       1.4720      81.8545     153.4166     143.9567       0.3001      22.6404       1.8727
 4886.5536      12.2500      12.2031       1.4717      72.0477     132.2522     145.4186       0.2886      22.9873       1.8355
 4886.7060      12.2500      12.4032       1.4714      68.0102     127.6310     147.0591       0.3016      27.5623       1.8769
 4886.8584      12.2500      12.2253       1.4712      67.5107     126.2717     151.0452       0.2998      24.9654       1.8705
 4887.0108      12.2500      12.5366       1.4709      68.0657     126.0661     156.1617       0.2941      24.2004       1.8523
 4887.1632      12.2500      12.3079       1.4707      67.6861     126.9891     151.4493       0.3015      23.4154       1.8762
 4887.3156      12.2500      12.3111       1.4704      68.4650     127.3220     141.4261       0.2965      24.1429       1.8597
 4887.4680      12.2500      12.3143       1.4701      69.6755     129.3903     130.3960       0.2958      23.7730       1.8572
 4887.6204      12.2500      12.3365       1.4698      71.6566     132.3125     124.6623       0.2925      22.3198       1.8465
 4887.7728      12.2500      12.3254       1.4696      72.8541     135.3873     126.3912       0.2962      21.5407       1.8584
 4887.9252      12.2500      12.3143       1.4693      73.9654     135.7905     128.2769       0.2890      18.8663       1.8360
 4888.0776      12.2500      12.3921       1.4690      72.5500     135.8333     129.4845       0.3003      16.6304       1.8727
 4888.2300      12.2500      12.4699       1.4687      71.7673     134.4910     127.4113       0.3008      15.9448       1.8740
 4888.3824      12.2500      12.3143       1.4685      70.2688     130.6306     123.9463       0.2964      13.6018       1.8591
 4888.5348      12.2500      12.2698       1.4682      67.7997     126.8789     121.6086       0.3001      12.7036       1.8714
 4888.6872      12.2500      12.4032       1.4679      66.7466     122.8250     115.3685       0.2903      13.1147       1.8401
 4888.8396      12.2500      12.4032       1.4678      66.2601     119.8968     108.0030       0.2801      11.8653       1.8095
 4888.9920      12.2500      12.3365       1.4677      66.9605     119.2319     105.6768       0.2695      11.1475       1.7808
 4889.1444      12.2500      12.3143       1.4675      69.1675     122.2315     106.6835       0.2643      11.1475       1.7669
 4889.2968      12.2500      12.2920       1.4674      74.3891     136.6506     107.5480       0.2872      11.1475       1.8349
 4889.4492      12.2500      12.2698       1.4673      79.8932     154.6969     108.7840       0.3177      11.1475       1.9361
 4889.6016      12.2500      12.5366       1.4672      83.2564     159.5570     118.4873       0.3129      11.1475       1.9165
 4889.7540      12.2500      12.6033       1.4671      84.2291     162.4871     136.0297       0.3163      11.1475       1.9291
 4889.9064      12.2500      13.5037       1.4669      84.3829     163.2850     147.0484       0.3178      28.8639       1.9351
 4890.0588      12.2500      12.7367       1.4668      83.9494     162.4355     146.2894       0.3177      46.5803       1.9352
 4890.2112      12.2500      12.4699       1.4667      82.0800     158.0636     144.2086       0.3152      27.3233       1.9257
 4890.3636      12.2500      12.4199       1.4666      79.9968     152.8149     151.7338       0.3112      27.1083       1.9104
 4890.5160      12.2500      12.3699       1.4665      78.3016     148.6639     156.8053       0.3080      15.7639       1.8986
 4890.6684      12.2500      12.6033       1.4664      78.0711     144.8760     151.0074       0.2948      10.3225       1.8556
 4890.8208      12.2500      12.6033       1.4662      75.9509     137.7500     148.7073       0.2814      15.8040       1.8135
 4890.9732      12.2500      12.6033       1.4661      72.3542     129.3178     147.8528       0.2719      19.5355       1.7870
 4891.1256      12.2500      12.3031       1.4660      69.4497     122.1003     136.3433       0.2606      21.4159       1.7580
 4891.2780      12.2500      12.3809       1.4658      68.8451     119.8385     120.7009       0.2535      34.5698       1.7407
 4891.4304      12.2500      12.4586       1.4657      69.0108     121.0025     110.6720       0.2588      18.1223       1.7533
 4891.5828      12.2500      12.5366       1.4656      71.1815     126.5615     108.5585       0.2685      15.1544       1.7778
 4891.7352      12.2500      12.3365       1.4655      72.3015     130.0918     112.3532       0.2764      10.5917       1.7996
 4891.8876      12.2500      12.4032       1.4653      70.7676     130.3186     115.2981       0.2907       9.1801       1.8416
 4892.0400      12.2500      12.3699       1.4652      72.0689     135.2791     117.0772       0.3017       8.8981       1.8770
 4892.1924      12.2500      12.3365       1.4651      72.8682     140.5564     118.8580       0.3158       8.9491       1.9291
 4892.3448      12.2500      12.3365       1.4650      73.1248     144.7566     117.4668       0.3286       8.1558       1.9799
 4892.4972      12.2500      12.3365       1.4648      75.5858     145.8516     116.8962       0.3163       7.7784       1.9299
 4892.6496      12.2500      12.3365       1.4648      77.9772     149.3464     122.2472       0.3125       7.3878       1.9153
 4892.8020      12.2500      12.3031       1.4646      82.0823     154.1088     130.5044       0.3018       7.3999       1.8782
 4892.9544      12.2500      12.3199       1.4645      85.1363     158.6270     137.4665       0.2974       7.3520       1.8630
 4893.1068      12.2500      12.3365       1.4644      88.2622     169.3892     139.4592       0.3133       7.8672       1.9188
 4893.2592      12.2500      12.3143       1.4643      90.3993     181.3456     135.2690       0.3338      10.3954       2.0063
 4893.4116      12.2500      12.2920       1.4641      94.0093     183.1194     132.1312       0.3201      11.8673       1.9498
 4893.5640      12.2500      12.2476       1.4640      97.9659     176.5344     134.1117       0.2761      13.3768       1.8026
 4893.7164      12.2500      12.2031       1.4639      94.7423     166.7631     136.6017       0.2616      13.8162       1.7609
 4893.8688      12.2500      12.2531       1.4638      86.8700     156.0804     135.2224       0.2754      16.5920       1.7977
 4894.0212      12.2500      12.3031       1.4637      84.3920     148.7924     128.7679       0.2627      20.3210       1.7631
 4894.1736      12.2500      13.6705       1.4635      80.0184     140.9661     120.0909       0.2624      23.7778       1.7629
 4894.3260      12.2500      13.2203       1.4634      71.3613     130.1705     114.4765       0.2852      23.7074       1.8249
 4894.4784      12.2500      12.7701       1.4633      68.0219     125.1512     114.7153       0.2903      26.1321       1.8399
 4894.6308      12.2500      12.3198       1.4631      67.7012     124.4917     116.8678       0.2900      25.6751       1.8389
 4894.7832      12.2500      12.3337       1.4631      67.6828     123.5585     116.0352       0.2856      20.4466       1.8256
 4894.9356      12.2500      12.3476       1.4630      67.9047     123.3719     114.0451       0.2827      18.9942       1.8169
 4895.0880      12.2500      12.3615       1.4628      69.2976     126.8137     111.4216       0.2869      19.2422       1.8298
