~VERSION INFORMATION
VERS.           2.0   :CWLS Log ASCII Standard - VERSION 2.0
WRAP.           NO    :One Line per depth step
PROD.  Schlumberger   :LAS Producer
PROG.  DLIS to ASCII 2.3                               :LAS Program name and version
CREA.        2020/12/24 10:22                          :LAS Creation date {YYYY/MM/DD hh:mm}
DLIS_CREA.  2020-Dec-24 10:21                          :DLIS Creation date and time {YYYY-MMM-DD hh:mm}
SOURCE.     PNS_Processed.dlis                         :DLIS File Name
FILE-ID.     ToolSpecific_ConPr_R07_Drill_SONICVISION8 :File Identification Number
#--------------------------------------------------
~WELL INFORMATION
#MNEM.UNIT      DATA             DESCRIPTION
#---- ------ --------------   -----------------------------
STRT .M      4299.9660       :START DEPTH     
STOP .M      5201.7168       :STOP DEPTH     
STEP .M         0.1524       :STEP     
NULL .          -999.25      :NULL VALUE
COMP .        BP Development Australia Pty Ltd         :COMPANY
WELL .        Ironbark-1                               :WELL
FLD  .        Ironbark                                 :FIELD
LOC  .        WA-359-P                                 :LOCATION
CNTY .                                                 :COUNTY
STAT .        Western Australia                        :STATE
CTRY .        Australia                                :COUNTRY
API  .                                                 :API NUMBER
UWI  .        20AWA0029                                :UNIQUE WELL ID
DATE .        30-Oct-2020                              :LOG DATE {DD-MMM-YYYY}
SRVC .        Schlumberger                             :SERVICE COMPANY
LATI .DEG     19° 9' 34.079" S                        :LATITUDE
LONG .DEG     116° 4' 35.795" E                       :LONGITUDE
GDAT .                                                 :GeoDetic Datum
#-----------------------------------------------------------------------------
~PARAMETER INFORMATION
#MNEM.UNIT    VALUE                      DESCRIPTION
#---- -----   --------------------       ------------------------
RUN  .          7                        :RUN NUMBER
PDAT .        MSL                        :Permanent Datum
EPD  .M           0.000000               :Elevation of Permanent Datum above Mean Sea Level
LMF  .          DF                       :Logging Measured From (Name of Logging Elevation Reference)
APD  .M          23.850000               :Elevation of Depth Reference (LMF) above Permanent Datum
#-----------------------------------------------------------------------------
~CURVE INFORMATION
#MNEM.UNIT   API CODE                                  DESCRIPTION
#---- -----  --------                                  -----------------------
MD   .M                                                :DEPTH (BOREHOLE) {F10.4}
BS   .IN                                               :Bit Size {F13.4}
DCAV .IN                                               :Density Caliper, Average - filtered if Orion compressed {F13.4}
DEVI .DEG                                              :Hole Deviation {F13.4}
DTCO_MPS.US/F                                          :Compressional slowness {F13.4}
DTSH_MPS.US/F                                          :Shear slowness {F13.4}
GR_ARC.GAPI                                            :ARC Gamma Ray {F13.4}
PR   .UNITLESS                                         :Possion's Ratio {F13.4}
ROP5 .M/HR                                             :Rate of penetration averaged over the last 5 ft (1.5 m) {F13.4}
VPVS .UNITLESS                                         :VpVs Ratio {F13.4}
#-----------------------------------------------------------------------------
# 
#      MD         BS           DCAV         DEVI       DTCO_MPS     DTSH_MPS      GR_ARC        PR           ROP5         VPVS
#
~A  
# ...
 4943.2464      12.2500      12.3365       1.4084      68.5292     113.8268      29.2751       0.2157      21.1289       1.6610
 4943.3988      12.2500      12.2698       1.4081      67.9391     112.8712      27.9482       0.2158      20.2456       1.6614
 4943.5512      12.2500      12.2698       1.4080      67.5355     112.7783      28.9062       0.2204      19.9904       1.6699
 4943.7036      12.2500      12.3365       1.4077      67.2943     112.2387      30.1129       0.2194      21.3161       1.6679
 4943.8560      12.2500      12.3232       1.4075      67.2419     111.6829      31.2139       0.2157      21.3424       1.6609
 4944.0084      12.2500      12.2698       1.4073      67.8028     111.5710      32.3344       0.2072      18.0843       1.6455
 4944.1608      12.2500      12.4032       1.4071      67.9699     111.3845      32.7869       0.2032      17.5584       1.6387
 4944.3132      12.2500      12.3365       1.4069      68.2546     109.6026      33.0539       0.1830      18.3347       1.6058
 4944.4656      12.2500      12.3031       1.4067      67.6601     109.0113      33.0745       0.1866      18.1212       1.6112
 4944.6180      12.2500      12.3532       1.4065      66.8295     107.0600      32.0867       0.1807      16.1667       1.6020
 4944.7704      12.2500      12.4032       1.4062      65.9692     104.7596      30.4357       0.1714      15.3645       1.5880
 4944.9228      12.2500      12.4032       1.4061      65.0751     103.4960      30.2567       0.1728      14.0692       1.5905
 4945.0752      12.2500      12.4366       1.4058      65.0442     104.5442      31.1607       0.1840      14.4376       1.6074
 4945.2276      12.2500      12.5811       1.4056      67.3552     106.5476      30.0523       0.1671      14.3910       1.5821
 4945.3800      12.2500      12.5477       1.4054      69.2893     107.2522      28.1557       0.1416      14.9575       1.5480
 4945.5324      12.2500      12.5144       1.4052      69.1685     105.9594      28.2403       0.1286      17.3004       1.5319
 4945.6848      12.2500      12.4699       1.4049      68.5368     106.5507      30.1126       0.1467      20.6405       1.5547
 4945.8372      12.2500      12.3365       1.4048      67.7487     107.5919      31.8462       0.1712      17.6196       1.5882
 4945.9896      12.2500      12.2031       1.4046      67.2330     107.1073      32.4720       0.1747      14.7787       1.5931
 4946.1420      12.2500      12.3031       1.4044      67.2678     108.3968      32.3637       0.1867      16.3745       1.6114
 4946.2944      12.2500      12.2031       1.4041      68.2196     108.8416      32.1344       0.1762      17.4337       1.5956
 4946.4468      12.2500      12.2365       1.4040      68.8803     108.4780      33.2810       0.1621      15.7709       1.5749
 4946.5992      12.2500      12.2698       1.4037      69.8594     110.6084      37.6573       0.1680      17.5573       1.5833
 4946.7516      12.2500      12.2476       1.4035      70.5885     113.1738      42.3533       0.1813      17.0569       1.6033
 4946.9040      12.2500      12.3031       1.4033      70.6289     112.2184      44.1222       0.1704      17.0688       1.5889
 4947.0564      12.2500      12.4032       1.4031      70.6302     108.5467      45.0407       0.1268      14.9347       1.5370
 4947.2088      12.2500      12.3532       1.4029      71.0207     125.9064      45.8140       0.2521      13.6112       1.7706
 4947.3612      12.2500      12.3782       1.4027      75.3391     145.1203      48.3186       0.3150      15.5648       1.9267
 4947.5136      12.2500      12.4032       1.4025      81.7981     150.4680      58.5394       0.2898      16.3951       1.8414
 4947.6660      12.2500      12.3254       1.4023      85.9550     157.9481      82.3630       0.2893      13.9257       1.8375
 4947.8184      12.2500      12.2476       1.4021      88.9978     163.2367     115.8656       0.2884      13.7072       1.8345
 4947.9708      12.2500      12.2865       1.4019      89.1704     161.2799     141.8688       0.2795      16.2884       1.8083
 4948.1232      12.2500      12.6255       1.4017      76.6249     134.9770     146.6134       0.2592      16.5570       1.7586
 4948.2756      12.2500      12.4979       1.4015      64.6910     115.9134     137.6824       0.2737      16.8642       1.7928
 4948.4280      12.2500      12.3699       1.4013      63.7990     113.3534     126.8014       0.2680      14.2837       1.7766
 4948.5804      12.2500      12.3031       1.4011      62.4616     108.5117     111.3874       0.2521      13.3695       1.7371
 4948.7328      12.2500      12.4366       1.4008      62.9444     108.4385      98.6726       0.2459      12.9279       1.7227
 4948.8852      12.2500      12.3031       1.4006      64.1861     112.1169      97.9706       0.2558       9.8905       1.7467
 4949.0376      12.2500      12.1364       1.4004      64.9020     116.1414     100.3671       0.2729       9.4201       1.7895
 4949.1900      12.2500      12.2698       1.4002      66.2995     120.2278     101.9745       0.2811      10.5044       1.8132
 4949.3424      12.2500      12.2698       1.4000      67.3012     126.3373     105.5300       0.3016       8.9470       1.8771
 4949.4948      12.2500      12.3532       1.3998      68.2182     129.5144     107.1304       0.3080       8.6699       1.8985
 4949.6472      12.2500      12.4366       1.3997      68.9633     131.3468     109.5155       0.3097       7.3459       1.9046
 4949.7996      12.2500      12.2698       1.3994      68.4977     131.1401     119.9339       0.3124       7.3703       1.9145
 4949.9520      12.2500      12.2965       1.3992      68.5474     129.8571     131.1103       0.3068       7.7130       1.8944
 4950.1044      12.2500      12.3232       1.3990      68.5611     129.2144     134.4361       0.3041       8.3463       1.8847
 4950.2568      12.2500      12.2798       1.3987      68.7639     129.9546     136.2393       0.3055       9.0653       1.8899
 4950.4092      12.2500      12.2365       1.3986      69.5779     132.5880     141.0553       0.3099      10.7650       1.9055
 4950.5616      12.2500      12.2698       1.3983      72.0407     137.5715     146.6482       0.3111      12.4653       1.9097
 4950.7140      12.2500      12.2624       1.3982      73.1881     138.4299     151.4099       0.3060      11.6429       1.8915
 4950.8664      12.2500      12.2550       1.3979      73.7143     137.3167     150.4399       0.2975      14.6493       1.8629
 4951.0188      12.2500      12.2476       1.3978      73.8049     137.8236     144.4801       0.2989      13.5463       1.8674
 4951.1712      12.2500      12.2754       1.3975      73.4836     135.9907     141.6393       0.2937      18.4924       1.8507
 4951.3236      12.2500      12.3031       1.3973      70.9425     132.7653     141.7341       0.3000      18.7733       1.8719
 4951.4760      12.2500      12.3699       1.3971      68.7564     125.2711     138.4366       0.2830      20.4224       1.8215
 4951.6284      12.2500      12.4199       1.3969      66.4788     117.4045     124.1974       0.2638      18.3530       1.7660
 4951.7808      12.2500      12.3893       1.3966      67.0666     118.4776     109.9344       0.2613      18.3942       1.7655
 4951.9332      12.2500      12.3587       1.3965      70.4430     138.9258     111.2358       0.3236      16.1409       1.9703
 4952.0856      12.2500      12.3365       1.3962      74.4236     156.3630     119.6843       0.3530      12.1838       2.1002
 4952.2380      12.2500      12.3031       1.3961      79.0630     164.3982     129.7549       0.3491      11.6708       2.0802
 4952.3904      12.2500      12.2698       1.3959      80.8289     156.2660     137.8138       0.3161      11.0315       1.9335
 4952.5428      12.2500      12.3031       1.3957      79.8965     145.3354     136.3538       0.2826      11.4072       1.8187
 4952.6952      12.2500      12.2476       1.3954      77.4742     143.1117     131.2219       0.2917      11.6824       1.8472
