~VERSION INFORMATION
VERS.           2.0   :CWLS Log ASCII Standard - VERSION 2.0
WRAP.           NO    :One Line per depth step
PROD.  Schlumberger   :LAS Producer
PROG.  DLIS to ASCII 2.3                               :LAS Program name and version
CREA.        2020/12/07 11:58                          :LAS Creation date {YYYY/MM/DD hh:mm}
DLIS_CREA.  2020-Dec-07 11:16                          :DLIS Creation date and time {YYYY-MMM-DD hh:mm}
SOURCE.     sonicVISION_2.dlis                         :DLIS File Name
FILE-ID.     ToolSpecific_ConPr_R05_Drill_SONICVISION9 :File Identification Number
#--------------------------------------------------
~WELL INFORMATION
#MNEM.UNIT      DATA             DESCRIPTION
#---- ------ --------------   -----------------------------
STRT .M      2896.9716       :START DEPTH     
STOP .M      3794.9124       :STOP DEPTH     
STEP .M         0.1524       :STEP     
NULL .          -999.25      :NULL VALUE
COMP .        BP Development Australia Pty Ltd         :COMPANY
WELL .        Ironbark-1                               :WELL
FLD  .        WA-359-2                                 :FIELD
LOC  .        Northern Carnarvon Basin                 :LOCATION
CNTY .                                                 :COUNTY
STAT .        Western Australia                        :STATE
CTRY .        Australia                                :COUNTRY
API  .                                                 :API NUMBER
UWI  .        20AWA0029                                :UNIQUE WELL ID
DATE .        30-Nov-2020                              :LOG DATE {DD-MMM-YYYY}
SRVC .        Schlumberger                             :SERVICE COMPANY
LATI .DEG     19° 9' 34.079" S                        :LATITUDE
LONG .DEG     116° 4' 35.795" E                       :LONGITUDE
GDAT .                                                 :GeoDetic Datum
#-----------------------------------------------------------------------------
~PARAMETER INFORMATION
#MNEM.UNIT    VALUE                      DESCRIPTION
#---- -----   --------------------       ------------------------
RUN  .          Run5_16.5in              :RUN NUMBER
PDAT .        MSL                        :Permanent Datum
EPD  .C3           0.000000              :Elevation of Permanent Datum above Mean Sea Level
LMF  .          DF                       :Logging Measured From (Name of Logging Elevation Reference)
APD  .M          23.850000               :Elevation of Depth Reference (LMF) above Permanent Datum
#-----------------------------------------------------------------------------
~CURVE INFORMATION
#MNEM.UNIT   API CODE                                  DESCRIPTION
#---- -----  --------                                  -----------------------
DEPT .M                                                :DEPTH (BOREHOLE) {F10.4}
BS   .IN                                               :Bit Size {F13.4}
DEVI .DEG                                              :Hole Deviation {F13.4}
DTCO_MPS.US/F                                          : {F13.4}
DTSH_MPS.US/F                                          :Shear slowness {F13.4}
GR_ARC.GAPI                                            :ARC Gamma Ray {F13.4}
PR   .UNITLESS                                         :Possion's Ratio {F13.4}
ROP5 .M/HR                                             :Rate of penetration averaged over the last 5 ft (1.5 m) {F13.4}
VPVS .UNITLESS                                         :VpVs Ratio {F13.4}
#-----------------------------------------------------------------------------
# 
#     DEPT        BS           DEVI       DTCO_MPS     DTSH_MPS      GR_ARC        PR           ROP5         VPVS
#
~A  
 2896.9716      17.5000       0.1388   -9999.0000   -9999.0000      13.4184   -9999.0000   -9999.0000   -9999.0000
 2897.1240      17.5000       0.1388   -9999.0000   -9999.0000      13.4184   -9999.0000   -9999.0000   -9999.0000
 2897.2764      17.5000       0.1388   -9999.0000   -9999.0000      13.4184   -9999.0000   -9999.0000   -9999.0000
 2897.4288      17.5000       0.1388   -9999.0000   -9999.0000      13.4184   -9999.0000   -9999.0000   -9999.0000
 2897.5812      17.5000       0.1388   -9999.0000   -9999.0000      13.4184   -9999.0000   -9999.0000   -9999.0000
 2897.7336      17.5000       0.1388   -9999.0000   -9999.0000      13.4184   -9999.0000   -9999.0000   -9999.0000
 2897.8860      17.5000       0.1388      87.0137   -9999.0000      13.4184   -9999.0000   -9999.0000   -9999.0000
 2898.0384      17.5000       0.1388      86.2914   -9999.0000      13.4184   -9999.0000   -9999.0000   -9999.0000
 2898.1908      17.5000       0.1388      86.0395   -9999.0000      13.4184   -9999.0000   -9999.0000   -9999.0000
 2898.3432      17.5000       0.1388      86.7974   -9999.0000      13.4184   -9999.0000   -9999.0000   -9999.0000
 2898.4956      17.5000       0.1388      89.4975   -9999.0000      12.9466   -9999.0000   -9999.0000   -9999.0000
 2898.6480      17.5000       0.1388      91.5082   -9999.0000      12.0030   -9999.0000   -9999.0000   -9999.0000
 2898.8004      17.5000       0.1388      92.2669   -9999.0000      11.5312   -9999.0000   -9999.0000   -9999.0000
 2898.9528      17.5000       0.1388      92.4506   -9999.0000      11.5312   -9999.0000   -9999.0000   -9999.0000
 2899.1052      17.5000       0.1388      92.2172   -9999.0000      11.5312   -9999.0000   -9999.0000   -9999.0000
 2899.2576      17.5000       0.1388      91.9323   -9999.0000      14.6922   -9999.0000   -9999.0000   -9999.0000
 2899.4100      17.5000       0.1388      92.0235   -9999.0000      21.0141   -9999.0000   -9999.0000   -9999.0000
 2899.5624      17.5000       0.1388      92.8931   -9999.0000      24.1751   -9999.0000   -9999.0000   -9999.0000
 2899.7148      17.5000       0.1388      94.6440   -9999.0000      24.1751   -9999.0000   -9999.0000   -9999.0000
 2899.8672      17.5000       0.1384      96.5101   -9999.0000      24.1751   -9999.0000   -9999.0000   -9999.0000
 2900.0196      17.5000       0.1378      97.7414   -9999.0000      24.1751   -9999.0000     462.8580   -9999.0000
 2900.1720      17.5000       0.1373      98.1707   -9999.0000      21.1556   -9999.0000     460.2007   -9999.0000
 2900.3244      17.5000       0.1368      98.3542   -9999.0000      15.1168   -9999.0000     451.0952   -9999.0000
 2900.4768      17.5000       0.1363      98.5101   -9999.0000      12.0974   -9999.0000     439.7416   -9999.0000
 2900.6292      17.5000       0.1358      97.7522   -9999.0000      12.0974   -9999.0000     425.9749   -9999.0000
 2900.7816      17.5000       0.1353      94.9694   -9999.0000      12.0974   -9999.0000     410.4555   -9999.0000
 2900.9340      17.5000       0.1348      93.7975   -9999.0000      12.0974   -9999.0000     395.8623   -9999.0000
 2901.0864      17.5000       0.1344      92.9750   -9999.0000      11.9558   -9999.0000     381.1058   -9999.0000
 2901.2388      17.5000       0.1339      93.0006   -9999.0000      11.6728   -9999.0000     371.4579   -9999.0000
 2901.3912      17.5000       0.1334      94.0854   -9999.0000      11.5312   -9999.0000     408.5867   -9999.0000
 2901.5436      17.5000       0.1328      94.6970   -9999.0000      11.5312   -9999.0000     398.1331   -9999.0000
 2901.6960      17.5000       0.1323      93.4161   -9999.0000      11.5312   -9999.0000     387.8617   -9999.0000
 2901.8484      17.5000       0.1318      92.3454   -9999.0000      14.6922   -9999.0000     378.1762   -9999.0000
 2902.0008      17.5000       0.1314      92.0076   -9999.0000      21.0141   -9999.0000     369.6763   -9999.0000
 2902.1532      17.5000       0.1309      93.1638   -9999.0000      24.1751   -9999.0000     362.7627   -9999.0000
 2902.3056      17.5000       0.1304      94.8838   -9999.0000      24.1751   -9999.0000     357.6437   -9999.0000
 2902.4580      17.5000       0.1299      96.3322   -9999.0000      24.1751   -9999.0000     354.1536   -9999.0000
 2902.6104      17.5000       0.1293      96.3523   -9999.0000      23.7033   -9999.0000     352.6610   -9999.0000
 2902.7628      17.5000       0.1289      94.9881   -9999.0000      22.7597   -9999.0000     350.5898   -9999.0000
 2902.9152      17.5000       0.1284      93.3783   -9999.0000      22.2879   -9999.0000     347.4020   -9999.0000
 2903.0676      17.5000       0.1280      92.1574   -9999.0000      22.2879   -9999.0000     342.0937   -9999.0000
 2903.2200      17.5000       0.1275      91.8558   -9999.0000      22.2879   -9999.0000     334.2751   -9999.0000
 2903.3724      17.5000       0.1270      91.8013   -9999.0000      23.7033   -9999.0000     323.8190   -9999.0000
 2903.5248      17.5000       0.1266      91.6234   -9999.0000      26.5340   -9999.0000     310.1570   -9999.0000
 2903.6772      17.5000       0.1261      91.4026   -9999.0000      27.9493   -9999.0000     291.9861   -9999.0000
 2903.8296      17.5000       0.1256      91.2143   -9999.0000      27.9493   -9999.0000     255.7478   -9999.0000
 2903.9820      17.5000       0.1251      90.9129   -9999.0000      27.6191   -9999.0000     127.6647   -9999.0000
 2904.1344      17.5000       0.1247      90.0744   -9999.0000      26.9586   -9999.0000     123.6811   -9999.0000
 2904.2868      17.5000       0.1242      89.4355   -9999.0000      26.6283   -9999.0000     119.6247   -9999.0000
 2904.4392      17.5000       0.1237      88.6078   -9999.0000      26.6283   -9999.0000     116.0362   -9999.0000
 2904.5916      17.5000       0.1233      87.9857   -9999.0000      26.6283   -9999.0000     113.0859   -9999.0000
 2904.7440      17.5000       0.1228      86.4747   -9999.0000      27.2888   -9999.0000     109.7040   -9999.0000
 2904.8964      17.5000       0.1223      84.2686   -9999.0000      28.6098   -9999.0000     100.5610   -9999.0000
 2905.0488      17.5000       0.1219      81.6952   -9999.0000      29.2703   -9999.0000      89.5011   -9999.0000
 2905.2012      17.5000       0.1215      81.0583   -9999.0000      29.2703   -9999.0000      89.2366   -9999.0000
 2905.3536      17.5000       0.1211      81.3849   -9999.0000      27.8078   -9999.0000      92.8638   -9999.0000
 2905.5060      17.5000       0.1206      81.8170   -9999.0000      24.8827   -9999.0000     146.5380   -9999.0000
 2905.6584      17.5000       0.1202      82.1868   -9999.0000      23.4202   -9999.0000     153.5334   -9999.0000
 2905.8108      17.5000       0.1198      82.5656   -9999.0000      23.4202   -9999.0000     162.5978   -9999.0000
 2905.9632      17.5000       0.1193      83.7074   -9999.0000      23.4202   -9999.0000     173.1734   -9999.0000
 2906.1156      17.5000       0.1189      85.0948   -9999.0000      20.4480   -9999.0000     185.1699   -9999.0000
 2906.2680      17.5000       0.1184      86.1873   -9999.0000      14.5035   -9999.0000     202.3325   -9999.0000
 2906.4204      17.5000       0.1179      86.3234   -9999.0000      11.5312   -9999.0000     256.9852   -9999.0000
 2906.5728      17.5000       0.1174      85.7814   -9999.0000      11.5312   -9999.0000     416.8830   -9999.0000
 2906.7252      17.5000       0.1170      85.0798   -9999.0000      11.6728   -9999.0000     490.2708   -9999.0000
 2906.8776      17.5000       0.1166      84.4851   -9999.0000      11.9558   -9999.0000     535.1129   -9999.0000
 2907.0300      17.5000       0.1163      84.0217   -9999.0000      12.0974   -9999.0000     564.2817   -9999.0000
 2907.1824      17.5000       0.1158      82.6505   -9999.0000      12.0974   -9999.0000     582.4106   -9999.0000
 2907.3348      17.5000       0.1153      80.7376   -9999.0000      12.0974   -9999.0000     591.5799   -9999.0000
 2907.4872      17.5000       0.1149      79.4208   -9999.0000      11.8143   -9999.0000     596.9691   -9999.0000
