~VERSION INFORMATION
VERS.           2.0   :CWLS Log ASCII Standard - VERSION 2.0
WRAP.           NO    :One Line per depth step
PROD.  Schlumberger   :LAS Producer
PROG.  DLIS to ASCII 2.3                               :LAS Program name and version
CREA.        2021/01/04 14:54                          :LAS Creation date {YYYY/MM/DD hh:mm}
DLIS_CREA.  2021-Jan-04 14:41                          :DLIS Creation date and time {YYYY-MMM-DD hh:mm}
SOURCE.     PnS_Processed.dlis                         :DLIS File Name
FILE-ID.     ConPr_R08_Drill_ARC6_TELE675_SONICVISION6 :File Identification Number
#--------------------------------------------------
~WELL INFORMATION
#MNEM.UNIT      DATA             DESCRIPTION
#---- ------ --------------   -----------------------------
STRT .M      5170.0176       :START DEPTH     
STOP .M      5614.8732       :STOP DEPTH     
STEP .M         0.1524       :STEP     
NULL .          -999.25      :NULL VALUE
COMP .        BP Development Australia Pty Ltd         :COMPANY
WELL .        Ironbark-1                               :WELL
FLD  .        Ironbark                                 :FIELD
LOC  .        WA-359-P                                 :LOCATION
CNTY .                                                 :COUNTY
STAT .        Western Australia                        :STATE
CTRY .        Australia                                :COUNTRY
API  .                                                 :API NUMBER
UWI  .        20AWA0029                                :UNIQUE WELL ID
DATE .        30-Oct-2020                              :LOG DATE {DD-MMM-YYYY}
SRVC .        Schlumberger                             :SERVICE COMPANY
LATI .DEG     19° 9' 34.079" S                        :LATITUDE
LONG .DEG     116° 4' 35.795" E                       :LONGITUDE
GDAT .                                                 :GeoDetic Datum
#-----------------------------------------------------------------------------
~PARAMETER INFORMATION
#MNEM.UNIT    VALUE                      DESCRIPTION
#---- -----   --------------------       ------------------------
RUN  .          Run8_8.5in               :RUN NUMBER
PDAT .        MSL                        :Permanent Datum
EPD  .M           0.000000               :Elevation of Permanent Datum above Mean Sea Level
LMF  .          DF                       :Logging Measured From (Name of Logging Elevation Reference)
APD  .M          23.850000               :Elevation of Depth Reference (LMF) above Permanent Datum
#-----------------------------------------------------------------------------
~CURVE INFORMATION
#MNEM.UNIT   API CODE                                  DESCRIPTION
#---- -----  --------                                  -----------------------
MD   .M                                                :DEPTH (BOREHOLE) {F10.4}
BS   .IN                                               :Bit Size {F13.4}
DCAV .IN                                               :Density Caliper, Average - filtered if Orion compressed {F13.4}
DEVI .DEG                                              :Hole Deviation {F13.4}
DTCO_MPS.US/F                                          :Compressional slowness {F13.4}
DTSH_MPS.US/F                                          :Shear slowness {F13.4}
GR_ARC.GAPI                                            :ARC Gamma Ray {F13.4}
PR   .UNITLESS                                         :Possion's Ratio {F13.4}
ROP5 .M/HR                                             :Rate of penetration averaged over the last 5 ft (1.5 m) {F13.4}
VPVS .UNITLESS                                         :VpVs Ratio {F13.4}
#-----------------------------------------------------------------------------
# 
#      MD         BS           DCAV         DEVI       DTCO_MPS     DTSH_MPS      GR_ARC        PR           ROP5         VPVS
#
~A  
# ...
 5342.8392       8.5000       8.3292       0.2955      78.1999     156.4694     168.5413       0.3335      33.8968       2.0009
 5342.9916       8.5000       8.3428       0.2944      79.8568     158.9393     163.5263       0.3312      35.5817       1.9903
 5343.1440       8.5000       8.3444       0.2937      80.5810     158.0188     162.5124       0.3243      33.9196       1.9610
 5343.2964       8.5000       8.3325       0.2925      79.6596     157.2752     163.4221       0.3275      35.5249       1.9743
 5343.4488       8.5000       8.3550       0.2916      79.1363     157.2339     160.5651       0.3304      41.6860       1.9869
 5343.6012       8.5000       8.3590       0.2908      79.4058     156.9394     156.5958       0.3280      36.8685       1.9764
 5343.7536       8.5000       8.3099       0.2898      80.9454     157.8970     156.3482       0.3218      35.9928       1.9507
 5343.9060       8.5000       8.3151       0.2887      82.6684     159.1154     160.5203       0.3151      35.0585       1.9247
 5344.0584       8.5000       8.3280       0.2879      83.9353     154.0323     168.1578       0.2888      31.3088       1.8351
 5344.2108       8.5000       8.3598       0.2870      82.9308     144.0315     171.8755       0.2520      29.7413       1.7368
 5344.3632       8.5000       8.3657       0.2860      79.9025     136.4324     171.7551       0.2390      34.7377       1.7075
 5344.5156       8.5000       8.3370       0.2850      74.8740     128.8278     178.5070       0.2450      33.1155       1.7206
 5344.6680       8.5000       8.3608       0.2842      68.8609     123.0755     189.8794       0.2722      28.9643       1.7873
 5344.8204       8.5000       8.3559       0.2836      66.4098     120.7189     191.8466       0.2830      26.2288       1.8178
 5344.9728       8.5000       8.3511       0.2837      64.8198     120.3613     170.7455       0.2957      26.4315       1.8569
 5345.1252       8.5000       8.3501       0.2837      63.7433     122.6214     137.0401       0.3149      28.0338       1.9237
 5345.2776       8.5000       8.3326       0.2838      64.6680     123.3387     124.4799       0.3104      24.9011       1.9073
 5345.4300       8.5000       8.3374       0.2838      65.5318     121.3032     129.8357       0.2939      18.9198       1.8511
 5345.5824       8.5000       8.3416       0.2839      65.8373     120.3193     129.7954       0.2863      19.3561       1.8275
 5345.7348       8.5000       8.3443       0.2840      65.8846   -9999.0000     126.5845   -9999.0000      17.8231   -9999.0000
 5345.8872       8.5000       8.3433       0.2840      64.7899   -9999.0000     126.7309   -9999.0000      18.0761   -9999.0000
 5346.0396       8.5000       8.3447       0.2841      63.8878   -9999.0000     131.7463   -9999.0000      18.5028   -9999.0000
 5346.1920       8.5000       8.3509       0.2841      65.7042   -9999.0000     136.2184   -9999.0000      17.6277   -9999.0000
 5346.3444       8.5000       8.3427       0.2842      68.2916   -9999.0000     131.8304   -9999.0000      18.8548   -9999.0000
 5346.4968       8.5000       8.3285       0.2842      70.3988   -9999.0000     125.2301   -9999.0000      16.5421   -9999.0000
 5346.6492       8.5000       8.3474       0.2843      72.9077   -9999.0000     119.6201   -9999.0000      15.2821   -9999.0000
 5346.8016       8.5000       8.3364       0.2844      74.5488   -9999.0000     113.2320   -9999.0000      16.3850   -9999.0000
 5346.9540       8.5000       8.3139       0.2844      74.5716   -9999.0000     120.0927   -9999.0000      16.9850   -9999.0000
 5347.1064       8.5000       8.3195       0.2845      74.3138     144.0762     137.5285       0.3188      17.4302       1.9388
 5347.2588       8.5000       8.3245       0.2846      75.5157     147.5882     144.5570       0.3227      19.3471       1.9544
 5347.4112       8.5000       8.3314       0.2846      76.9202     149.8383     141.9866       0.3211      17.7405       1.9480
 5347.5636       8.5000       8.3360       0.2847      76.8313     149.4454     141.0463       0.3204      17.7500       1.9451
 5347.7160       8.5000       8.3412       0.2847      76.5414     145.0469     143.0651       0.3070      19.1553       1.8950
 5347.8684       8.5000       8.3246       0.2848      74.7364     136.2874     143.7554       0.2850      19.2507       1.8236
 5348.0208       8.5000       8.3436       0.2848      72.8592     128.3398     145.2439       0.2622      22.5883       1.7615
 5348.1732       8.5000       8.3149       0.2849      69.8566     122.9822     153.6859       0.2618      25.6492       1.7605
 5348.3256       8.5000       8.3161       0.2850      63.4096     119.3530     157.7410       0.3034      25.4036       1.8823
 5348.4780       8.5000       8.3286       0.2850      59.2267     117.2511     151.6192       0.3287      34.8783       1.9797
 5348.6304       8.5000       8.3218       0.2851      59.9531     118.5540     148.9800       0.3282      34.2878       1.9774
 5348.7828       8.5000       8.3237       0.2851      64.0338     129.7017     147.7019       0.3389      19.9214       2.0255
 5348.9352       8.5000       8.3039       0.2852      70.0759     143.2386     130.8902       0.3427      21.1695       2.0440
 5349.0876       8.5000       8.3240       0.2853      76.3082   -9999.0000     102.7730   -9999.0000      20.8293   -9999.0000
 5349.2400       8.5000       8.3072       0.2853      82.5082   -9999.0000      90.8712   -9999.0000      20.3029   -9999.0000
 5349.3924       8.5000       8.3194       0.2854      88.6387   -9999.0000     104.6097   -9999.0000      17.6549   -9999.0000
 5349.5448       8.5000       8.3415       0.2854      90.4376   -9999.0000     128.4571   -9999.0000      11.8122   -9999.0000
 5349.6972       8.5000       8.3139       0.2855      89.7381   -9999.0000     151.0167   -9999.0000      11.3921   -9999.0000
 5349.8496       8.5000       8.3264       0.2855      87.3416   -9999.0000     165.6823   -9999.0000      11.4848   -9999.0000
 5350.0020       8.5000       8.3427       0.2856      83.8936     162.9338     164.0592       0.3196      11.5610       1.9421
 5350.1544       8.5000       8.3269       0.2857      82.0105     157.6893     149.1229       0.3146      11.2863       1.9228
 5350.3068       8.5000       8.3094       0.2857      82.4234     156.5314     134.1208       0.3082      14.5524       1.8991
 5350.4592       8.5000       8.3013       0.2858      81.9177     154.4196     127.5746       0.3042      14.3688       1.8851
 5350.6116       8.5000       8.3166       0.2858      80.1936     149.7458     129.4216       0.2989      14.5642       1.8673
 5350.7640       8.5000       8.3643       0.2859      79.2381     146.9971     135.0208       0.2952      15.8668       1.8551
 5350.9164       8.5000       8.3961       0.2859      76.9023     145.2057     140.4342       0.3051      17.6945       1.8882
 5351.0688       8.5000       8.3403       0.2860      73.5330     143.0061     143.7930       0.3203      35.1643       1.9448
 5351.2212       8.5000       8.3412       0.2861      71.8436     140.2738     145.5184       0.3222      39.5169       1.9525
 5351.3736       8.5000       8.3741       0.2861      70.4773     135.5707     147.7495       0.3148      39.2902       1.9236
 5351.5260       8.5000       8.3769       0.2862      69.5955     133.0256     149.3264       0.3116      32.8590       1.9114
 5351.6784       8.5000       8.3802       0.2862      70.6364     132.7719     147.1299       0.3026      36.5273       1.8797
 5351.8308       8.5000       8.3475       0.2863      71.0081     131.9874     143.1553       0.2963      38.8713       1.8588
 5351.9832       8.5000       8.3530       0.2864      68.2891     128.1187     139.9251       0.3016      42.9110       1.8761
 5352.1356       8.5000       8.3390       0.2864      65.3411     122.8427     140.3916       0.3027      41.0977       1.8800
 5352.2880       8.5000       8.3422       0.2865      64.6429     119.9050     142.0452       0.2951      37.8477       1.8549
