~VERSION INFORMATION
VERS.           2.0   :CWLS Log ASCII Standard - VERSION 2.0
WRAP.           NO    :One Line per depth step
PROD.  Schlumberger   :LAS Producer
PROG.  DLIS to ASCII 2.3                               :LAS Program name and version
CREA.        2021/01/04 14:54                          :LAS Creation date {YYYY/MM/DD hh:mm}
DLIS_CREA.  2021-Jan-04 14:41                          :DLIS Creation date and time {YYYY-MMM-DD hh:mm}
SOURCE.     PnS_Processed.dlis                         :DLIS File Name
FILE-ID.     ConPr_R08_Drill_ARC6_TELE675_SONICVISION6 :File Identification Number
#--------------------------------------------------
~WELL INFORMATION
#MNEM.UNIT      DATA             DESCRIPTION
#---- ------ --------------   -----------------------------
STRT .M      5170.0176       :START DEPTH     
STOP .M      5614.8732       :STOP DEPTH     
STEP .M         0.1524       :STEP     
NULL .          -999.25      :NULL VALUE
COMP .        BP Development Australia Pty Ltd         :COMPANY
WELL .        Ironbark-1                               :WELL
FLD  .        Ironbark                                 :FIELD
LOC  .        WA-359-P                                 :LOCATION
CNTY .                                                 :COUNTY
STAT .        Western Australia                        :STATE
CTRY .        Australia                                :COUNTRY
API  .                                                 :API NUMBER
UWI  .        20AWA0029                                :UNIQUE WELL ID
DATE .        30-Oct-2020                              :LOG DATE {DD-MMM-YYYY}
SRVC .        Schlumberger                             :SERVICE COMPANY
LATI .DEG     19° 9' 34.079" S                        :LATITUDE
LONG .DEG     116° 4' 35.795" E                       :LONGITUDE
GDAT .                                                 :GeoDetic Datum
#-----------------------------------------------------------------------------
~PARAMETER INFORMATION
#MNEM.UNIT    VALUE                      DESCRIPTION
#---- -----   --------------------       ------------------------
RUN  .          Run8_8.5in               :RUN NUMBER
PDAT .        MSL                        :Permanent Datum
EPD  .M           0.000000               :Elevation of Permanent Datum above Mean Sea Level
LMF  .          DF                       :Logging Measured From (Name of Logging Elevation Reference)
APD  .M          23.850000               :Elevation of Depth Reference (LMF) above Permanent Datum
#-----------------------------------------------------------------------------
~CURVE INFORMATION
#MNEM.UNIT   API CODE                                  DESCRIPTION
#---- -----  --------                                  -----------------------
MD   .M                                                :DEPTH (BOREHOLE) {F10.4}
BS   .IN                                               :Bit Size {F13.4}
DCAV .IN                                               :Density Caliper, Average - filtered if Orion compressed {F13.4}
DEVI .DEG                                              :Hole Deviation {F13.4}
DTCO_MPS.US/F                                          :Compressional slowness {F13.4}
DTSH_MPS.US/F                                          :Shear slowness {F13.4}
GR_ARC.GAPI                                            :ARC Gamma Ray {F13.4}
PR   .UNITLESS                                         :Possion's Ratio {F13.4}
ROP5 .M/HR                                             :Rate of penetration averaged over the last 5 ft (1.5 m) {F13.4}
VPVS .UNITLESS                                         :VpVs Ratio {F13.4}
#-----------------------------------------------------------------------------
# 
#      MD         BS           DCAV         DEVI       DTCO_MPS     DTSH_MPS      GR_ARC        PR           ROP5         VPVS
#
~A  
# ...
 5515.6608       8.5000       8.3067       0.1451      82.6454     156.6820     153.5511       0.3073      19.5647       1.8958
 5515.8132       8.5000       8.3205       0.1444      83.5254     163.2096     154.6112       0.3226      19.0470       1.9540
 5515.9656       8.5000       8.3150       0.1436      84.0486     164.1660     156.9132       0.3224      19.6602       1.9532
 5516.1180       8.5000       8.3184       0.1426      84.9609     163.6020     156.8436       0.3154      20.1475       1.9256
 5516.2704       8.5000       8.3070       0.1422      85.1334     162.5319     155.2964       0.3110      18.3225       1.9091
 5516.4228       8.5000       8.3046       0.1412      84.1084     158.1057     156.8159       0.3027      18.0451       1.8798
 5516.5752       8.5000       8.3112       0.1406      81.7454     147.9829     159.2992       0.2804      18.3454       1.8103
 5516.7276       8.5000       8.3206       0.1398      78.8731     143.1377     162.5173       0.2820      21.7826       1.8148
 5516.8800       8.5000       8.3137       0.1391      77.5241     142.8927     170.8251       0.2914      21.4665       1.8432
 5517.0324       8.5000       8.3149       0.1384      78.8658     139.8303     177.0002       0.2667      21.5776       1.7730
 5517.1848       8.5000       8.3163       0.1378      78.6535     136.2939     176.1422       0.2503      21.1621       1.7328
 5517.3372       8.5000       8.3013       0.1370      75.3464     130.8039     170.1347       0.2517      22.0046       1.7360
 5517.4896       8.5000       8.3039       0.1364      71.5779     124.7472     153.2217       0.2546      21.9977       1.7428
 5517.6420       8.5000       8.2986       0.1357      69.3771     120.5374     133.8986       0.2523      22.2647       1.7374
 5517.7944       8.5000       8.3059       0.1350      69.3633     116.9978     127.8004       0.2290      25.4229       1.6867
 5517.9468       8.5000       8.3072       0.1343      68.0654     114.5899     132.1109       0.2274      26.1213       1.6835
 5518.0992       8.5000       8.3265       0.1339      65.0633     111.8913     134.8306       0.2446      19.6528       1.7197
 5518.2516       8.5000       8.3380       0.1331      63.6408     110.1588     123.2471       0.2495      18.7604       1.7309
 5518.4040       8.5000       8.3506       0.1325      64.6950     111.7639     112.1375       0.2480      19.2364       1.7276
 5518.5564       8.5000       8.3408       0.1320      66.3726     114.0567     123.3825       0.2440      17.4377       1.7184
 5518.7088       8.5000       8.3606       0.1312      66.8531     115.5574     135.8808       0.2485      18.3254       1.7285
 5518.8612       8.5000       8.3727       0.1309      66.8174     116.9090     129.3587       0.2574      13.8591       1.7497
 5519.0136       8.5000       8.3764       0.1302      66.7502     118.2153     111.3632       0.2660      13.5960       1.7710
 5519.1660       8.5000       8.3449       0.1295      66.4234     119.7512      99.4863       0.2778      13.3396       1.8028
 5519.3184       8.5000       8.3259       0.1290      67.2420     123.2313     105.0919       0.2880      11.6892       1.8327
 5519.4708       8.5000       8.3224       0.1285      68.7638     125.8932     118.0931       0.2874      11.2489       1.8308
 5519.6232       8.5000       8.3331       0.1279      70.4365     125.8865     123.8491       0.2721      13.7891       1.7872
 5519.7756       8.5000       8.3404       0.1275      71.2515     120.6792     125.7819       0.2324      13.3760       1.6937
 5519.9280       8.5000       8.3460       0.1269      68.2249     112.7741     132.9533       0.2114      13.2393       1.6530
 5520.0804       8.5000       8.3329       0.1265      65.6782     106.5627     142.1187       0.1937      13.7527       1.6225
 5520.2328       8.5000       8.3390       0.1260      66.3168     105.2635     151.1027       0.1709      13.2157       1.5873
 5520.3852       8.5000       8.3444       0.1256      68.3064     107.5814     158.3143       0.1623      15.6989       1.5750
 5520.5376       8.5000       8.3249       0.1251      70.8917     107.6513     154.9432       0.1171      15.6518       1.5185
 5520.6900       8.5000       8.3207       0.1246      71.0696     106.6562     130.2079       0.1007      15.8128       1.5007
 5520.8424       8.5000       8.3131       0.1243      68.7052     105.1336      95.0999       0.1273      16.4117       1.5302
 5520.9948       8.5000       8.3166       0.1238      65.0354     101.8501      82.8664       0.1558      15.7541       1.5661
 5521.1472       8.5000       8.3177       0.1234      61.9008      98.8246      82.6821       0.1772      15.2037       1.5965
 5521.2996       8.5000       8.3062       0.1230      61.9784      97.9698      69.2834       0.1664      16.0080       1.5807
 5521.4520       8.5000       8.3161       0.1227      63.0555      98.0798      60.4178       0.1477      13.8515       1.5555
 5521.6044       8.5000       8.3075       0.1223      62.5146      98.4544      57.8573       0.1622      12.5177       1.5749
 5521.7568       8.5000       8.2935       0.1220      61.3263      98.9966      56.7592       0.1886      12.2355       1.6143
 5521.9092       8.5000       8.3117       0.1216      61.7825      99.3728      64.9676       0.1849      12.7816       1.6084
 5522.0616       8.5000       8.3004       0.1213      62.5596      99.2304      72.2402       0.1702      12.7942       1.5862
 5522.2140       8.5000       8.3100       0.1209      62.7173      98.6623      71.3119       0.1610      12.7324       1.5731
 5522.3664       8.5000       8.2969       0.1208      63.2106      98.1893      67.2753       0.1461       9.6018       1.5534
 5522.5188       8.5000       8.3085       0.1205      63.8724      98.2824      64.0078       0.1344       9.4758       1.5387
 5522.6712       8.5000       8.3150       0.1202      64.0328      98.6440      62.1962       0.1359       8.6392       1.5405
 5522.8236       8.5000       8.3262       0.1200      63.1379      98.8167      58.6088       0.1551       8.5483       1.5651
 5522.9760       8.5000       8.3034       0.1197      62.2284      98.7746      53.8397       0.1709       9.3168       1.5873
 5523.1284       8.5000       8.3099       0.1195      62.5854      98.8381      54.0919       0.1653       9.7018       1.5793
 5523.2808       8.5000       8.2942       0.1193      63.4812      99.7968      57.8969       0.1602       9.8190       1.5721
 5523.4332       8.5000       8.3056       0.1191      64.2650      99.8626      63.6011       0.1466       9.8342       1.5539
 5523.5856       8.5000       8.3256       0.1190      64.8841      99.4431      72.8102       0.1293       9.3516       1.5326
 5523.7380       8.5000       8.3233       0.1188      64.1775      98.4538      79.0463       0.1306       9.0428       1.5341
 5523.8904       8.5000       8.3307       0.1187      63.8426      97.7694      75.9403       0.1283      10.2816       1.5314
 5524.0428       8.5000       8.3372       0.1185      63.7974      97.6536      64.8437       0.1277      10.6653       1.5307
 5524.1952       8.5000       8.3229       0.1184      63.7579      97.8320      55.7415       0.1309      12.1605       1.5344
 5524.3476       8.5000       8.3106       0.1183      64.1557      98.6266      57.3142       0.1332      11.4862       1.5373
 5524.5000       8.5000       8.3105       0.1182      64.5015      99.8262      58.5470       0.1416      11.2064       1.5477
 5524.6524       8.5000       8.3092       0.1182      63.5403     100.3302      52.8939       0.1652      12.0266       1.5790
 5524.8048       8.5000       8.2938       0.1181      62.1085      99.8282      52.1479       0.1842      12.1527       1.6073
 5524.9572       8.5000       8.2925       0.1181      61.3846      99.0061      56.2920       0.1878      12.1564       1.6129
 5525.1096       8.5000       8.2899       0.1181      61.4741      98.3594      57.3290       0.1795      12.5218       1.6000
