~VERSION INFORMATION
VERS.           2.0   :CWLS Log ASCII Standard - VERSION 2.0
WRAP.           NO    :One Line per depth step
PROD.  Schlumberger   :LAS Producer
PROG.  DLIS to ASCII 2.3                               :LAS Program name and version
CREA.        2020/12/07 11:58                          :LAS Creation date {YYYY/MM/DD hh:mm}
DLIS_CREA.  2020-Dec-07 11:16                          :DLIS Creation date and time {YYYY-MMM-DD hh:mm}
SOURCE.     sonicVISION_2.dlis                         :DLIS File Name
FILE-ID.     ToolSpecific_ConPr_R05_Drill_SONICVISION9 :File Identification Number
#--------------------------------------------------
~WELL INFORMATION
#MNEM.UNIT      DATA             DESCRIPTION
#---- ------ --------------   -----------------------------
STRT .M      2896.9716       :START DEPTH     
STOP .M      3794.9124       :STOP DEPTH     
STEP .M         0.1524       :STEP     
NULL .          -999.25      :NULL VALUE
COMP .        BP Development Australia Pty Ltd         :COMPANY
WELL .        Ironbark-1                               :WELL
FLD  .        WA-359-2                                 :FIELD
LOC  .        Northern Carnarvon Basin                 :LOCATION
CNTY .                                                 :COUNTY
STAT .        Western Australia                        :STATE
CTRY .        Australia                                :COUNTRY
API  .                                                 :API NUMBER
UWI  .        20AWA0029                                :UNIQUE WELL ID
DATE .        30-Nov-2020                              :LOG DATE {DD-MMM-YYYY}
SRVC .        Schlumberger                             :SERVICE COMPANY
LATI .DEG     19° 9' 34.079" S                        :LATITUDE
LONG .DEG     116° 4' 35.795" E                       :LONGITUDE
GDAT .                                                 :GeoDetic Datum
#-----------------------------------------------------------------------------
~PARAMETER INFORMATION
#MNEM.UNIT    VALUE                      DESCRIPTION
#---- -----   --------------------       ------------------------
RUN  .          Run5_16.5in              :RUN NUMBER
PDAT .        MSL                        :Permanent Datum
EPD  .C3           0.000000              :Elevation of Permanent Datum above Mean Sea Level
LMF  .          DF                       :Logging Measured From (Name of Logging Elevation Reference)
APD  .M          23.850000               :Elevation of Depth Reference (LMF) above Permanent Datum
#-----------------------------------------------------------------------------
~CURVE INFORMATION
#MNEM.UNIT   API CODE                                  DESCRIPTION
#---- -----  --------                                  -----------------------
DEPT .M                                                :DEPTH (BOREHOLE) {F10.4}
BS   .IN                                               :Bit Size {F13.4}
DEVI .DEG                                              :Hole Deviation {F13.4}
DTCO_MPS.US/F                                          : {F13.4}
DTSH_MPS.US/F                                          :Shear slowness {F13.4}
GR_ARC.GAPI                                            :ARC Gamma Ray {F13.4}
PR   .UNITLESS                                         :Possion's Ratio {F13.4}
ROP5 .M/HR                                             :Rate of penetration averaged over the last 5 ft (1.5 m) {F13.4}
VPVS .UNITLESS                                         :VpVs Ratio {F13.4}
#-----------------------------------------------------------------------------
# 
#     DEPT        BS           DEVI       DTCO_MPS     DTSH_MPS      GR_ARC        PR           ROP5         VPVS
#
~A  
# ...
 3313.0236      16.5000       2.7512      88.4260     163.5016     135.9766       0.2933      28.0947       1.8490
 3313.1760      16.5000       2.7524      88.3152     160.9643     128.3285       0.2847      26.6280       1.8226
 3313.3284      16.5000       2.7538      88.7721     160.7290     123.9767       0.2805      24.7789       1.8106
 3313.4808      16.5000       2.7550      89.7524     162.4434     129.3034       0.2803      23.5500       1.8099
 3313.6332      16.5000       2.7564      90.2212     163.0658     133.7038       0.2794      23.7024       1.8074
 3313.7856      16.5000       2.7579      89.0213     159.4035     132.0686       0.2734      25.5824       1.7906
 3313.9380      16.5000       2.7593      86.3443     152.0442     126.4816       0.2620      28.1452       1.7609
 3314.0904      16.5000       2.7606      80.0607     143.7193     119.8316       0.2750      26.4523       1.7951
 3314.2428      16.5000       2.7619      70.9790     139.0470     114.6180       0.3238      24.2966       1.9590
 3314.3952      16.5000       2.7628      66.9638     137.8675     116.6542       0.3456      19.0538       2.0588
 3314.5476      16.5000       2.7646      67.0333     137.5965     117.6431       0.3444      17.9598       2.0527
 3314.7000      16.5000       2.7659      69.5861     137.0939     107.1391       0.3265      16.9306       1.9701
 3314.8524      16.5000       2.7671      72.8296     138.2251     101.0684       0.3078      16.3893       1.8979
 3315.0048      16.5000       2.7685      75.8550     141.3806     107.3989       0.2979      16.5916       1.8638
 3315.1572      16.5000       2.7698      78.7197     147.5039     119.1863       0.3009      15.5126       1.8738
 3315.3096      16.5000       2.7712      80.9400     152.7032     134.2315       0.3046      13.8239       1.8866
 3315.4620      16.5000       2.7724      82.5504     156.9129     143.7752       0.3087      13.0975       1.9008
 3315.6144      16.5000       2.7739      82.8188     158.0267     143.7910       0.3107      13.4720       1.9081
 3315.7668      16.5000       2.7752      80.8897     158.1517     143.3235       0.3229      14.0597       1.9552
 3315.9192      16.5000       2.7767      79.5661     154.7715     143.3237       0.3204      16.7947       1.9452
 3316.0716      16.5000       2.7780      78.9518     150.5553     135.4916       0.3103      16.7443       1.9069
 3316.2240      16.5000       2.7791      78.4318     147.7610     130.0588       0.3039      17.0417       1.8839
 3316.3764      16.5000       2.7806      78.7834     145.4053     132.4786       0.2922      17.5428       1.8456
 3316.5288      16.5000       2.7819      79.2818     144.0055     127.6595       0.2825      18.6273       1.8164
 3316.6812      16.5000       2.7832      79.7882     144.5048     121.2806       0.2807      20.1541       1.8111
 3316.8336      16.5000       2.7845      80.4401     146.7043     125.4482       0.2851      22.6397       1.8238
 3316.9860      16.5000       2.7860      81.4958     148.8990     130.6568       0.2862      24.9607       1.8271
 3317.1384      16.5000       2.7872      82.2205     148.6241     129.8622       0.2795      22.9576       1.8076
 3317.2908      16.5000       2.7885      81.9601     146.8785     126.4088       0.2739      21.2950       1.7921
 3317.4432      16.5000       2.7899      81.9971     145.5475     120.4102       0.2675      20.3242       1.7750
 3317.5956      16.5000       2.7913      82.6353     145.6469     114.3691       0.2626      20.4880       1.7625
 3317.7480      16.5000       2.7927      83.1250     146.8706     110.9107       0.2644      23.0989       1.7669
 3317.9004      16.5000       2.7941      83.6252     148.8081     112.8581       0.2692      22.6726       1.7795
 3318.0528      16.5000       2.7953      84.2230     150.2340     119.8219       0.2708      19.8629       1.7838
 3318.2052      16.5000       2.7966      84.4131     151.1792     129.9492       0.2735      18.5813       1.7909
 3318.3576      16.5000       2.7981      83.7359     151.7281     140.2321       0.2810      17.7468       1.8120
 3318.5100      16.5000       2.7992      82.9145     152.6502     143.6597       0.2907      16.1443       1.8411
 3318.6624      16.5000       2.8006      82.6832     155.6295     144.8074       0.3034      16.7106       1.8822
 3318.8148      16.5000       2.8019      83.3098     159.2494     143.9181       0.3116      17.4922       1.9115
 3318.9672      16.5000       2.8034      84.0703     162.5073     136.2165       0.3173      18.6291       1.9330
 3319.1196      16.5000       2.8048      84.7933     165.0052     128.6058       0.3206      19.0056       1.9460
 3319.2720      16.5000       2.8061      85.8315     167.1782     132.4025       0.3210      18.3381       1.9477
 3319.4244      16.5000       2.8074      86.6430     167.7495     141.4178       0.3181      19.1597       1.9361
 3319.5768      16.5000       2.8088      87.5636     167.2929     140.0651       0.3113      21.6133       1.9105
 3319.7292      16.5000       2.8100      87.7549     165.2753     135.3489       0.3037      22.8812       1.8834
 3319.8816      16.5000       2.8115      86.8586     164.5233     137.5576       0.3068      24.8893       1.8942
 3320.0340      16.5000       2.8128      85.6416     164.7322     140.4664       0.3148      27.4746       1.9235
 3320.1864      16.5000       2.8140      84.5792     164.5500     137.5201       0.3205      26.5284       1.9455
 3320.3388      16.5000       2.8155      84.0164     163.9227     132.6840       0.3219      26.5625       1.9511
 3320.4912      16.5000       2.8168      84.1147     164.4251     126.3343       0.3228      25.2549       1.9548
 3320.6436      16.5000       2.8184      84.5669     164.5282     122.2482       0.3205      25.4832       1.9455
 3320.7960      16.5000       2.8193      85.3789     163.5748     127.8928       0.3128      22.5178       1.9159
 3320.9484      16.5000       2.8208      85.8433     161.8393     137.6914       0.3043      21.2881       1.8853
 3321.1008      16.5000       2.8223      85.4209     159.6773     141.6022       0.2995      21.3544       1.8693
 3321.2532      16.5000       2.8236      84.3132     153.6819     133.8618       0.2847      21.1878       1.8228
 3321.4056      16.5000       2.8250      82.9779     148.9365     126.5418       0.2749      21.2719       1.7949
 3321.5580      16.5000       2.8263      80.7726     146.8775     132.4487       0.2832      21.5831       1.8184
 3321.7104      16.5000       2.8276      77.3209     144.2301     140.8114       0.2983      21.7747       1.8653
 3321.8628      16.5000       2.8290      73.2088     141.4607     136.5817       0.3171      21.0745       1.9323
 3322.0152      16.5000       2.8302      71.0548     141.6291     120.5433       0.3318      21.2200       1.9932
 3322.1676      16.5000       2.8317      72.7804     143.8641     101.0619       0.3280      20.6803       1.9767
 3322.3200      16.5000       2.8332      76.6601     147.4842      91.3320       0.3149      20.6519       1.9239
 3322.4724      16.5000       2.8343      78.9165     150.3400      97.3879       0.3098      17.3304       1.9051
 3322.6248      16.5000       2.8358      80.0133     154.1766     110.7412       0.3157      16.4792       1.9269
 3322.7772      16.5000       2.8371      81.4261     158.8888     124.4049       0.3219      15.7994       1.9513
 3322.9296      16.5000       2.8385      83.0257     162.0053     128.4597       0.3219      15.4902       1.9513
 3323.0820      16.5000       2.8397      84.4329     164.7419     128.3395       0.3219      14.6770       1.9512
 3323.2344      16.5000       2.8412      85.0963     166.6088     135.5203       0.3235      14.0237       1.9579
 3323.3868      16.5000       2.8424      85.4598     168.0246     138.6215       0.3255      13.5554       1.9661
 3323.5392      16.5000       2.8439      86.0797     168.7650     134.4067       0.3242      13.6855       1.9606
