~VERSION INFORMATION
VERS.           2.0   :CWLS Log ASCII Standard - VERSION 2.0
WRAP.           NO    :One Line per depth step
PROD.  Schlumberger   :LAS Producer
PROG.  DLIS to ASCII 2.3                               :LAS Program name and version
CREA.        2020/12/24 10:22                          :LAS Creation date {YYYY/MM/DD hh:mm}
DLIS_CREA.  2020-Dec-24 10:21                          :DLIS Creation date and time {YYYY-MMM-DD hh:mm}
SOURCE.     PNS_Processed.dlis                         :DLIS File Name
FILE-ID.     ToolSpecific_ConPr_R07_Drill_SONICVISION8 :File Identification Number
#--------------------------------------------------
~WELL INFORMATION
#MNEM.UNIT      DATA             DESCRIPTION
#---- ------ --------------   -----------------------------
STRT .M      4299.9660       :START DEPTH     
STOP .M      5201.7168       :STOP DEPTH     
STEP .M         0.1524       :STEP     
NULL .          -999.25      :NULL VALUE
COMP .        BP Development Australia Pty Ltd         :COMPANY
WELL .        Ironbark-1                               :WELL
FLD  .        Ironbark                                 :FIELD
LOC  .        WA-359-P                                 :LOCATION
CNTY .                                                 :COUNTY
STAT .        Western Australia                        :STATE
CTRY .        Australia                                :COUNTRY
API  .                                                 :API NUMBER
UWI  .        20AWA0029                                :UNIQUE WELL ID
DATE .        30-Oct-2020                              :LOG DATE {DD-MMM-YYYY}
SRVC .        Schlumberger                             :SERVICE COMPANY
LATI .DEG     19° 9' 34.079" S                        :LATITUDE
LONG .DEG     116° 4' 35.795" E                       :LONGITUDE
GDAT .                                                 :GeoDetic Datum
#-----------------------------------------------------------------------------
~PARAMETER INFORMATION
#MNEM.UNIT    VALUE                      DESCRIPTION
#---- -----   --------------------       ------------------------
RUN  .          7                        :RUN NUMBER
PDAT .        MSL                        :Permanent Datum
EPD  .M           0.000000               :Elevation of Permanent Datum above Mean Sea Level
LMF  .          DF                       :Logging Measured From (Name of Logging Elevation Reference)
APD  .M          23.850000               :Elevation of Depth Reference (LMF) above Permanent Datum
#-----------------------------------------------------------------------------
~CURVE INFORMATION
#MNEM.UNIT   API CODE                                  DESCRIPTION
#---- -----  --------                                  -----------------------
MD   .M                                                :DEPTH (BOREHOLE) {F10.4}
BS   .IN                                               :Bit Size {F13.4}
DCAV .IN                                               :Density Caliper, Average - filtered if Orion compressed {F13.4}
DEVI .DEG                                              :Hole Deviation {F13.4}
DTCO_MPS.US/F                                          :Compressional slowness {F13.4}
DTSH_MPS.US/F                                          :Shear slowness {F13.4}
GR_ARC.GAPI                                            :ARC Gamma Ray {F13.4}
PR   .UNITLESS                                         :Possion's Ratio {F13.4}
ROP5 .M/HR                                             :Rate of penetration averaged over the last 5 ft (1.5 m) {F13.4}
VPVS .UNITLESS                                         :VpVs Ratio {F13.4}
#-----------------------------------------------------------------------------
# 
#      MD         BS           DCAV         DEVI       DTCO_MPS     DTSH_MPS      GR_ARC        PR           ROP5         VPVS
#
~A  
# ...
 5058.4608      12.2500      12.4699       1.0091      71.4831     134.4803     146.6944       0.3029       9.9357       1.8818
 5058.6132      12.2500      12.5700       1.0020      73.7361     135.0714     148.9873       0.2877       9.4054       1.8319
 5058.7656      12.2500      12.5255       0.9924      73.8211     134.7318     153.2034       0.2855       9.2228       1.8253
 5058.9180      12.2500      12.4810       0.9887      71.5309     132.1298     152.8332       0.2927       7.8195       1.8473
 5059.0704      12.2500      12.4366       0.9785      71.1390     130.3648     139.6974       0.2879       8.0801       1.8326
 5059.2228      12.2500      12.3365       0.9750      67.4025     126.1829     124.2431       0.3002       5.4831       1.8731
 5059.3752      12.2500      12.3809       0.9661      65.2832     125.1642     125.3606       0.3131       6.2109       1.9174
 5059.5276      12.2500      12.4255       0.9611      69.0687     132.0341     143.3249       0.3117       4.9925       1.9119
 5059.6800      12.2500      12.4699       0.9523      73.0421     138.9723     161.5547       0.3091       5.2137       1.9028
 5059.8324      12.2500      12.4921       0.9447      73.7144     140.0468     171.9085       0.3083       5.6007       1.8999
 5059.9848      12.2500      12.5144       0.9395      74.1279     142.8744     177.6593       0.3157       5.4393       1.9274
 5060.1372      12.2500      12.5366       0.9328      74.0657     142.3785     173.8848       0.3143       5.6862       1.9224
 5060.2896      12.2500      12.5366       0.9238      73.5316     139.9076     156.4093       0.3092       5.7665       1.9027
 5060.4420      12.2500      12.6700       0.9189      71.7679     136.6534     140.8139       0.3096       6.0800       1.9041
 5060.5944      12.2500      12.6033       0.9108      70.1820     134.6874     140.2566       0.3136       5.7624       1.9193
 5060.7468      12.2500      12.5145       0.9033      70.3965     133.6672     145.6829       0.3077       8.9452       1.8992
 5060.8992      12.2500      12.4253       0.8954      70.6923     130.4489     149.4065       0.2920       9.2526       1.8453
 5061.0516      12.2500      12.3365       0.8872      68.7643     127.0363     146.9532       0.2925      12.9137       1.8472
 5061.2040      12.2500      12.5366       0.8802      65.7686     118.1456     137.0120       0.2750      11.8165       1.7961
 5061.3564      12.2500      12.4699       0.8762      65.4348     113.9098     127.1826       0.2527       8.4851       1.7406
 5061.5088      12.2500      12.4032       0.8681      64.9335     112.0675     120.0404       0.2464       7.9707       1.7258
 5061.6612      12.2500      12.4699       0.8619      66.5652     118.7366     121.7039       0.2706       5.3706       1.7837
 5061.8136      12.2500      12.5366       0.8527      68.9330     124.4743     133.7286       0.2785       5.0534       1.8056
 5061.9660      12.2500      12.6033       0.8460      69.9970     129.9650     144.4919       0.2955       5.0175       1.8568
 5062.1184      12.2500      12.6033       0.8380      71.8822     134.0133     146.7521       0.2978       5.1716       1.8645
 5062.2708      12.2500      12.6033       0.8351      72.0490     138.9986     141.1675       0.3161       4.9042       1.9294
 5062.4232      12.2500      12.5144       0.8252      73.6438     139.9951     128.1028       0.3085       5.0419       1.9014
 5062.5756      12.2500      12.4254       0.8183      78.9875     139.2821     116.2141       0.2579       4.9432       1.7714
 5062.7280      12.2500      12.3365       0.8117      88.0901     139.3238     115.1494       0.1657       4.2222       1.5829
 5062.8804      12.2500      12.4366       0.8053      90.8840     141.9387     119.8428       0.1504       4.5739       1.5620
 5063.0328      12.2500      13.2036       0.7971      88.8178     150.9504     123.5760       0.2320       5.0095       1.7009
 5063.1852      12.2500      12.6033       0.7901      84.2008     146.9305     124.2861       0.2552       7.2561       1.7446
 5063.3376      12.2500      12.6700       0.7856      73.9613     129.3041     120.7584       0.2569       7.0289       1.7491
 5063.4900      12.2500      12.5809       0.7752      68.8784     123.0895     112.8222       0.2719       7.6369       1.7872
 5063.6424      12.2500      12.4920       0.7686      67.5623     119.6356     105.8312       0.2655       7.5091       1.7708
 5063.7948      12.2500      12.4032       0.7643      66.8840     120.9909     108.7373       0.2798       7.3330       1.8090
 5063.9472      12.2500      12.4699       0.7552      67.1490     122.9704     119.4546       0.2873       6.8276       1.8313
 5064.0996      12.2500      12.5700       0.7483      67.8573     127.0162     126.2046       0.3002       6.8100       1.8718
 5064.2520      12.2500      12.6700       0.7413      69.4827     130.7543     129.4683       0.3032       8.9690       1.8818
 5064.4044      12.2500      12.1364       0.7326      71.0410     134.3887     136.9049       0.3061       9.6355       1.8917
 5064.5568      12.2500      12.3699       0.7260      72.2991     136.8362     143.9438       0.3064       8.9629       1.8927
 5064.7092      12.2500      12.6033       0.7200      73.1173     136.6653     149.8021       0.2993       8.6921       1.8692
 5064.8616      12.2500      12.7147       0.7137      73.1906     132.1962     159.5887       0.2782       9.3055       1.8060
 5065.0140      12.2500      12.8258       0.7046      70.6847     124.2315     164.0451       0.2604       9.1885       1.7574
 5065.1664      12.2500      12.9368       0.6981      67.0202     119.4801     156.7043       0.2699       9.1310       1.7846
 5065.3188      12.2500      12.8368       0.6919      61.9476     114.8379     144.7806       0.2946       9.1224       1.8543
 5065.4712      12.2500      12.7367       0.6848      63.3025     114.5063     136.4638       0.2796       8.9417       1.8093
 5065.6236      12.2500      12.4032       0.6779      66.1960     118.0820     130.4187       0.2708       8.4286       1.7841
 5065.7760      12.2500      12.5144       0.6697      68.4489     119.8232     124.7328       0.2574       7.1541       1.7509
 5065.9284      12.2500      12.6255       0.6648      68.9994     116.0011     129.0387       0.2255       5.0275       1.6810
 5066.0808      12.2500      12.7367       0.6552      67.2452     110.2609     139.6217       0.2037       4.8215       1.6396
 5066.2332      12.2500      12.6699       0.6505      65.2918     106.7664     139.0187       0.2007       4.8712       1.6355
 5066.3856      12.2500      12.6032       0.6408      63.6236     111.0195     124.0557       0.2533       5.0899       1.7452
 5066.5380      12.2500      12.5366       0.6352      63.5776     113.8665     107.1408       0.2735       4.3438       1.7911
 5066.6904      12.2500      12.5033       0.6284      66.2746     116.0236      95.9725       0.2577       3.7085       1.7513
 5066.8428      12.2500      12.4699       0.6223      68.3578     119.8957      92.6579       0.2590       3.4033       1.7539
 5066.9952      12.2500      12.3699       0.6141      69.7985     123.4310     107.9390       0.2649       3.0420       1.7684
 5067.1476      12.2500      12.2698       0.6088      72.4040     130.4145     134.3832       0.2764       2.5181       1.8007
 5067.3000      12.2500      12.3697       0.6009      73.4832     137.5159     148.6708       0.3000       2.5502       1.8714
 5067.4524      12.2500      12.4699       0.5922      73.0644     138.8147     150.1807       0.3084       2.9477       1.8999
 5067.6048      12.2500      12.4366       0.5876      73.5974     138.9197     150.8285       0.3049       2.8208       1.8876
 5067.7572      12.2500      12.4032       0.5811      73.9324     137.8610     154.6878       0.2981       2.7925       1.8647
 5067.9096      12.2500      12.2698       0.5720      74.8759     138.0677     158.2157       0.2915       2.7866       1.8446
