~VERSION INFORMATION
VERS.           2.0   :CWLS Log ASCII Standard - VERSION 2.0
WRAP.           NO    :One Line per depth step
PROD.  Schlumberger   :LAS Producer
PROG.  DLIS to ASCII 2.3                               :LAS Program name and version
CREA.        2020/12/24 10:22                          :LAS Creation date {YYYY/MM/DD hh:mm}
DLIS_CREA.  2020-Dec-24 10:21                          :DLIS Creation date and time {YYYY-MMM-DD hh:mm}
SOURCE.     PNS_Processed.dlis                         :DLIS File Name
FILE-ID.     ToolSpecific_ConPr_R07_Drill_SONICVISION8 :File Identification Number
#--------------------------------------------------
~WELL INFORMATION
#MNEM.UNIT      DATA             DESCRIPTION
#---- ------ --------------   -----------------------------
STRT .M      4299.9660       :START DEPTH     
STOP .M      5201.7168       :STOP DEPTH     
STEP .M         0.1524       :STEP     
NULL .          -999.25      :NULL VALUE
COMP .        BP Development Australia Pty Ltd         :COMPANY
WELL .        Ironbark-1                               :WELL
FLD  .        Ironbark                                 :FIELD
LOC  .        WA-359-P                                 :LOCATION
CNTY .                                                 :COUNTY
STAT .        Western Australia                        :STATE
CTRY .        Australia                                :COUNTRY
API  .                                                 :API NUMBER
UWI  .        20AWA0029                                :UNIQUE WELL ID
DATE .        30-Oct-2020                              :LOG DATE {DD-MMM-YYYY}
SRVC .        Schlumberger                             :SERVICE COMPANY
LATI .DEG     19° 9' 34.079" S                        :LATITUDE
LONG .DEG     116° 4' 35.795" E                       :LONGITUDE
GDAT .                                                 :GeoDetic Datum
#-----------------------------------------------------------------------------
~PARAMETER INFORMATION
#MNEM.UNIT    VALUE                      DESCRIPTION
#---- -----   --------------------       ------------------------
RUN  .          7                        :RUN NUMBER
PDAT .        MSL                        :Permanent Datum
EPD  .M           0.000000               :Elevation of Permanent Datum above Mean Sea Level
LMF  .          DF                       :Logging Measured From (Name of Logging Elevation Reference)
APD  .M          23.850000               :Elevation of Depth Reference (LMF) above Permanent Datum
#-----------------------------------------------------------------------------
~CURVE INFORMATION
#MNEM.UNIT   API CODE                                  DESCRIPTION
#---- -----  --------                                  -----------------------
MD   .M                                                :DEPTH (BOREHOLE) {F10.4}
BS   .IN                                               :Bit Size {F13.4}
DCAV .IN                                               :Density Caliper, Average - filtered if Orion compressed {F13.4}
DEVI .DEG                                              :Hole Deviation {F13.4}
DTCO_MPS.US/F                                          :Compressional slowness {F13.4}
DTSH_MPS.US/F                                          :Shear slowness {F13.4}
GR_ARC.GAPI                                            :ARC Gamma Ray {F13.4}
PR   .UNITLESS                                         :Possion's Ratio {F13.4}
ROP5 .M/HR                                             :Rate of penetration averaged over the last 5 ft (1.5 m) {F13.4}
VPVS .UNITLESS                                         :VpVs Ratio {F13.4}
#-----------------------------------------------------------------------------
# 
#      MD         BS           DCAV         DEVI       DTCO_MPS     DTSH_MPS      GR_ARC        PR           ROP5         VPVS
#
~A  
# ...
 4472.7876      12.2500      12.2698       0.6008      72.1169     126.4295     114.8475       0.2586      13.2491       1.7532
 4472.9400      12.2500      12.3365       0.5984      72.1661     128.8555      96.0967       0.2711      13.3238       1.7856
 4473.0924      12.2500      12.3532       0.5959      72.9212     129.4528      79.9468       0.2674      13.0327       1.7754
 4473.2448      12.2500      12.3699       0.5933      75.3485     132.2181      69.8763       0.2595      14.0414       1.7549
 4473.3972      12.2500      12.2031       0.5907      78.7701     136.6532      68.1738       0.2512      15.2384       1.7350
 4473.5496      12.2500      12.2031       0.5881      80.6389     138.9357      68.2468       0.2460      15.8870       1.7230
 4473.7020      12.2500      12.2031       0.5856      79.9295     140.0213      65.5430       0.2581      16.0404       1.7521
 4473.8544      12.2500      12.2031       0.5831      78.8334     139.1692      61.3096       0.2636      16.2258       1.7654
 4474.0068      12.2500      12.2698       0.5806      79.2420     136.6141      56.6937       0.2463      19.6459       1.7240
 4474.1592      12.2500      12.2365       0.5782      77.9065     132.7911      50.4476       0.2375      22.0833       1.7045
 4474.3116      12.2500      12.2031       0.5759      76.2875     131.0116      47.0579       0.2434      25.2335       1.7174
 4474.4640      12.2500      12.3365       0.5732      75.9422     131.6293      55.6711       0.2502      28.7490       1.7333
 4474.6164      12.2500      12.4032       0.5710      77.0746     141.9649      81.4339       0.2879      27.2911       1.8415
 4474.7688      12.2500      12.2031       0.5685      79.2656     154.0307     116.9644       0.3197      23.9487       1.9431
 4474.9212      12.2500      12.3032       0.5662      81.3065     158.0283     143.8819       0.3200      21.9247       1.9436
 4475.0736      12.2500      12.4032       0.5637      81.6926     157.9196     150.8255       0.3172      21.3519       1.9332
 4475.2260      12.2500      12.3765       0.5618      80.6650     159.3154     144.6467       0.3276      19.9021       1.9751
 4475.3784      12.2500      12.3499       0.5591      81.2173     160.2898     141.2369       0.3273      20.1341       1.9736
 4475.5308      12.2500      12.3232       0.5569      80.8904     159.2118     144.3918       0.3260      19.9135       1.9683
 4475.6832      12.2500      12.2965       0.5542      78.9989     154.3261     147.0793       0.3223      20.3677       1.9534
 4475.8356      12.2500      12.2698       0.5522      77.3190     148.6497     143.4039       0.3144      19.5948       1.9224
 4475.9880      12.2500      12.2432       0.5496      75.6637     142.5129     136.4695       0.3036      17.4287       1.8834
 4476.1404      12.2500      12.2164       0.5477      74.3666     139.7367     134.2362       0.3024      19.2217       1.8790
 4476.2928      12.2500      12.1897       0.5451      73.1965     136.9775     130.0441       0.3001      21.1833       1.8713
 4476.4452      12.2500      12.1631       0.5429      71.9888     134.1894     119.0736       0.2979      21.7779       1.8640
 4476.5976      12.2500      12.1364       0.5403      71.4126     134.8762     112.3720       0.3050      22.0745       1.8886
 4476.7500      12.2500      12.2031       0.5385      73.6766     140.9680     117.7328       0.3121      20.1525       1.9133
 4476.9024      12.2500      12.1364       0.5362      76.2472     146.0908     132.5406       0.3128      20.2687       1.9161
 4477.0548      12.2500      12.4032       0.5337      74.9803     141.0113     144.7140       0.3025      21.9027       1.8804
 4477.2072      12.2500      12.3199       0.5316      68.3290     130.7452     139.8843       0.3119      20.8647       1.9151
 4477.3596      12.2500      12.2366       0.5301      65.7437     125.4183     114.3109       0.3104      19.7997       1.9078
 4477.5120      12.2500      12.1530       0.5271      63.1701     120.1646      83.1643       0.3090      22.5982       1.9023
 4477.6644      12.2500      12.0697       0.5250      65.0615     121.7377      66.7575       0.3000      22.4916       1.8720
 4477.8168      12.2500      12.1364       0.5229      69.8751     127.0275      70.4449       0.2830      21.5804       1.8183
 4477.9692      12.2500      12.1697       0.5210      74.1872     138.9492      86.6478       0.2992      18.9082       1.8721
 4478.1216      12.2500      12.2198       0.5187      75.9124     146.1017     104.1962       0.3150      17.9285       1.9247
 4478.2740      12.2500      12.2698       0.5165      76.6719     147.0742     118.4250       0.3133      19.7529       1.9183
 4478.4264      12.2500      12.1364       0.5143      76.4852     149.6362     128.5571       0.3231      19.6115       1.9564
 4478.5788      12.2500      12.0697       0.5125      77.3176     151.6732     131.9971       0.3244      17.9617       1.9617
 4478.7312      12.2500      12.2698       0.5104      78.8449     155.7841     131.6660       0.3278      18.1816       1.9758
 4478.8836      12.2500      12.5366       0.5080      80.6351     160.0690     137.0658       0.3300      19.9818       1.9851
 4479.0360      12.2500      12.3365       0.5063      81.7450     161.4019     151.0981       0.3275      19.3964       1.9745
 4479.1884      12.2500      12.3198       0.5040      81.8164     161.7846     164.2169       0.3282      20.2704       1.9774
 4479.3408      12.2500      12.3031       0.5023      81.5771     162.0078     164.7325       0.3302      20.2598       1.9860
 4479.4932      12.2500      12.2364       0.4998      81.9221     162.2349     155.3478       0.3288      24.6066       1.9804
 4479.6456      12.2500      12.1697       0.4985      82.0260     155.1493     148.8058       0.3047      23.4511       1.8914
 4479.7980      12.2500      12.2865       0.4963      80.7365     146.4167     147.6281       0.2813      23.5341       1.8134
 4479.9504      12.2500      12.4032       0.4945      79.1632     141.1312     149.2604       0.2704      22.9895       1.7827
 4480.1028      12.2500      12.2031       0.4924      77.5385     137.8398     149.1124       0.2685      24.3675       1.7778
 4480.2552      12.2500      12.2031       0.4907      74.7701     133.5406     142.7963       0.2717      24.7488       1.7860
 4480.4076      12.2500      12.2031       0.4888      72.3359     128.7058     135.9750       0.2690      24.6880       1.7792
 4480.5600      12.2500      12.3365       0.4868      70.8717     124.5253     129.1998       0.2604      25.8552       1.7571
 4480.7124      12.2500      12.2698       0.4851      68.7553     121.8302     116.5103       0.2663      22.7586       1.7721
 4480.8648      12.2500      12.2031       0.4833      66.6059     120.9109      99.8103       0.2819      23.2757       1.8156
 4481.0172      12.2500      12.1364       0.4815      66.2141     123.4539      86.9016       0.2980      22.2086       1.8646
 4481.1696      12.2500      12.2365       0.4795      65.6914     124.8228      83.4778       0.3083      23.6916       1.9003
 4481.3220      12.2500      12.3365       0.4779      65.1541     126.9269      86.7268       0.3206      23.1695       1.9497
 4481.4744      12.2500      12.4699       0.4761      70.6149     127.1028      89.8590       0.2750      23.3771       1.8032
 4481.6268      12.2500      12.3532       0.4747      74.2765     126.4728      91.1889       0.2361      20.3787       1.7031
 4481.7792      12.2500      12.2365       0.4725      75.4844     122.8225      95.2998       0.1959      20.6973       1.6272
 4481.9316      12.2500      12.2698       0.4710      76.4998     124.8282      99.3205       0.1983      19.4306       1.6315
 4482.0840      12.2500      12.2698       0.4694      77.7833     134.3648      94.3544       0.2455      18.1109       1.7272
 4482.2364      12.2500      12.3587       0.4677      77.4513     149.6791      91.4735       0.3136      18.7265       1.9333
