~VERSION INFORMATION
VERS.           2.0   :CWLS Log ASCII Standard - VERSION 2.0
WRAP.           NO    :One Line per depth step
PROD.  Schlumberger   :LAS Producer
PROG.  DLIS to ASCII 2.3                               :LAS Program name and version
CREA.        2020/12/24 10:22                          :LAS Creation date {YYYY/MM/DD hh:mm}
DLIS_CREA.  2020-Dec-24 10:21                          :DLIS Creation date and time {YYYY-MMM-DD hh:mm}
SOURCE.     PNS_Processed.dlis                         :DLIS File Name
FILE-ID.     ToolSpecific_ConPr_R07_Drill_SONICVISION8 :File Identification Number
#--------------------------------------------------
~WELL INFORMATION
#MNEM.UNIT      DATA             DESCRIPTION
#---- ------ --------------   -----------------------------
STRT .M      4299.9660       :START DEPTH     
STOP .M      5201.7168       :STOP DEPTH     
STEP .M         0.1524       :STEP     
NULL .          -999.25      :NULL VALUE
COMP .        BP Development Australia Pty Ltd         :COMPANY
WELL .        Ironbark-1                               :WELL
FLD  .        Ironbark                                 :FIELD
LOC  .        WA-359-P                                 :LOCATION
CNTY .                                                 :COUNTY
STAT .        Western Australia                        :STATE
CTRY .        Australia                                :COUNTRY
API  .                                                 :API NUMBER
UWI  .        20AWA0029                                :UNIQUE WELL ID
DATE .        30-Oct-2020                              :LOG DATE {DD-MMM-YYYY}
SRVC .        Schlumberger                             :SERVICE COMPANY
LATI .DEG     19° 9' 34.079" S                        :LATITUDE
LONG .DEG     116° 4' 35.795" E                       :LONGITUDE
GDAT .                                                 :GeoDetic Datum
#-----------------------------------------------------------------------------
~PARAMETER INFORMATION
#MNEM.UNIT    VALUE                      DESCRIPTION
#---- -----   --------------------       ------------------------
RUN  .          7                        :RUN NUMBER
PDAT .        MSL                        :Permanent Datum
EPD  .M           0.000000               :Elevation of Permanent Datum above Mean Sea Level
LMF  .          DF                       :Logging Measured From (Name of Logging Elevation Reference)
APD  .M          23.850000               :Elevation of Depth Reference (LMF) above Permanent Datum
#-----------------------------------------------------------------------------
~CURVE INFORMATION
#MNEM.UNIT   API CODE                                  DESCRIPTION
#---- -----  --------                                  -----------------------
MD   .M                                                :DEPTH (BOREHOLE) {F10.4}
BS   .IN                                               :Bit Size {F13.4}
DCAV .IN                                               :Density Caliper, Average - filtered if Orion compressed {F13.4}
DEVI .DEG                                              :Hole Deviation {F13.4}
DTCO_MPS.US/F                                          :Compressional slowness {F13.4}
DTSH_MPS.US/F                                          :Shear slowness {F13.4}
GR_ARC.GAPI                                            :ARC Gamma Ray {F13.4}
PR   .UNITLESS                                         :Possion's Ratio {F13.4}
ROP5 .M/HR                                             :Rate of penetration averaged over the last 5 ft (1.5 m) {F13.4}
VPVS .UNITLESS                                         :VpVs Ratio {F13.4}
#-----------------------------------------------------------------------------
# 
#      MD         BS           DCAV         DEVI       DTCO_MPS     DTSH_MPS      GR_ARC        PR           ROP5         VPVS
#
~A  
# ...
 5116.0680      12.2500      12.3270       0.1937      68.7819     113.3652      41.3787       0.2087      26.2684       1.6482
 5116.2204      12.2500      12.3587       0.1938      69.0136     113.5837      40.0329       0.2074      23.1269       1.6458
 5116.3728      12.2500      12.3476       0.1939      69.6790     115.1305      38.2919       0.2110      30.3060       1.6523
 5116.5252      12.2500      12.3365       0.1939      70.4714     116.7472      36.2005       0.2134      30.4508       1.6567
 5116.6776      12.2500      12.4032       0.1940      71.0044     117.3889      33.1799       0.2115      29.3864       1.6533
 5116.8300      12.2500      12.3365       0.1940      71.3667     118.0442      31.3085       0.2120      26.3914       1.6541
 5116.9824      12.2500      12.2698       0.1941      71.5030     118.3999      30.7296       0.2129      26.6055       1.6559
 5117.1348      12.2500      12.2698       0.1941      71.0120     118.3591      31.4132       0.2188      29.9323       1.6668
 5117.2872      12.2500      12.2698       0.1942      71.0556     118.3319      33.0451       0.2180      27.8405       1.6653
 5117.4396      12.2500      12.3810       0.1943      71.0995     118.0826      34.4526       0.2156      22.6303       1.6608
 5117.5920      12.2500      12.3365       0.1943      70.6995     117.3303      35.3308       0.2150      26.8363       1.6596
 5117.7444      12.2500      12.3810       0.1944      70.3937     117.4572      35.1341       0.2197      31.4678       1.6686
 5117.8968      12.2500      12.2698       0.1944      70.0477     116.4006      34.4117       0.2161      31.4195       1.6617
 5118.0492      12.2500      12.3365       0.1945      69.2486     115.2516      33.2863       0.2175      23.7437       1.6644
 5118.2016      12.2500      12.2698       0.1945      68.1899     114.1368      33.4426       0.2225      19.7254       1.6739
 5118.3540      12.2500      12.4032       0.1946      68.2845     113.8618      35.5468       0.2191      19.8943       1.6675
 5118.5064      12.2500      12.4032       0.1947      67.1733     112.7626      35.4400       0.2249      19.7118       1.6787
 5118.6588      12.2500      12.5366       0.1947      66.5383     111.4676      34.7351       0.2231      19.5507       1.6753
 5118.8112      12.2500      12.2531       0.1948      67.1899     111.0750      40.2987       0.2114      19.6679       1.6532
 5118.9636      12.2500      12.2781       0.1948      67.7070     112.1626      47.1335       0.2133      23.1097       1.6566
 5119.1160      12.2500      12.3031       0.1949      68.7266     113.8040      46.9894       0.2130      20.2145       1.6559
 5119.2684      12.2500      12.5033       0.1949      69.5073     115.6056      44.1323       0.2169      20.1425       1.6632
 5119.4208      12.2500       9.8019       0.1950      70.7491     117.5627      41.4284       0.2161      20.1784       1.6617
 5119.5732      12.2500      11.1226       0.1951      71.2231     118.8691      38.7280       0.2199      25.2622       1.6690
 5119.7256      12.2500      12.4432       0.1951      70.8116     118.9633      37.4579       0.2256      25.7575       1.6800
 5119.8780      12.2500      12.4699       0.1952      70.5363     118.3614      37.0564       0.2246      29.7847       1.6780
 5120.0304      12.2500      12.4032       0.1952      70.5186     117.8120      37.7068       0.2207      26.0531       1.6707
 5120.1828      12.2500      12.3699       0.1953      69.9652     115.0638      39.5463       0.2066      21.9360       1.6445
 5120.3352      12.2500      12.4032       0.1954      68.5981     113.1198      39.3196       0.2091      22.8999       1.6491
 5120.4876      12.2500      12.3810       0.1954      68.6669     113.4014      36.4227       0.2105      19.7321       1.6515
 5120.6400      12.2500      12.3810       0.1955      68.9172     113.7259      35.1837       0.2098      23.7868       1.6502
 5120.7924      12.2500      12.3365       0.1956      69.0568     114.5708      35.0537       0.2147      23.8958       1.6591
 5120.9448      12.2500      12.3460       0.1956      69.5820     115.9915      35.3403       0.2189      19.9832       1.6670
 5121.0972      12.2500      12.1364       0.1957      69.9138     116.4636      38.0273       0.2182      20.0238       1.6659
 5121.2496      12.2500      12.2698       0.1957      69.0844     117.5372      37.7797       0.2359      20.0638       1.7014
 5121.4020      12.2500      12.3532       0.1958      69.4979     119.5946      32.1385       0.2450      19.6010       1.7208
 5121.5544      12.2500      12.3031       0.1958      70.8543     120.7911      29.7496       0.2377      21.7749       1.7049
 5121.7068      12.2500      12.3031       0.1959      72.2679     121.7337      31.9152       0.2279      24.8940       1.6845
 5121.8592      12.2500      12.3270       0.1960      72.4417     121.6384      32.1182       0.2252      20.4770       1.6791
 5122.0116      12.2500      12.3587       0.1960      72.3918     121.1865      29.4158       0.2226      24.5193       1.6740
 5122.1640      12.2500      12.4699       0.1961      72.5300     121.0372      27.7567       0.2198      24.7065       1.6688
 5122.3164      12.2500      12.4616       0.1961      71.7168     120.9266      28.8675       0.2287      20.9139       1.6862
 5122.4688      12.2500      12.3365       0.1962      71.3839     120.5564      30.1564       0.2300      25.1845       1.6888
 5122.6212      12.2500      12.4699       0.1963      70.9183     119.6427      31.0857       0.2292      25.3141       1.6871
 5122.7736      12.2500      12.3143       0.1963      70.2784     120.0190      32.7911       0.2389      31.8177       1.7078
 5122.9260      12.2500      12.3421       0.1964      70.5552     120.8726      34.5840       0.2415      28.9109       1.7133
 5123.0784      12.2500      12.3426       0.1965      71.3762     120.4317      34.8602       0.2293      28.7860       1.6873
 5123.2308      12.2500      12.4699       0.1965      71.2382     119.7904      33.5800       0.2264      28.1143       1.6815
 5123.3832      12.2500      12.3699       0.1966      70.9358     118.9024      33.8227       0.2237      34.7686       1.6762
 5123.5356      12.2500      12.4699       0.1966      69.8469     117.0708      36.6330       0.2236      25.3958       1.6761
 5123.6880      12.2500      12.4832       0.1967      69.1826     114.8115      38.7601       0.2148      21.6126       1.6596
 5123.8404      12.2500      12.3699       0.1968      69.8672     113.6960      39.4203       0.1965      25.5534       1.6274
 5123.9928      12.2500      12.2865       0.1968      69.5435     113.2517      41.0473       0.1973      25.1209       1.6285
 5124.1452      12.2500      12.2031       0.1969      69.6840     113.1684      44.6752       0.1945      24.7681       1.6242
 5124.2976      12.2500      12.3031       0.1969      69.8018     113.5430      48.0844       0.1960      24.0377       1.6268
 5124.4500      12.2500      12.2476       0.1970      69.2327     113.9581      49.2539       0.2075      22.2068       1.6460
 5124.6024      12.2500      12.2031       0.1971      69.2574     113.9716      46.0992       0.2073      22.2857       1.6456
 5124.7548      12.2500      12.3365       0.1971      69.9053     114.5900      38.8991       0.2036      22.8583       1.6392
 5124.9072      12.2500      12.2809       0.1972      70.0683     114.9261      36.1600       0.2042      23.7482       1.6402
 5125.0596      12.2500      12.2253       0.1973      70.3617     115.2435      39.9167       0.2028      31.2704       1.6379
 5125.2120      12.2500      12.2698       0.1973      70.2478     115.3453      40.7458       0.2052      30.2382       1.6420
 5125.3644      12.2500      12.3143       0.1974      70.0569     115.2619      37.1998       0.2071      29.8874       1.6453
 5125.5168      12.2500      12.3365       0.1974      70.3184     115.5075      34.7928       0.2056      30.5164       1.6426
