~VERSION INFORMATION
VERS.           2.0   :CWLS Log ASCII Standard - VERSION 2.0
WRAP.           NO    :One Line per depth step
PROD.  Schlumberger   :LAS Producer
PROG.  DLIS to ASCII 2.3                               :LAS Program name and version
CREA.        2020/12/07 11:58                          :LAS Creation date {YYYY/MM/DD hh:mm}
DLIS_CREA.  2020-Dec-07 11:16                          :DLIS Creation date and time {YYYY-MMM-DD hh:mm}
SOURCE.     sonicVISION_2.dlis                         :DLIS File Name
FILE-ID.     ToolSpecific_ConPr_R05_Drill_SONICVISION9 :File Identification Number
#--------------------------------------------------
~WELL INFORMATION
#MNEM.UNIT      DATA             DESCRIPTION
#---- ------ --------------   -----------------------------
STRT .M      2896.9716       :START DEPTH     
STOP .M      3794.9124       :STOP DEPTH     
STEP .M         0.1524       :STEP     
NULL .          -999.25      :NULL VALUE
COMP .        BP Development Australia Pty Ltd         :COMPANY
WELL .        Ironbark-1                               :WELL
FLD  .        WA-359-2                                 :FIELD
LOC  .        Northern Carnarvon Basin                 :LOCATION
CNTY .                                                 :COUNTY
STAT .        Western Australia                        :STATE
CTRY .        Australia                                :COUNTRY
API  .                                                 :API NUMBER
UWI  .        20AWA0029                                :UNIQUE WELL ID
DATE .        30-Nov-2020                              :LOG DATE {DD-MMM-YYYY}
SRVC .        Schlumberger                             :SERVICE COMPANY
LATI .DEG     19° 9' 34.079" S                        :LATITUDE
LONG .DEG     116° 4' 35.795" E                       :LONGITUDE
GDAT .                                                 :GeoDetic Datum
#-----------------------------------------------------------------------------
~PARAMETER INFORMATION
#MNEM.UNIT    VALUE                      DESCRIPTION
#---- -----   --------------------       ------------------------
RUN  .          Run5_16.5in              :RUN NUMBER
PDAT .        MSL                        :Permanent Datum
EPD  .C3           0.000000              :Elevation of Permanent Datum above Mean Sea Level
LMF  .          DF                       :Logging Measured From (Name of Logging Elevation Reference)
APD  .M          23.850000               :Elevation of Depth Reference (LMF) above Permanent Datum
#-----------------------------------------------------------------------------
~CURVE INFORMATION
#MNEM.UNIT   API CODE                                  DESCRIPTION
#---- -----  --------                                  -----------------------
DEPT .M                                                :DEPTH (BOREHOLE) {F10.4}
BS   .IN                                               :Bit Size {F13.4}
DEVI .DEG                                              :Hole Deviation {F13.4}
DTCO_MPS.US/F                                          : {F13.4}
DTSH_MPS.US/F                                          :Shear slowness {F13.4}
GR_ARC.GAPI                                            :ARC Gamma Ray {F13.4}
PR   .UNITLESS                                         :Possion's Ratio {F13.4}
ROP5 .M/HR                                             :Rate of penetration averaged over the last 5 ft (1.5 m) {F13.4}
VPVS .UNITLESS                                         :VpVs Ratio {F13.4}
#-----------------------------------------------------------------------------
# 
#     DEPT        BS           DEVI       DTCO_MPS     DTSH_MPS      GR_ARC        PR           ROP5         VPVS
#
~A  
# ...
 3483.7116      16.5000       2.7776      85.7157     160.8306     144.0935       0.3016      30.0154       1.8763
 3483.8640      16.5000       2.7776      86.9290     164.9526     143.4814       0.3077      30.4191       1.8976
 3484.0164      16.5000       2.7776      87.4467     167.6780     147.5277       0.3132      30.8628       1.9175
 3484.1688      16.5000       2.7776      87.1904     167.9015     152.7410       0.3154      31.3014       1.9257
 3484.3212      16.5000       2.7776      86.5004     167.4882     154.7557       0.3181      32.0470       1.9363
 3484.4736      16.5000       2.7776      85.4325     165.6187     154.4106       0.3187      32.7560       1.9386
 3484.6260      16.5000       2.7776      84.7117     161.7855     152.2680       0.3111      33.6975       1.9098
 3484.7784      16.5000       2.7776      84.5475     159.8561     146.7975       0.3058      33.4088       1.8907
 3484.9308      16.5000       2.7777      84.7486     161.9671     142.7265       0.3115      33.5944       1.9111
 3485.0832      16.5000       2.7777      85.0861     164.4501     142.2242       0.3172      33.3109       1.9327
 3485.2356      16.5000       2.7777      85.6080     164.1306     142.0022       0.3131      33.0143       1.9172
 3485.3880      16.5000       2.7777      85.9163     161.3801     141.9786       0.3022      32.5041       1.8783
 3485.5404      16.5000       2.7777      85.6503     156.6680     137.0736       0.2869      32.8993       1.8292
 3485.6928      16.5000       2.7777      84.6579     153.0015     131.2874       0.2794      32.8736       1.8073
 3485.8452      16.5000       2.7777      83.6721     152.1142     130.8988       0.2831      32.1267       1.8180
 3485.9976      16.5000       2.7777      82.6368     153.6129     135.3535       0.2964      32.0003       1.8589
 3486.1500      16.5000       2.7778      80.9232     153.0517     141.5929       0.3060      32.3866       1.8913
 3486.3024      16.5000       2.7778      78.7954     148.0694     142.6931       0.3025      32.0128       1.8792
 3486.4548      16.5000       2.7778      77.0806     142.0513     141.6492       0.2913      32.4626       1.8429
 3486.6072      16.5000       2.7778      76.3422     138.7463     135.5807       0.2829      32.8688       1.8174
 3486.7596      16.5000       2.7778      76.7045     138.2951     131.9995       0.2778      33.8846       1.8030
 3486.9120      16.5000       2.7778      76.8391     139.5172     139.8570       0.2823      34.2965       1.8157
 3487.0644      16.5000       2.7778      76.8171     140.3447     137.7023       0.2861      33.4990       1.8270
 3487.2168      16.5000       2.7778      76.0324     138.0987     129.6512       0.2825      26.1170       1.8163
 3487.3692      16.5000       2.7778      75.3683     135.7524     128.3467       0.2772      23.5885       1.8012
 3487.5216      16.5000       2.7779      74.7883     134.7384     122.3052       0.2774      23.0452       1.8016
 3487.6740      16.5000       2.7779      74.5132     135.8118     111.6503       0.2847      20.2281       1.8227
 3487.8264      16.5000       2.7779      74.7318     136.6028     105.8726       0.2864      17.3945       1.8279
 3487.9788      16.5000       2.7779      74.9353     137.6618     106.0822       0.2895      16.9774       1.8371
 3488.1312      16.5000       2.7779      75.1474     139.0046     106.5519       0.2935      14.7373       1.8498
 3488.2836      16.5000       2.7779      74.6573     140.0117     101.9744       0.3014      13.3694       1.8754
 3488.4360      16.5000       2.7779      73.2649     139.9966      98.0847       0.3114      12.3807       1.9108
 3488.5884      16.5000       2.7780      71.7801     139.6524      98.7331       0.3205      12.3701       1.9456
 3488.7408      16.5000       2.7780      72.5557     142.0130     101.1163       0.3234      13.5209       1.9573
 3488.8932      16.5000       2.7780      74.5420     145.9118     106.6588       0.3234      14.0358       1.9574
 3489.0456      16.5000       2.7780      75.7877     149.0284     112.5818       0.3256      13.9597       1.9664
 3489.1980      16.5000       2.7780      77.0557     149.7133     126.4852       0.3198      14.3461       1.9429
 3489.3504      16.5000       2.7780      78.6339     149.7050     144.0441       0.3095      16.0868       1.9038
 3489.5028      16.5000       2.7780      80.2853     149.8104     147.6116       0.2985      15.9153       1.8660
 3489.6552      16.5000       2.7780      81.3523     151.3081     147.9102       0.2967      17.7236       1.8599
 3489.8076      16.5000       2.7781      80.6949     154.6285     148.4868       0.3129      20.1592       1.9162
 3489.9600      16.5000       2.7781      79.0633     157.5226     138.1163       0.3316      22.7638       1.9924
 3490.1124      16.5000       2.7781      75.1083     157.1733     128.2695       0.3520      23.1579       2.0926
 3490.2648      16.5000       2.7781      73.0402     154.1027     131.9935       0.3551      23.3762       2.1098
 3490.4172      16.5000       2.7781      71.6741     152.0746     137.4135       0.3572      24.0647       2.1218
 3490.5696      16.5000       2.7781      72.7105     150.5190     128.9626       0.3478      24.8356       2.0701
 3490.7220      16.5000       2.7781      74.9772     151.0863     118.3919       0.3366      27.6571       2.0151
 3490.8744      16.5000       2.7781      77.1657     154.3987     115.7726       0.3335      27.7365       2.0009
 3491.0268      16.5000       2.7782      77.3561     156.3546     117.0132       0.3379      27.4874       2.0212
 3491.1792      16.5000       2.7782      78.4318     157.3102     119.7690       0.3346      22.5688       2.0057
 3491.3316      16.5000       2.7782      79.1685     157.1350     119.5005       0.3299      20.2288       1.9848
 3491.4840      16.5000       2.7782      79.9350     156.6235     120.9945       0.3239      20.1689       1.9594
 3491.6364      16.5000       2.7782      80.0060     158.5226     121.7852       0.3291      20.0115       1.9814
 3491.7888      16.5000       2.7782      79.6631     158.2536     118.3057       0.3303      20.4421       1.9865
 3491.9412      16.5000       2.7782      79.5063     156.6016     115.4886       0.3264      20.6285       1.9697
 3492.0936      16.5000       2.7782      79.0796     154.9482     111.6379       0.3239      21.1809       1.9594
 3492.2460      16.5000       2.7783      79.2039     155.2405     103.2740       0.3240      21.2145       1.9600
 3492.3984      16.5000       2.7783      80.3509     158.1432      97.7280       0.3260      21.1867       1.9682
 3492.5508      16.5000       2.7783      82.3840     161.1370     103.1865       0.3230      19.1909       1.9559
 3492.7032      16.5000       2.7783      83.9697     162.4488     114.1771       0.3177      22.6280       1.9346
 3492.8556      16.5000       2.7783      85.0822     164.0453     118.6627       0.3160      24.4177       1.9281
 3493.0080      16.5000       2.7783      85.3339     164.1804     112.4844       0.3149      23.5258       1.9240
 3493.1604      16.5000       2.7783      85.4147     164.5708     110.9594       0.3157      23.3302       1.9267
 3493.3128      16.5000       2.7784      85.1053     164.1788     119.3750       0.3163      22.7943       1.9291
 3493.4652      16.5000       2.7784      84.3393     161.7497     120.5073       0.3133      21.7340       1.9178
 3493.6176      16.5000       2.7784      83.4422     159.8133     114.7312       0.3126      21.6151       1.9153
 3493.7700      16.5000       2.7784      83.0994     159.2230     105.5294       0.3128      20.8717       1.9161
 3493.9224      16.5000       2.7784      83.0600     161.1007      94.2620       0.3190      21.3019       1.9396
 3494.0748      16.5000       2.7784      83.6532     163.4913      89.1088       0.3227      24.7533       1.9544
 3494.2272      16.5000       2.7784      83.9013     163.9681      92.3126       0.3226      23.1873       1.9543
