~VERSION INFORMATION
VERS.           2.0   :CWLS Log ASCII Standard - VERSION 2.0
WRAP.           NO    :One Line per depth step
PROD.  Schlumberger   :LAS Producer
PROG.  DLIS to ASCII 2.3                               :LAS Program name and version
CREA.        2021/01/04 14:54                          :LAS Creation date {YYYY/MM/DD hh:mm}
DLIS_CREA.  2021-Jan-04 14:41                          :DLIS Creation date and time {YYYY-MMM-DD hh:mm}
SOURCE.     PnS_Processed.dlis                         :DLIS File Name
FILE-ID.     ConPr_R08_Drill_ARC6_TELE675_SONICVISION6 :File Identification Number
#--------------------------------------------------
~WELL INFORMATION
#MNEM.UNIT      DATA             DESCRIPTION
#---- ------ --------------   -----------------------------
STRT .M      5170.0176       :START DEPTH     
STOP .M      5614.8732       :STOP DEPTH     
STEP .M         0.1524       :STEP     
NULL .          -999.25      :NULL VALUE
COMP .        BP Development Australia Pty Ltd         :COMPANY
WELL .        Ironbark-1                               :WELL
FLD  .        Ironbark                                 :FIELD
LOC  .        WA-359-P                                 :LOCATION
CNTY .                                                 :COUNTY
STAT .        Western Australia                        :STATE
CTRY .        Australia                                :COUNTRY
API  .                                                 :API NUMBER
UWI  .        20AWA0029                                :UNIQUE WELL ID
DATE .        30-Oct-2020                              :LOG DATE {DD-MMM-YYYY}
SRVC .        Schlumberger                             :SERVICE COMPANY
LATI .DEG     19° 9' 34.079" S                        :LATITUDE
LONG .DEG     116° 4' 35.795" E                       :LONGITUDE
GDAT .                                                 :GeoDetic Datum
#-----------------------------------------------------------------------------
~PARAMETER INFORMATION
#MNEM.UNIT    VALUE                      DESCRIPTION
#---- -----   --------------------       ------------------------
RUN  .          Run8_8.5in               :RUN NUMBER
PDAT .        MSL                        :Permanent Datum
EPD  .M           0.000000               :Elevation of Permanent Datum above Mean Sea Level
LMF  .          DF                       :Logging Measured From (Name of Logging Elevation Reference)
APD  .M          23.850000               :Elevation of Depth Reference (LMF) above Permanent Datum
#-----------------------------------------------------------------------------
~CURVE INFORMATION
#MNEM.UNIT   API CODE                                  DESCRIPTION
#---- -----  --------                                  -----------------------
MD   .M                                                :DEPTH (BOREHOLE) {F10.4}
BS   .IN                                               :Bit Size {F13.4}
DCAV .IN                                               :Density Caliper, Average - filtered if Orion compressed {F13.4}
DEVI .DEG                                              :Hole Deviation {F13.4}
DTCO_MPS.US/F                                          :Compressional slowness {F13.4}
DTSH_MPS.US/F                                          :Shear slowness {F13.4}
GR_ARC.GAPI                                            :ARC Gamma Ray {F13.4}
PR   .UNITLESS                                         :Possion's Ratio {F13.4}
ROP5 .M/HR                                             :Rate of penetration averaged over the last 5 ft (1.5 m) {F13.4}
VPVS .UNITLESS                                         :VpVs Ratio {F13.4}
#-----------------------------------------------------------------------------
# 
#      MD         BS           DCAV         DEVI       DTCO_MPS     DTSH_MPS      GR_ARC        PR           ROP5         VPVS
#
~A  
# ...
 5285.2320       8.5000       8.3476       0.2172      66.1613     105.5638      48.9614       0.1765      20.9291       1.5956
 5285.3844       8.5000       8.3417       0.2180      64.9198     104.5278      44.2996       0.1860      21.5330       1.6101
 5285.5368       8.5000       8.3495       0.2186      64.2508     104.8081      49.6559       0.1990      20.3565       1.6312
 5285.6892       8.5000       8.3400       0.2195      64.3080     104.8326      58.2978       0.1983      20.6842       1.6302
 5285.8416       8.5000       8.3350       0.2202      64.7749     104.1356      62.4834       0.1845      22.6329       1.6077
 5285.9940       8.5000       8.3214       0.2212      64.9734     103.6679      63.8590       0.1765      23.6880       1.5955
 5286.1464       8.5000       8.3300       0.2218      64.6011     103.2342      64.4298       0.1782      21.4097       1.5980
 5286.2988       8.5000       8.3278       0.2226      63.1111     101.9396      62.0194       0.1892      21.7877       1.6152
 5286.4512       8.5000       8.3372       0.2233      61.4230      99.8032      58.1207       0.1951      23.1791       1.6248
 5286.6036       8.5000       8.3313       0.2240      59.6044      97.9395      53.8181       0.2059      20.6456       1.6432
 5286.7560       8.5000       8.3375       0.2249      57.9055      96.9778      51.6616       0.2230      22.6116       1.6748
 5286.9084       8.5000       8.3590       0.2257      57.0678      96.6049      57.8295       0.2320      25.6272       1.6928
 5287.0608       8.5000       8.3618       0.2265      58.2514      97.6354      66.6506       0.2237      27.0374       1.6761
 5287.2132       8.5000       8.3482       0.2273      60.0856      99.6254      65.9811       0.2141      26.0816       1.6581
 5287.3656       8.5000       8.3381       0.2280      60.8940     100.6801      55.4123       0.2116      25.9427       1.6534
 5287.5180       8.5000       8.3537       0.2288      61.8635     101.3568      43.3617       0.2031      25.4161       1.6384
 5287.6704       8.5000       8.3493       0.2296      63.2794     101.7226      37.2578       0.1844      27.6522       1.6075
 5287.8228       8.5000       8.3332       0.2304      63.6294     101.8546      37.3737       0.1800      26.8807       1.6007
 5287.9752       8.5000       8.3272       0.2311      63.0839     102.2492      40.5803       0.1927      26.3491       1.6208
 5288.1276       8.5000       8.3478       0.2319      62.2165     102.3113      45.0174       0.2066      27.8402       1.6444
 5288.2800       8.5000       8.3648       0.2328      60.9439     101.7859      51.3876       0.2206      26.5004       1.6702
 5288.4324       8.5000       8.3372       0.2334      59.7632     100.0900      63.1227       0.2230      24.5752       1.6748
 5288.5848       8.5000       8.3108       0.2343      59.6402      97.8369      75.1883       0.2043      25.1420       1.6405
 5288.7372       8.5000       8.3373       0.2351      59.8981      97.2462      79.3195       0.1943      26.0486       1.6235
 5288.8896       8.5000       8.3567       0.2359      60.0454      98.0071      78.4914       0.1995      24.6624       1.6322
 5289.0420       8.5000       8.3515       0.2364      59.8880      98.3612      73.1908       0.2055      23.6897       1.6424
 5289.1944       8.5000       8.3668       0.2369      60.3645      98.8260      62.6119       0.2024      24.6310       1.6372
 5289.3468       8.5000       8.3610       0.2373      62.0703     101.1422      55.0266       0.1979      25.6716       1.6295
 5289.4992       8.5000       8.3229       0.2378      65.2027     107.5957      51.5829       0.2098      26.5501       1.6502
 5289.6516       8.5000       8.3276       0.2382      68.1935     113.1620      47.0680       0.2149      26.9805       1.6594
 5289.8040       8.5000       8.3403       0.2386      68.6513     113.0327      42.4654       0.2078      25.4742       1.6465
 5289.9564       8.5000       8.3592       0.2391      68.5891     111.7779      40.2858       0.1980      26.4305       1.6297
 5290.1088       8.5000       8.3288       0.2397      68.9565     109.8479      39.4774       0.1748      26.2051       1.5930
 5290.2612       8.5000       8.3069       0.2402      68.5340     107.7862      38.6232       0.1607      25.4412       1.5727
 5290.4136       8.5000       8.3095       0.2407      67.7211     107.3132      40.4641       0.1691      27.7537       1.5846
 5290.5660       8.5000       8.2988       0.2412      67.2310     107.1135      45.1696       0.1750      30.0963       1.5932
 5290.7184       8.5000       8.3129       0.2419      67.1888     106.9040      46.9420       0.1735      30.0000       1.5911
 5290.8708       8.5000       8.3148       0.2423      67.0699     106.5551      44.7386       0.1719      25.3093       1.5887
 5291.0232       8.5000       8.3071       0.2429      66.2866     105.7389      41.6800       0.1763      25.8370       1.5952
 5291.1756       8.5000       8.3212       0.2435      65.4186     104.7274      37.3334       0.1801      27.3284       1.6009
 5291.3280       8.5000       8.3382       0.2441      64.3605     104.3683      33.4928       0.1932      28.6634       1.6216
 5291.4804       8.5000       8.4255       0.2447      63.7057     104.5346      35.1895       0.2046      31.6046       1.6409
 5291.6328       8.5000       8.3683       0.2454      64.1196     105.3705      42.8234       0.2060      33.0810       1.6433
 5291.7852       8.5000       8.6980       0.2459      65.1915     106.9642      49.8735       0.2045      29.7417       1.6408
 5291.9376       8.5000       8.7884       0.2467      65.3009     107.4935      49.4584       0.2076      29.7029       1.6461
 5292.0900       8.5000       8.3428       0.2472      64.0568     106.1716      44.0240       0.2138      27.0109       1.6575
 5292.2424       8.5000       8.3303       0.2481      60.9074     103.2179      43.9581       0.2329      26.9532       1.6947
 5292.3948       8.5000       8.3239       0.2486      58.4825      99.8752      52.1907       0.2391      27.3434       1.7078
 5292.5472       8.5000       8.3485       0.2494      57.9085      98.2413      62.1258       0.2338      26.2059       1.6965
 5292.6996       8.5000       8.3062       0.2501      57.7614      98.7426      67.9621       0.2399      24.8705       1.7095
 5292.8520       8.5000       8.2902       0.2508      57.6210      99.1992      62.8474       0.2454      24.4703       1.7216
 5293.0044       8.5000       8.3562       0.2516      58.2269      99.1568      51.2191       0.2368      22.0426       1.7029
 5293.1568       8.5000       8.3413       0.2523      59.2511      98.8912      46.6070       0.2200      20.2792       1.6690
 5293.3092       8.5000       8.3135       0.2531      59.1874      98.6046      49.0178       0.2184      21.7075       1.6660
 5293.4616       8.5000       8.3524       0.2539      57.9021      98.3472      55.1181       0.2347      21.7631       1.6985
 5293.6140       8.5000       8.2930       0.2546      55.7455      98.0576      65.3279       0.2612      22.8478       1.7590
 5293.7664       8.5000       8.3151       0.2556      56.2396      98.2212      71.6832       0.2561      22.5941       1.7465
 5293.9188       8.5000       8.3011       0.2563      57.8409      98.7351      70.7445       0.2388      22.6669       1.7070
 5294.0712       8.5000       8.3462       0.2570      59.0205      99.3458      71.4825       0.2273      22.7930       1.6832
 5294.2236       8.5000       8.3567       0.2579      59.8447     100.2593      75.3736       0.2233      22.0295       1.6753
 5294.3760       8.5000       8.3483       0.2587      60.8920     101.2213      77.5658       0.2164      21.2469       1.6623
 5294.5284       8.5000       8.3597       0.2596      60.3707     101.5566      77.5334       0.2268      22.5344       1.6822
 5294.6808       8.5000       8.3553       0.2604      59.9116     101.0950      76.0589       0.2293      23.7825       1.6874
