~VERSION INFORMATION
VERS.           2.0   :CWLS Log ASCII Standard - VERSION 2.0
WRAP.           NO    :One Line per depth step
PROD.  Schlumberger   :LAS Producer
PROG.  DLIS to ASCII 2.3                               :LAS Program name and version
CREA.        2020/12/24 10:22                          :LAS Creation date {YYYY/MM/DD hh:mm}
DLIS_CREA.  2020-Dec-24 10:21                          :DLIS Creation date and time {YYYY-MMM-DD hh:mm}
SOURCE.     PNS_Processed.dlis                         :DLIS File Name
FILE-ID.     ToolSpecific_ConPr_R07_Drill_SONICVISION8 :File Identification Number
#--------------------------------------------------
~WELL INFORMATION
#MNEM.UNIT      DATA             DESCRIPTION
#---- ------ --------------   -----------------------------
STRT .M      4299.9660       :START DEPTH     
STOP .M      5201.7168       :STOP DEPTH     
STEP .M         0.1524       :STEP     
NULL .          -999.25      :NULL VALUE
COMP .        BP Development Australia Pty Ltd         :COMPANY
WELL .        Ironbark-1                               :WELL
FLD  .        Ironbark                                 :FIELD
LOC  .        WA-359-P                                 :LOCATION
CNTY .                                                 :COUNTY
STAT .        Western Australia                        :STATE
CTRY .        Australia                                :COUNTRY
API  .                                                 :API NUMBER
UWI  .        20AWA0029                                :UNIQUE WELL ID
DATE .        30-Oct-2020                              :LOG DATE {DD-MMM-YYYY}
SRVC .        Schlumberger                             :SERVICE COMPANY
LATI .DEG     19° 9' 34.079" S                        :LATITUDE
LONG .DEG     116° 4' 35.795" E                       :LONGITUDE
GDAT .                                                 :GeoDetic Datum
#-----------------------------------------------------------------------------
~PARAMETER INFORMATION
#MNEM.UNIT    VALUE                      DESCRIPTION
#---- -----   --------------------       ------------------------
RUN  .          7                        :RUN NUMBER
PDAT .        MSL                        :Permanent Datum
EPD  .M           0.000000               :Elevation of Permanent Datum above Mean Sea Level
LMF  .          DF                       :Logging Measured From (Name of Logging Elevation Reference)
APD  .M          23.850000               :Elevation of Depth Reference (LMF) above Permanent Datum
#-----------------------------------------------------------------------------
~CURVE INFORMATION
#MNEM.UNIT   API CODE                                  DESCRIPTION
#---- -----  --------                                  -----------------------
MD   .M                                                :DEPTH (BOREHOLE) {F10.4}
BS   .IN                                               :Bit Size {F13.4}
DCAV .IN                                               :Density Caliper, Average - filtered if Orion compressed {F13.4}
DEVI .DEG                                              :Hole Deviation {F13.4}
DTCO_MPS.US/F                                          :Compressional slowness {F13.4}
DTSH_MPS.US/F                                          :Shear slowness {F13.4}
GR_ARC.GAPI                                            :ARC Gamma Ray {F13.4}
PR   .UNITLESS                                         :Possion's Ratio {F13.4}
ROP5 .M/HR                                             :Rate of penetration averaged over the last 5 ft (1.5 m) {F13.4}
VPVS .UNITLESS                                         :VpVs Ratio {F13.4}
#-----------------------------------------------------------------------------
# 
#      MD         BS           DCAV         DEVI       DTCO_MPS     DTSH_MPS      GR_ARC        PR           ROP5         VPVS
#
~A  
# ...
 4357.5732      16.5000      13.4037       2.3785      72.0784     113.7623      84.5834       0.1641      27.0698       1.5785
 4357.7256      16.5000      13.4704       2.3765      71.5661     113.7869      83.8105       0.1715      36.9333       1.5905
 4357.8780      16.5000      13.3370       2.3747      70.3844     115.2472      78.9701       0.2024      39.0743       1.6375
 4358.0304      16.5000      13.5371       2.3726      70.0953     115.8914      76.3881       0.2113      37.8425       1.6535
 4358.1828      16.5000      13.6038       2.3707      69.8144     116.0267      78.7118       0.2161      36.4833       1.6619
 4358.3352      16.5000      13.4704       2.3687      70.5791     117.0825      83.5662       0.2145      35.6071       1.6590
 4358.4876      16.5000      13.4037       2.3667      71.7686     118.4821      87.3998       0.2101      41.6542       1.6509
 4358.6400      16.5000      13.5037       2.3647      71.6343     119.5343      86.9511       0.2197      46.7149       1.6688
 4358.7924      16.5000      13.6038       2.3631      69.5900     118.0751      81.8591       0.2337      34.1160       1.6973
 4358.9448      16.5000      13.6038       2.3609      66.1392     115.9106      77.9876       0.2581      34.6136       1.7532
 4359.0972      16.5000      13.4704       2.3589      64.1467     119.4261      79.3489       0.2962      35.9335       1.8625
 4359.2496      16.5000      13.5371       2.3569      65.4987     126.6021      88.5144       0.3168      36.4713       1.9327
 4359.4020      16.5000      13.6037       2.3550      68.0846     136.7774     112.0552       0.3346      36.9171       2.0085
 4359.5544      16.5000      13.6704       2.3530      68.1493     151.5852     141.9067       0.3706      37.7046       2.2261
 4359.7068      16.5000      13.7372       2.3510      66.2465     168.2744     156.4356       0.4074      38.4963       2.5409
 4359.8592      16.5000      13.9706       2.3490      67.4048     174.6482     157.6434       0.4125      39.5154       2.5913
 4360.0116      16.5000      13.7539       2.3471      69.2536     174.2689     157.4896       0.4062      41.1638       2.5169
 4360.1640      16.5000      13.5371       2.3452      71.4728     173.2791     157.1099       0.3974      43.2557       2.4250
 4360.3164      16.5000      13.5371       2.3431      73.1933     169.4998     152.9313       0.3852      80.8810       2.3162
 4360.4688      16.5000      13.5371       2.3412      73.6640     162.6680     145.0714       0.3708      88.6410       2.2082
 4360.6212      16.5000      13.6038       2.3392      71.8881     153.3143     142.5000       0.3587      89.8006       2.1329
 4360.7736      16.5000      13.2369       2.3374      72.1045     149.9663     145.1906       0.3495      92.8239       2.0800
 4360.9260      16.5000      13.7372       2.3353      73.5356     155.8238     144.3737       0.3564     101.1042       2.1190
 4361.0784      16.5000      13.7372       2.3332      75.7613     152.7997     143.2367       0.3363     102.7795       2.0179
 4361.2308      16.5000      13.7372       2.3313      78.0080     154.8604     144.2167       0.3296      96.3055       1.9850
 4361.3832      16.5000      13.7372       2.3295      79.5157     158.9212     142.8327       0.3328      84.1280       1.9989
 4361.5356      16.5000      13.6371       2.3273      81.9041     154.1895     145.4947       0.3023      83.7256       1.8839
 4361.6880      16.5000      13.8039       2.3257      81.6072     151.7839     152.8699       0.2964      76.5026       1.8606
 4361.8404      16.5000      13.5371       2.3234      77.0283     150.5695     153.8797       0.3223      65.6458       1.9566
 4361.9928      16.5000      13.5704       2.3216      76.1973     155.2782     153.6179       0.3411      64.1841       2.0387
 4362.1452      16.5000      13.6038       2.3196      90.6836     177.7728     154.5780       0.3236      62.4061       1.9671
 4362.2976      16.5000      13.8039       2.3176     101.4067     190.5615     145.5130       0.3023      59.6993       1.8801
 4362.4500      16.5000      13.4704       2.3157      99.8423     183.8349     133.5603       0.2906      24.1481       1.8409
 4362.6024      16.5000      13.1702       2.3139      92.7297     166.9288     130.7861       0.2762      10.7715       1.7998
 4362.7548      16.5000      12.8701       2.3115      81.8428     151.1927     142.6195       0.2926       9.4761       1.8498
 4362.9072      12.2500      12.5700       2.3098      77.5842     150.0059     113.0903       0.3169       8.0804       1.9345
 4363.0596      12.2500      12.6700       2.3082      76.2538     149.5434     126.3769       0.3243       6.4629       1.9613
 4363.2120      12.2500      12.6367       2.3055      77.5649     150.9606     133.1329       0.3206       5.9394       1.9463
 4363.3644      12.2500      12.6033       2.3039      78.4016     150.9858     141.5390       0.3154       4.7389       1.9259
 4363.5168      12.2500      12.6700       2.3021      77.5022     148.6516     148.5630       0.3133       3.9460       1.9181
 4363.6692      12.2500      12.6366       2.2998      77.6455     148.2257     151.1467       0.3109       3.7131       1.9091
 4363.8216      12.2500      12.6700       2.2977      78.3060     147.8645     154.1321       0.3050       3.4449       1.8883
 4363.9740      12.2500      12.7034       2.2958      78.1952     144.3325     157.4285       0.2921       3.6177       1.8458
 4364.1264      12.2500      12.6033       2.2946      78.0391     143.9401     159.6164       0.2918       3.9053       1.8445
 4364.2788      12.2500      12.8034       2.2924      78.1321     142.2287     157.8443       0.2838       3.8402       1.8203
 4364.4312      12.2500      12.8034       2.2902      75.9407     137.8675     151.3026       0.2822       4.0305       1.8159
 4364.5836      12.2500      12.8034       2.2882      72.3802     132.5604     144.3063       0.2871       4.2966       1.8317
 4364.7360      12.2500      12.8034       2.2863      71.3601     127.8515     132.3723       0.2733       4.2999       1.7924
 4364.8884      12.2500      12.4699       2.2844      68.9502     131.3076     118.2623       0.3087       4.6459       1.9046
 4365.0408      12.2500      12.3031       2.2826      72.9191     140.6313     118.5233       0.3162       5.1521       1.9291
 4365.1932      12.2500      12.3865       2.2803      76.9600     146.9265     134.0784       0.3110       5.5453       1.9093
 4365.3456      12.2500      12.4699       2.2786      79.7395     150.3579     151.7476       0.3043       5.8369       1.8859
 4365.4980      12.2500      12.4866       2.2765      80.6790     149.1061     163.3181       0.2930       5.5872       1.8482
 4365.6504      12.2500      12.5033       2.2748      78.8811     146.4459     167.1763       0.2956       5.6847       1.8566
 4365.8028      12.2500      12.6700       2.2732      76.3373     141.2792     165.3726       0.2938       5.7222       1.8507
 4365.9552      12.2500      12.4699       2.2709      73.9948     137.8687     153.9950       0.2977       5.1884       1.8633
 4366.1076      12.2500      12.4366       2.2687      73.3523     135.5674     139.7847       0.2929       4.5493       1.8482
 4366.2600      12.2500      12.3866       2.2665      74.0611     136.2759     141.1365       0.2903       4.2592       1.8400
 4366.4124      12.2500      12.3365       2.2650      76.0339     140.5847     153.5245       0.2933       4.2920       1.8490
 4366.5648      12.2500      12.4699       2.2635      76.6233     141.4720     157.0251       0.2924       4.4161       1.8463
 4366.7172      12.2500      12.4699       2.2607      73.3854     133.0620     144.8144       0.2809       4.4456       1.8127
 4366.8696      12.2500      12.6033       2.2587      70.1254     123.8181     131.3297       0.2637       4.2982       1.7654
 4367.0220      12.2500      12.5700       2.2570      67.8101     118.7669     123.5166       0.2581       4.1773       1.7514
