~VERSION INFORMATION
VERS.           2.0   :CWLS Log ASCII Standard - VERSION 2.0
WRAP.           NO    :One Line per depth step
PROD.  Schlumberger   :LAS Producer
PROG.  DLIS to ASCII 2.3                               :LAS Program name and version
CREA.        2021/01/04 14:54                          :LAS Creation date {YYYY/MM/DD hh:mm}
DLIS_CREA.  2021-Jan-04 14:41                          :DLIS Creation date and time {YYYY-MMM-DD hh:mm}
SOURCE.     PnS_Processed.dlis                         :DLIS File Name
FILE-ID.     ConPr_R08_Drill_ARC6_TELE675_SONICVISION6 :File Identification Number
#--------------------------------------------------
~WELL INFORMATION
#MNEM.UNIT      DATA             DESCRIPTION
#---- ------ --------------   -----------------------------
STRT .M      5170.0176       :START DEPTH     
STOP .M      5614.8732       :STOP DEPTH     
STEP .M         0.1524       :STEP     
NULL .          -999.25      :NULL VALUE
COMP .        BP Development Australia Pty Ltd         :COMPANY
WELL .        Ironbark-1                               :WELL
FLD  .        Ironbark                                 :FIELD
LOC  .        WA-359-P                                 :LOCATION
CNTY .                                                 :COUNTY
STAT .        Western Australia                        :STATE
CTRY .        Australia                                :COUNTRY
API  .                                                 :API NUMBER
UWI  .        20AWA0029                                :UNIQUE WELL ID
DATE .        30-Oct-2020                              :LOG DATE {DD-MMM-YYYY}
SRVC .        Schlumberger                             :SERVICE COMPANY
LATI .DEG     19° 9' 34.079" S                        :LATITUDE
LONG .DEG     116° 4' 35.795" E                       :LONGITUDE
GDAT .                                                 :GeoDetic Datum
#-----------------------------------------------------------------------------
~PARAMETER INFORMATION
#MNEM.UNIT    VALUE                      DESCRIPTION
#---- -----   --------------------       ------------------------
RUN  .          Run8_8.5in               :RUN NUMBER
PDAT .        MSL                        :Permanent Datum
EPD  .M           0.000000               :Elevation of Permanent Datum above Mean Sea Level
LMF  .          DF                       :Logging Measured From (Name of Logging Elevation Reference)
APD  .M          23.850000               :Elevation of Depth Reference (LMF) above Permanent Datum
#-----------------------------------------------------------------------------
~CURVE INFORMATION
#MNEM.UNIT   API CODE                                  DESCRIPTION
#---- -----  --------                                  -----------------------
MD   .M                                                :DEPTH (BOREHOLE) {F10.4}
BS   .IN                                               :Bit Size {F13.4}
DCAV .IN                                               :Density Caliper, Average - filtered if Orion compressed {F13.4}
DEVI .DEG                                              :Hole Deviation {F13.4}
DTCO_MPS.US/F                                          :Compressional slowness {F13.4}
DTSH_MPS.US/F                                          :Shear slowness {F13.4}
GR_ARC.GAPI                                            :ARC Gamma Ray {F13.4}
PR   .UNITLESS                                         :Possion's Ratio {F13.4}
ROP5 .M/HR                                             :Rate of penetration averaged over the last 5 ft (1.5 m) {F13.4}
VPVS .UNITLESS                                         :VpVs Ratio {F13.4}
#-----------------------------------------------------------------------------
# 
#      MD         BS           DCAV         DEVI       DTCO_MPS     DTSH_MPS      GR_ARC        PR           ROP5         VPVS
#
~A  
# ...
 5314.0356       8.5000       8.3251       0.4258      60.5755      99.3741      70.4042       0.2044      11.9432       1.6405
 5314.1880       8.5000       8.3249       0.4275      59.8073      98.9240      69.7476       0.2120      11.8368       1.6540
 5314.3404       8.5000       8.3167       0.4291      59.4478      99.3297      68.6056       0.2210      13.3556       1.6709
 5314.4928       8.5000       8.3135       0.4308      61.1378     100.4259      70.5398       0.2056      13.7061       1.6426
 5314.6452       8.5000       8.3131       0.4325      62.5828     102.3104      65.7089       0.2011      14.1326       1.6348
 5314.7976       8.5000       8.3387       0.4336      62.8636     104.2110      54.2288       0.2140      14.4619       1.6577
 5314.9500       8.5000       8.4274       0.4355      63.6735     104.6620      47.4723       0.2062      16.2889       1.6437
 5315.1024       8.5000       8.4081       0.4373      62.8458     103.6487      45.1842       0.2093      15.5526       1.6493
 5315.2548       8.5000       8.3692       0.4385      61.4960     102.3419      46.3145       0.2174      14.2058       1.6642
 5315.4072       8.5000       8.3434       0.4400      59.8261     101.8341      50.9518       0.2365      13.8456       1.7022
 5315.5596       8.5000       8.3481       0.4418      58.7480     101.5712      53.3790       0.2486      14.4427       1.7289
 5315.7120       8.5000       8.3461       0.4433      60.5766     100.0229      55.7680       0.2104      14.6444       1.6512
 5315.8644       8.5000       8.3662       0.4452      62.4060      99.5981      63.1517       0.1768      15.6156       1.5960
 5316.0168       8.5000       8.3700       0.4463      64.0356     101.2724      64.0862       0.1669      12.9678       1.5815
 5316.1692       8.5000       8.3617       0.4486      65.1289     103.5042      52.2174       0.1723      13.1615       1.5892
 5316.3216       8.5000       8.3626       0.4497      64.5046     103.0390      44.5188       0.1778      12.4215       1.5974
 5316.4740       8.5000       8.3600       0.4515      64.4154     100.8189      46.3408       0.1551      12.6101       1.5651
 5316.6264       8.5000       8.3597       0.4527      64.4268      99.4857      48.8227       0.1388      12.5062       1.5442
 5316.7788       8.5000       8.3608       0.4546      64.3707     100.9743      48.2584       0.1577      12.8497       1.5686
 5316.9312       8.5000       8.3306       0.4562      64.4984     101.9429      44.8043       0.1663      13.2914       1.5805
 5317.0836       8.5000       8.3174       0.4574      64.4466     101.4783      40.4561       0.1620      12.5478       1.5746
 5317.2360       8.5000       8.3343       0.4576      63.6189     100.3508      38.0659       0.1640      13.5441       1.5774
 5317.3884       8.5000       8.3205       0.4567      62.9946      98.6679      40.1818       0.1559      12.3928       1.5663
 5317.5408       8.5000       8.3506       0.4560      61.5461      98.3448      43.2524       0.1781      13.7156       1.5979
 5317.6932       8.5000       8.3565       0.4548      60.9944      98.4466      41.9993       0.1885      13.4862       1.6140
 5317.8456       8.5000       8.3495       0.4540      62.6053      98.8139      36.5253       0.1647      13.1488       1.5784
 5317.9980       8.5000       8.3079       0.4527      63.9723      99.6970      30.7821       0.1500      12.0659       1.5584
 5318.1504       8.5000       8.2996       0.4518      64.2808      98.9935      28.5296       0.1355      12.1692       1.5400
 5318.3028       8.5000       8.2912       0.4507      63.6318      97.6951      29.0143       0.1316      12.8301       1.5353
 5318.4552       8.5000       8.3014       0.4498      63.0670      96.7684      30.4922       0.1308      13.4455       1.5344
 5318.6076       8.5000       8.3387       0.4488      62.8422      97.0540      33.7444       0.1390      14.4525       1.5444
 5318.7600       8.5000       8.3167       0.4481      62.9680      98.0310      36.6606       0.1488      13.2288       1.5568
 5318.9124       8.5000       8.3245       0.4467      64.8658      98.6998      35.8380       0.1198      14.4776       1.5216
 5319.0648       8.5000       8.3201       0.4458      66.3616     100.5493      34.8227       0.1141      14.4669       1.5152
 5319.2172       8.5000       8.3292       0.4448      65.1106     100.8921      38.9273       0.1431      13.7916       1.5495
 5319.3696       8.5000       8.3484       0.4441      62.4220      98.4900      45.7189       0.1643      15.0201       1.5778
 5319.5220       8.5000       8.3342       0.4430      62.4472      97.2356      47.0951       0.1490      15.9764       1.5571
 5319.6744       8.5000       8.3352       0.4419      63.6401      97.8267      41.4632       0.1331      18.2231       1.5372
 5319.8268       8.5000       8.3657       0.4409      63.9718      98.7578      37.1434       0.1385      16.5188       1.5438
 5319.9792       8.5000       8.3539       0.4402      63.3334      99.2582      38.2734       0.1566      16.1253       1.5672
 5320.1316       8.5000       8.3444       0.4390      62.4736      99.7420      40.4826       0.1772      16.3058       1.5965
 5320.2840       8.5000       8.3357       0.4380      61.9356     100.0662      39.1742       0.1895      17.0869       1.6157
 5320.4364       8.5000       8.3304       0.4371      62.1833     100.0853      34.7245       0.1856      16.7089       1.6095
 5320.5888       8.5000       8.3303       0.4360      62.2159     100.0379      30.3423       0.1846      17.6656       1.6079
 5320.7412       8.5000       8.3419       0.4351      62.1295      99.5986      27.5544       0.1815      17.9535       1.6031
 5320.8936       8.5000       8.3444       0.4342      62.3446      98.9747      26.7728       0.1711      18.1144       1.5875
 5321.0460       8.5000       8.3302       0.4332      62.0762      98.5779      26.4611       0.1714      18.1036       1.5880
 5321.1984       8.5000       8.3231       0.4321      62.2914      98.5060      26.1050       0.1668      18.1156       1.5814
 5321.3508       8.5000       8.3058       0.4312      61.4895      99.3665      27.0401       0.1897      19.3347       1.6160
 5321.5032       8.5000       8.3183       0.4301      59.6989     100.5472      27.0576       0.2278      19.3336       1.6842
 5321.6556       8.5000       8.3238       0.4292      62.4494     100.9718      26.1687       0.1903      19.4781       1.6169
 5321.8080       8.5000       8.3657       0.4282      64.6728     101.0002      27.0167       0.1525      20.5311       1.5617
 5321.9604       8.5000       8.3238       0.4271      62.9608      99.6911      27.6469       0.1682      21.2422       1.5834
 5322.1128       8.5000       8.3175       0.4262      62.0684      97.7439      26.7353       0.1621      21.4143       1.5748
 5322.2652       8.5000       8.3177       0.4254      62.8617      96.5863      26.3737       0.1326      21.3449       1.5365
 5322.4176       8.5000       8.3163       0.4244      63.3693      96.6808      28.9868       0.1234      23.8865       1.5257
 5322.5700       8.5000       8.3208       0.4232      62.2018     101.7531      49.9769       0.2017      24.6981       1.6359
 5322.7224       8.5000       8.3224       0.4224      64.3110     115.6506     102.3374       0.2762      18.6712       1.7983
 5322.8748       8.5000       8.3291       0.4215      66.4647     122.5390     155.9833       0.2916      16.3689       1.8437
 5323.0272       8.5000       8.3482       0.4203      64.8650     124.2835     176.0572       0.3128      17.0400       1.9160
 5323.1796       8.5000       8.3350       0.4195      65.4510     125.5764     170.5997       0.3135      13.7366       1.9186
 5323.3320       8.5000       8.3478       0.4185      67.1224     127.5902     157.8912       0.3087      11.7522       1.9009
 5323.4844       8.5000       8.3417       0.4175      66.8229     129.8401     144.9147       0.3198      11.2063       1.9430
