~VERSION INFORMATION
VERS.           2.0   :CWLS Log ASCII Standard - VERSION 2.0
WRAP.           NO    :One Line per depth step
PROD.  Schlumberger   :LAS Producer
PROG.  DLIS to ASCII 2.3                               :LAS Program name and version
CREA.        2020/12/24 10:22                          :LAS Creation date {YYYY/MM/DD hh:mm}
DLIS_CREA.  2020-Dec-24 10:21                          :DLIS Creation date and time {YYYY-MMM-DD hh:mm}
SOURCE.     PNS_Processed.dlis                         :DLIS File Name
FILE-ID.     ToolSpecific_ConPr_R07_Drill_SONICVISION8 :File Identification Number
#--------------------------------------------------
~WELL INFORMATION
#MNEM.UNIT      DATA             DESCRIPTION
#---- ------ --------------   -----------------------------
STRT .M      4299.9660       :START DEPTH     
STOP .M      5201.7168       :STOP DEPTH     
STEP .M         0.1524       :STEP     
NULL .          -999.25      :NULL VALUE
COMP .        BP Development Australia Pty Ltd         :COMPANY
WELL .        Ironbark-1                               :WELL
FLD  .        Ironbark                                 :FIELD
LOC  .        WA-359-P                                 :LOCATION
CNTY .                                                 :COUNTY
STAT .        Western Australia                        :STATE
CTRY .        Australia                                :COUNTRY
API  .                                                 :API NUMBER
UWI  .        20AWA0029                                :UNIQUE WELL ID
DATE .        30-Oct-2020                              :LOG DATE {DD-MMM-YYYY}
SRVC .        Schlumberger                             :SERVICE COMPANY
LATI .DEG     19° 9' 34.079" S                        :LATITUDE
LONG .DEG     116° 4' 35.795" E                       :LONGITUDE
GDAT .                                                 :GeoDetic Datum
#-----------------------------------------------------------------------------
~PARAMETER INFORMATION
#MNEM.UNIT    VALUE                      DESCRIPTION
#---- -----   --------------------       ------------------------
RUN  .          7                        :RUN NUMBER
PDAT .        MSL                        :Permanent Datum
EPD  .M           0.000000               :Elevation of Permanent Datum above Mean Sea Level
LMF  .          DF                       :Logging Measured From (Name of Logging Elevation Reference)
APD  .M          23.850000               :Elevation of Depth Reference (LMF) above Permanent Datum
#-----------------------------------------------------------------------------
~CURVE INFORMATION
#MNEM.UNIT   API CODE                                  DESCRIPTION
#---- -----  --------                                  -----------------------
MD   .M                                                :DEPTH (BOREHOLE) {F10.4}
BS   .IN                                               :Bit Size {F13.4}
DCAV .IN                                               :Density Caliper, Average - filtered if Orion compressed {F13.4}
DEVI .DEG                                              :Hole Deviation {F13.4}
DTCO_MPS.US/F                                          :Compressional slowness {F13.4}
DTSH_MPS.US/F                                          :Shear slowness {F13.4}
GR_ARC.GAPI                                            :ARC Gamma Ray {F13.4}
PR   .UNITLESS                                         :Possion's Ratio {F13.4}
ROP5 .M/HR                                             :Rate of penetration averaged over the last 5 ft (1.5 m) {F13.4}
VPVS .UNITLESS                                         :VpVs Ratio {F13.4}
#-----------------------------------------------------------------------------
# 
#      MD         BS           DCAV         DEVI       DTCO_MPS     DTSH_MPS      GR_ARC        PR           ROP5         VPVS
#
~A  
# ...
 4828.0320      12.2500      12.3365       1.0575      67.9787     133.9975     128.4879       0.3266      13.4408       1.9715
 4828.1844      12.2500      12.2031       1.0588      69.8185     135.2568     122.5798       0.3183      12.0020       1.9374
 4828.3368      12.2500      12.2031       1.0600      70.4316     135.3296     124.1546       0.3141      11.1137       1.9214
 4828.4892      12.2500      12.2031       1.0614      70.4505     133.8174     135.7378       0.3082      10.9933       1.8995
 4828.6416      12.2500      12.2365       1.0625      69.7295     136.2423     144.0164       0.3221      10.5204       1.9542
 4828.7940      12.2500      12.2698       1.0639      69.7867     140.7730     141.4770       0.3369      10.5691       2.0174
 4828.9464      12.2500      12.2365       1.0651      73.1062     143.3540     137.2010       0.3243       9.6433       1.9618
 4829.0988      12.2500      12.2031       1.0663      81.6023     157.7130     142.5728       0.3172       9.2914       1.9327
 4829.2512      12.2500      12.0697       1.0676      87.0843     171.1510     158.8931       0.3251       9.1307       1.9650
 4829.4036      12.2500      12.2698       1.0690      88.4930     178.1774     172.1465       0.3362       9.3182       2.0135
 4829.5560      12.2500      12.2698       1.0703      88.9078     174.7252     173.7850       0.3251      10.4796       1.9652
 4829.7084      12.2500      12.2698       1.0714      84.8418     164.5517     173.3158       0.3189      11.7657       1.9395
 4829.8608      12.2500      12.2865       1.0728      80.4654     154.7191     176.5661       0.3146      14.3651       1.9226
 4830.0132      12.2500      12.3032       1.0741      76.1417     145.3479     176.5735       0.3109      16.6499       1.9088
 4830.1656      12.2500      12.3198       1.0752      73.9393     140.9855     169.5892       0.3103      18.4644       1.9068
 4830.3180      12.2500      12.3365       1.0769      72.2764     138.1597     160.2774       0.3116      18.8579       1.9116
 4830.4704      12.2500      12.3198       1.0777      71.3859     135.7767     151.8518       0.3089      19.3771       1.9021
 4830.6228      12.2500      12.3031       1.0792      72.5858     136.4102     144.3316       0.3025      26.8852       1.8793
 4830.7752      12.2500      12.2031       1.0803      72.3849     136.2182     139.2330       0.3033      26.5643       1.8819
 4830.9276      12.2500      12.2698       1.0815      71.7489     135.5946     138.9170       0.3055      24.8527       1.8899
 4831.0800      12.2500      12.3365       1.0828      70.6845     136.0608     138.0449       0.3151      23.0804       1.9250
 4831.2324      12.2500      12.4032       1.0844      70.2560     136.2708     135.6461       0.3190      21.5079       1.9396
 4831.3848      12.2500      12.3365       1.0857      69.4273     136.4003     136.8945       0.3251      17.8172       1.9648
 4831.5372      12.2500      12.2698       1.0868      69.3546     137.1086     137.5855       0.3281      15.8182       1.9770
 4831.6896      12.2500      12.2031       1.0881      69.6130     136.6441     137.6104       0.3247      14.8144       1.9629
 4831.8420      12.2500      12.3365       1.0894      69.9144     134.6199     138.2388       0.3152      13.7677       1.9258
 4831.9944      12.2500      12.6033       1.0910      71.6380     134.7565     137.0373       0.3030      15.1152       1.8812
 4832.1468      12.2500      12.5366       1.0921      70.3954     131.2611     134.9038       0.2979      14.0974       1.8644
 4832.2992      12.2500      12.5700       1.0933      66.8620     124.2157     129.2544       0.2960      14.0204       1.8582
 4832.4516      12.2500      12.6033       1.0945      63.9884     120.9358     120.1645       0.3056      13.3110       1.8901
 4832.6040      12.2500      12.4032       1.0955      62.8122     119.2042     111.3594       0.3077       6.3941       1.8978
 4832.7564      12.2500      12.2031       1.0972      63.7345     118.1690     106.6996       0.2946       6.1238       1.8545
 4832.9088      12.2500      12.1364       1.0984      65.9939     118.5130     109.5912       0.2749       6.1709       1.7957
 4833.0612      12.2500      12.2031       1.0996      70.0863     129.1422     114.2581       0.2908       6.0240       1.8420
 4833.2136      12.2500      12.2698       1.1011      76.5375     143.5027     116.3281       0.3000       5.9809       1.8736
 4833.3660      12.2500      12.4032       1.1025      82.3074     161.0334     122.3606       0.3228       5.4835       1.9565
 4833.5184      12.2500      12.1697       1.1032      86.3697     165.0899     132.6836       0.3115       4.5109       1.9120
 4833.6708      12.2500      12.0697       1.1048      84.3096     162.1250     141.6928       0.3146       4.6143       1.9229
 4833.8232      12.2500      12.1142       1.1063      79.6670     151.5028     151.0536       0.3088       4.6864       1.9015
 4833.9756      12.2500      12.1586       1.1075      77.8898     149.4687     159.5055       0.3135       4.8147       1.9189
 4834.1280      12.2500      12.2031       1.1086      79.8299     154.9381     157.9901       0.3193       7.9032       1.9408
 4834.2804      12.2500      12.2031       1.1100      81.6819     159.4208     150.8221       0.3220       8.4129       1.9517
 4834.4328      12.2500      12.1698       1.1112      82.8386     162.2072     155.9151       0.3236       8.7805       1.9581
 4834.5852      12.2500      12.1364       1.1127      82.8857     159.4414     172.3629       0.3145       9.7509       1.9233
 4834.7376      12.2500      12.1698       1.1139      80.1462     149.5348     185.1237       0.2983      10.2563       1.8656
 4834.8900      12.2500      12.2031       1.1152      77.9996     145.7989     186.9376       0.2995      12.6523       1.8693
 4835.0424      12.2500      12.3365       1.1164      75.7250     141.9866     173.5078       0.3012      24.5677       1.8749
 4835.1948      12.2500      12.2698       1.1178      73.2399     137.0717     148.4402       0.3002      25.1455       1.8716
 4835.3472      12.2500      12.2031       1.1191      72.7204     136.4305     128.4666       0.3015      22.9169       1.8761
 4835.4996      12.2500      12.3365       1.1211      72.6824     136.6351     124.3299       0.3026      17.7581       1.8799
 4835.6520      12.2500      12.2921       1.1236      72.4930     137.4164     128.4749       0.3071      19.1928       1.8956
 4835.8044      12.2500      12.2477       1.1257      71.7997     138.4864     130.5784       0.3161      18.3195       1.9289
 4835.9568      12.2500      12.2031       1.1280      71.9507     138.9435     133.0999       0.3167      18.9499       1.9312
 4836.1092      12.2500      12.3365       1.1302      72.4847     139.8106     137.4517       0.3162      17.2091       1.9290
 4836.2616      12.2500      12.3365       1.1329      74.8712     142.1072     138.8785       0.3078      17.8441       1.8983
 4836.4140      12.2500      12.2698       1.1346      74.2466     138.9602     139.9999       0.2999      16.2758       1.8714
 4836.5664      12.2500      12.2698       1.1372      71.8798     133.1525     141.1858       0.2943      16.8336       1.8524
 4836.7188      12.2500      12.4032       1.1388      70.2559     130.7499     137.4613       0.2970      14.3854       1.8611
 4836.8712      12.2500      12.4699       1.1418      69.1974     129.5335     129.1582       0.3002      14.9765       1.8719
 4837.0236      12.2500      12.5366       1.1434      68.5255     126.9039     122.4174       0.2941      14.7259       1.8519
 4837.1760      12.2500      12.2698       1.1460      70.2815     131.3260     123.0370       0.2992      13.2816       1.8685
 4837.3284      12.2500      12.2364       1.1484      71.0789     134.4701     128.8724       0.3061      13.1794       1.8918
 4837.4808      12.2500      12.2031       1.1505      71.7876     135.2107     132.6040       0.3037      12.5835       1.8837
