~VERSION INFORMATION
VERS.           2.0   :CWLS Log ASCII Standard - VERSION 2.0
WRAP.           NO    :One Line per depth step
PROD.  Schlumberger   :LAS Producer
PROG.  DLIS to ASCII 2.3                               :LAS Program name and version
CREA.        2021/01/04 14:54                          :LAS Creation date {YYYY/MM/DD hh:mm}
DLIS_CREA.  2021-Jan-04 14:41                          :DLIS Creation date and time {YYYY-MMM-DD hh:mm}
SOURCE.     PnS_Processed.dlis                         :DLIS File Name
FILE-ID.     ConPr_R08_Drill_ARC6_TELE675_SONICVISION6 :File Identification Number
#--------------------------------------------------
~WELL INFORMATION
#MNEM.UNIT      DATA             DESCRIPTION
#---- ------ --------------   -----------------------------
STRT .M      5170.0176       :START DEPTH     
STOP .M      5614.8732       :STOP DEPTH     
STEP .M         0.1524       :STEP     
NULL .          -999.25      :NULL VALUE
COMP .        BP Development Australia Pty Ltd         :COMPANY
WELL .        Ironbark-1                               :WELL
FLD  .        Ironbark                                 :FIELD
LOC  .        WA-359-P                                 :LOCATION
CNTY .                                                 :COUNTY
STAT .        Western Australia                        :STATE
CTRY .        Australia                                :COUNTRY
API  .                                                 :API NUMBER
UWI  .        20AWA0029                                :UNIQUE WELL ID
DATE .        30-Oct-2020                              :LOG DATE {DD-MMM-YYYY}
SRVC .        Schlumberger                             :SERVICE COMPANY
LATI .DEG     19° 9' 34.079" S                        :LATITUDE
LONG .DEG     116° 4' 35.795" E                       :LONGITUDE
GDAT .                                                 :GeoDetic Datum
#-----------------------------------------------------------------------------
~PARAMETER INFORMATION
#MNEM.UNIT    VALUE                      DESCRIPTION
#---- -----   --------------------       ------------------------
RUN  .          Run8_8.5in               :RUN NUMBER
PDAT .        MSL                        :Permanent Datum
EPD  .M           0.000000               :Elevation of Permanent Datum above Mean Sea Level
LMF  .          DF                       :Logging Measured From (Name of Logging Elevation Reference)
APD  .M          23.850000               :Elevation of Depth Reference (LMF) above Permanent Datum
#-----------------------------------------------------------------------------
~CURVE INFORMATION
#MNEM.UNIT   API CODE                                  DESCRIPTION
#---- -----  --------                                  -----------------------
MD   .M                                                :DEPTH (BOREHOLE) {F10.4}
BS   .IN                                               :Bit Size {F13.4}
DCAV .IN                                               :Density Caliper, Average - filtered if Orion compressed {F13.4}
DEVI .DEG                                              :Hole Deviation {F13.4}
DTCO_MPS.US/F                                          :Compressional slowness {F13.4}
DTSH_MPS.US/F                                          :Shear slowness {F13.4}
GR_ARC.GAPI                                            :ARC Gamma Ray {F13.4}
PR   .UNITLESS                                         :Possion's Ratio {F13.4}
ROP5 .M/HR                                             :Rate of penetration averaged over the last 5 ft (1.5 m) {F13.4}
VPVS .UNITLESS                                         :VpVs Ratio {F13.4}
#-----------------------------------------------------------------------------
# 
#      MD         BS           DCAV         DEVI       DTCO_MPS     DTSH_MPS      GR_ARC        PR           ROP5         VPVS
#
~A  
# ...
 5429.2500       8.5000       8.3256       0.0858      66.6145     115.7229     124.2371       0.2522      10.7153       1.7372
 5429.4024       8.5000       8.3174       0.0858      66.5964     115.0223     128.3115       0.2479       9.3584       1.7272
 5429.5548       8.5000       8.3221       0.0857      65.9901     112.6386     133.9517       0.2387       8.0752       1.7069
 5429.7072       8.5000       8.3193       0.0857      65.8308     110.0411     136.7466       0.2213       7.6213       1.6716
 5429.8596       8.5000       8.3209       0.0857      64.0223     105.9187     133.3018       0.2122       6.5045       1.6544
 5430.0120       8.5000       8.3107       0.0857      62.8002     104.2245     121.3885       0.2150       6.6880       1.6596
 5430.1644       8.5000       8.3247       0.0857      62.9077     104.6943     107.7018       0.2175       6.5933       1.6643
 5430.3168       8.5000       8.3384       0.0857      62.7872     104.4938      99.8939       0.2175       5.9646       1.6643
 5430.4692       8.5000       8.3976       0.0857      62.4544     105.0632      91.9000       0.2268       5.9886       1.6822
 5430.6216       8.5000       8.3729       0.0858      62.4181     109.5104      87.5735       0.2594       5.3458       1.7545
 5430.7740       8.5000       8.3362       0.0858      61.8081     116.9700     100.0964       0.3063       4.8174       1.8925
 5430.9264       8.5000       8.3162       0.0858      58.7085     120.7234     117.1786       0.3451       4.8705       2.0563
 5431.0788       8.5000       8.3203       0.0858      56.3936     122.2586     125.9204       0.3649       5.2164       2.1680
 5431.2312       8.5000       8.3362       0.0858      56.0016     124.0667     134.3147       0.3721       5.2107       2.2154
 5431.3836       8.5000       8.3793       0.0858      56.8947     128.0393     142.0785       0.3770       5.6294       2.2505
 5431.5360       8.5000       8.4680       0.0859      60.6031     132.2365     143.9998       0.3671       5.6496       2.1820
 5431.6884       8.5000       8.4124       0.0859      64.6724     136.6573     142.4816       0.3557       5.8985       2.1131
 5431.8408       8.5000       8.3488       0.0859      67.1533     141.4530     141.7686       0.3545       6.8146       2.1064
 5431.9932       8.5000       8.3308       0.0860      69.5935     145.3607     144.1251       0.3513       7.1910       2.0887
 5432.1456       8.5000       8.3486       0.0860      72.7412     148.3737     148.2036       0.3418       8.8360       2.0397
 5432.2980       8.5000       8.3663       0.0860      74.4878     150.2696     152.8506       0.3371      10.7024       2.0174
 5432.4504       8.5000       8.3583       0.0861      74.3345     152.8960     155.4971       0.3452      11.5572       2.0569
 5432.6028       8.5000       8.3480       0.0861      75.1309     155.2320     154.6554       0.3470      12.5146       2.0662
 5432.7552       8.5000       8.3512       0.0862      76.2780     153.0872     153.4310       0.3349      14.5513       2.0070
 5432.9076       8.5000       8.3343       0.0862      76.3145     148.7202     153.2923       0.3213      15.8807       1.9488
 5433.0600       8.5000       8.3264       0.0863      75.6700     145.0818     150.8348       0.3132      17.3620       1.9173
 5433.2124       8.5000       8.3310       0.0863      76.6630     149.0809     139.7535       0.3202      18.9684       1.9446
 5433.3648       8.5000       8.3487       0.0864      81.1838     156.5293     122.3844       0.3160      20.5203       1.9281
 5433.5172       8.5000       8.5659       0.0865      90.8949     162.5567     120.8647       0.2726      20.8717       1.7884
 5433.6696       8.5000       8.6928       0.0865      98.6149     175.5084     139.7144       0.2693      22.0818       1.7797
 5433.8220       8.5000       8.7132       0.0866     101.6180     185.0751     150.5859       0.2842      23.4011       1.8213
 5433.9744       8.5000       8.5784       0.0867      99.3087     180.1408     140.7510       0.2817      24.7747       1.8139
 5434.1268       8.5000       8.3444       0.0867      91.6697     162.9619     121.1945       0.2685      21.4249       1.7777
 5434.2792       8.5000       8.3293       0.0868      79.8194     138.1816     101.1405       0.2496      17.0999       1.7312
 5434.4316       8.5000       8.3556       0.0869      71.2917     122.9419      82.1988       0.2467      16.2006       1.7245
 5434.5840       8.5000       8.3751       0.0870      67.5177     115.5681      71.9252       0.2409      15.9091       1.7117
 5434.7364       8.5000       8.3724       0.0871      66.3677     111.4890      76.4455       0.2256      12.7124       1.6799
 5434.8888       8.5000       8.3918       0.0871      66.0454     109.0029      86.8118       0.2100       9.0991       1.6504
 5435.0412       8.5000       8.3453       0.0873      64.3163     106.4703      95.6981       0.2127       7.4474       1.6554
 5435.1936       8.5000       8.3119       0.0873      62.0338     104.5199      94.5246       0.2281       7.0162       1.6849
 5435.3460       8.5000       8.3096       0.0874      61.6068     104.7266      81.7995       0.2354       6.7854       1.6999
 5435.4984       8.5000       8.3180       0.0875      63.5236     106.3733      76.3965       0.2229       6.2789       1.6745
 5435.6508       8.5000       8.3138       0.0876      64.4844     106.1412      88.0504       0.2075       5.1344       1.6460
 5435.8032       8.5000       8.3189       0.0877      63.9279     104.9671     108.3964       0.2052       4.8259       1.6420
 5435.9556       8.5000       8.3531       0.0878      62.2225     105.0301     122.2154       0.2296       4.7924       1.6880
 5436.1080       8.5000       8.3691       0.0879      61.2427     108.7565     121.7775       0.2678       4.4074       1.7758
 5436.2604       8.5000       8.3912       0.0880      62.7218     118.9175     113.1467       0.3073       4.6642       1.8960
 5436.4128       8.5000       8.3814       0.0882      65.1350     130.9010     108.9803       0.3355       5.4616       2.0097
 5436.5652       8.5000       8.3655       0.0883      66.7189     139.7239     118.9690       0.3523       5.8730       2.0942
 5436.7176       8.5000       8.3168       0.0884      66.7808     142.6893     137.0145       0.3598       5.9166       2.1367
 5436.8700       8.5000       8.3274       0.0885      67.6735     144.5571     151.7511       0.3597       6.0636       2.1361
 5437.0224       8.5000       8.3248       0.0886      71.4391     145.3578     156.8533       0.3408       6.4565       2.0347
 5437.1748       8.5000       8.3407       0.0887      74.8709     143.8773     153.4949       0.3143       8.5184       1.9217
 5437.3272       8.5000       8.3511       0.0889      79.2660     141.3233     145.1408       0.2705      11.2144       1.7829
 5437.4796       8.5000       8.3405       0.0890      80.2204     140.2312     138.6576       0.2568      11.3731       1.7481
 5437.6320       8.5000       8.3207       0.0891      76.0140     136.6511     140.9757       0.2760      14.3368       1.7977
 5437.7844       8.5000       8.3306       0.0893      71.0813     130.3325     135.2184       0.2883      14.5098       1.8336
 5437.9368       8.5000       8.3387       0.0894      69.3956     127.0072     110.0642       0.2872      13.9534       1.8302
 5438.0892       8.5000       8.3473       0.0896      69.6291     125.3624      87.0791       0.2769      16.5657       1.8004
 5438.2416       8.5000       8.3446       0.0897      70.9641     123.6554      80.1322       0.2545      17.6388       1.7425
 5438.3940       8.5000       8.3355       0.0898      71.3458     119.8316      80.4858       0.2254      14.5474       1.6796
 5438.5464       8.5000       8.3341       0.0900      67.0137     112.5252      83.5619       0.2252      12.4181       1.6791
 5438.6988       8.5000       8.3560       0.0901      63.0443     104.7302      89.5674       0.2159      10.8898       1.6612
