~VERSION INFORMATION
VERS.           2.0   :CWLS Log ASCII Standard - VERSION 2.0
WRAP.           NO    :One Line per depth step
PROD.  Schlumberger   :LAS Producer
PROG.  DLIS to ASCII 2.3                               :LAS Program name and version
CREA.        2021/01/04 14:54                          :LAS Creation date {YYYY/MM/DD hh:mm}
DLIS_CREA.  2021-Jan-04 14:41                          :DLIS Creation date and time {YYYY-MMM-DD hh:mm}
SOURCE.     PnS_Processed.dlis                         :DLIS File Name
FILE-ID.     ConPr_R08_Drill_ARC6_TELE675_SONICVISION6 :File Identification Number
#--------------------------------------------------
~WELL INFORMATION
#MNEM.UNIT      DATA             DESCRIPTION
#---- ------ --------------   -----------------------------
STRT .M      5170.0176       :START DEPTH     
STOP .M      5614.8732       :STOP DEPTH     
STEP .M         0.1524       :STEP     
NULL .          -999.25      :NULL VALUE
COMP .        BP Development Australia Pty Ltd         :COMPANY
WELL .        Ironbark-1                               :WELL
FLD  .        Ironbark                                 :FIELD
LOC  .        WA-359-P                                 :LOCATION
CNTY .                                                 :COUNTY
STAT .        Western Australia                        :STATE
CTRY .        Australia                                :COUNTRY
API  .                                                 :API NUMBER
UWI  .        20AWA0029                                :UNIQUE WELL ID
DATE .        30-Oct-2020                              :LOG DATE {DD-MMM-YYYY}
SRVC .        Schlumberger                             :SERVICE COMPANY
LATI .DEG     19° 9' 34.079" S                        :LATITUDE
LONG .DEG     116° 4' 35.795" E                       :LONGITUDE
GDAT .                                                 :GeoDetic Datum
#-----------------------------------------------------------------------------
~PARAMETER INFORMATION
#MNEM.UNIT    VALUE                      DESCRIPTION
#---- -----   --------------------       ------------------------
RUN  .          Run8_8.5in               :RUN NUMBER
PDAT .        MSL                        :Permanent Datum
EPD  .M           0.000000               :Elevation of Permanent Datum above Mean Sea Level
LMF  .          DF                       :Logging Measured From (Name of Logging Elevation Reference)
APD  .M          23.850000               :Elevation of Depth Reference (LMF) above Permanent Datum
#-----------------------------------------------------------------------------
~CURVE INFORMATION
#MNEM.UNIT   API CODE                                  DESCRIPTION
#---- -----  --------                                  -----------------------
MD   .M                                                :DEPTH (BOREHOLE) {F10.4}
BS   .IN                                               :Bit Size {F13.4}
DCAV .IN                                               :Density Caliper, Average - filtered if Orion compressed {F13.4}
DEVI .DEG                                              :Hole Deviation {F13.4}
DTCO_MPS.US/F                                          :Compressional slowness {F13.4}
DTSH_MPS.US/F                                          :Shear slowness {F13.4}
GR_ARC.GAPI                                            :ARC Gamma Ray {F13.4}
PR   .UNITLESS                                         :Possion's Ratio {F13.4}
ROP5 .M/HR                                             :Rate of penetration averaged over the last 5 ft (1.5 m) {F13.4}
VPVS .UNITLESS                                         :VpVs Ratio {F13.4}
#-----------------------------------------------------------------------------
# 
#      MD         BS           DCAV         DEVI       DTCO_MPS     DTSH_MPS      GR_ARC        PR           ROP5         VPVS
#
~A  
# ...
 5371.6428       8.5000       8.3237       0.2942      76.5112     145.6470     153.1156       0.3094      39.3193       1.9036
 5371.7952       8.5000       8.2911       0.2943      74.9908     143.5773     146.8866       0.3124      36.8076       1.9146
 5371.9476       8.5000       8.3382       0.2943      73.4578     142.2565     141.9633       0.3182      35.5923       1.9366
 5372.1000       8.5000       8.2940       0.2944      73.0158     141.5420     138.2394       0.3187      30.7105       1.9385
 5372.2524       8.5000       8.3079       0.2945      73.6433     139.5612     142.7243       0.3071      27.1602       1.8951
 5372.4048       8.5000       8.3043       0.2945      73.7687     137.2912     149.2995       0.2971      28.1637       1.8611
 5372.5572       8.5000       8.3524       0.2946      72.6813     135.2348     152.1735       0.2969      25.2338       1.8607
 5372.7096       8.5000       8.3210       0.2947      70.6417     130.1405     147.7947       0.2911      29.2181       1.8423
 5372.8620       8.5000       8.3138       0.2947      69.3203     125.2137     138.9238       0.2790      24.5149       1.8063
 5373.0144       8.5000       8.3220       0.2948      68.8104     121.2824     135.2043       0.2627      23.1320       1.7626
 5373.1668       8.5000       8.3215       0.2948      68.0046     119.4673     133.1058       0.2603      21.5185       1.7568
 5373.3192       8.5000       8.3392       0.2949      67.3542     117.9869     127.2302       0.2583      21.4668       1.7517
 5373.4716       8.5000       8.3433       0.2945      65.7730     114.5293     115.8760       0.2539      18.9930       1.7413
 5373.6240       8.5000       8.3777       0.2937      63.8664     109.4918     102.8982       0.2422      13.4637       1.7144
 5373.7764       8.5000       8.3819       0.2925      61.9882     104.5707      95.4835       0.2291      10.5743       1.6869
 5373.9288       8.5000       8.3615       0.2914      61.3777     106.7636      95.4213       0.2532       8.2338       1.7395
 5374.0812       8.5000       8.3180       0.2904      64.2008     121.4731     108.5472       0.3062       7.2335       1.8921
 5374.2336       8.5000       8.3137       0.2894      67.1662     135.0060     127.3607       0.3355       6.3360       2.0100
 5374.3860       8.5000       8.3313       0.2879      69.4138     138.2567     136.6880       0.3315       6.4564       1.9918
 5374.5384       8.5000       8.3110       0.2869      71.3814     139.1151     140.3369       0.3213       6.2542       1.9489
 5374.6908       8.5000       8.3058       0.2859      72.4414     140.6169     141.0211       0.3194       6.2936       1.9411
 5374.8432       8.5000       8.3383       0.2847      72.4726     141.1626     136.7854       0.3210       6.3946       1.9478
 5374.9956       8.5000       8.3512       0.2836      71.2046     137.0461     129.2275       0.3151       6.6678       1.9247
 5375.1480       8.5000       8.3316       0.2825      69.1695     128.8698     122.6957       0.2977       7.9486       1.8631
 5375.3004       8.5000       8.3050       0.2811      66.9722     123.6227     125.2814       0.2923       9.7035       1.8459
 5375.4528       8.5000       8.2967       0.2804      68.8044     123.1186     134.7245       0.2729      10.5246       1.7894
 5375.6052       8.5000       8.3052       0.2792      74.3904     128.9432     138.6112       0.2506      12.4091       1.7333
 5375.7576       8.5000       8.4473       0.2782      77.6541     144.6477     133.8915       0.2975      16.2497       1.8627
 5375.9100       8.5000       8.4424       0.2770      80.7502     161.5851     130.9865       0.3336      17.1879       2.0010
 5376.0624       8.5000       8.4152       0.2759      84.4274     167.5482     136.6599       0.3298      18.6413       1.9845
 5376.2148       8.5000       8.3628       0.2749      85.1895     166.0532     148.3190       0.3214      17.8599       1.9492
 5376.3672       8.5000       8.3556       0.2736      82.6561     160.9992     159.9927       0.3210      17.8117       1.9478
 5376.5196       8.5000       8.3366       0.2725      80.1033     156.5652     163.1490       0.3227      17.7529       1.9545
 5376.6720       8.5000       8.3316       0.2715      78.1160     153.3414     160.0317       0.3248      17.9897       1.9630
 5376.8244       8.5000       8.3264       0.2704      76.4895     150.4893     157.3036       0.3258      18.7367       1.9674
 5376.9768       8.5000       8.3392       0.2693      75.6091     148.8875     152.6534       0.3262      29.9620       1.9692
 5377.1292       8.5000       8.3489       0.2680      74.8681     147.3162     149.6837       0.3259      36.9759       1.9677
 5377.2816       8.5000       8.3256       0.2671      73.5771     145.0010     152.4485       0.3266      33.1518       1.9707
 5377.4340       8.5000       8.3239       0.2659      73.1160     144.0723     153.8002       0.3266      33.9488       1.9705
 5377.5864       8.5000       8.3378       0.2651      72.9457     144.1365     149.8005       0.3278      30.4498       1.9759
 5377.7388       8.5000       8.3325       0.2637      72.9842     143.2948     147.2024       0.3249      34.0578       1.9634
 5377.8912       8.5000       8.3427       0.2629      72.6379     142.4586     146.0311       0.3243      29.0721       1.9612
 5378.0436       8.5000       8.3407       0.2616      71.9011     142.5136     139.7301       0.3293      27.5986       1.9821
 5378.1960       8.5000       8.3513       0.2604      71.8675     142.5626     134.9998       0.3296      27.0547       1.9837
 5378.3484       8.5000       8.3663       0.2594      72.3330     142.3780     140.3052       0.3261      23.8840       1.9684
 5378.5008       8.5000       8.3281       0.2583      72.7024     143.9372     146.2984       0.3287      22.6488       1.9798
 5378.6532       8.5000       8.3153       0.2571      73.4453     145.9685     148.1258       0.3305      22.9460       1.9874
 5378.8056       8.5000       8.3080       0.2561      73.8262     146.6283     152.4668       0.3302      23.0256       1.9861
 5378.9580       8.5000       8.3225       0.2550      73.8838     146.1587     155.5218       0.3284      21.9585       1.9782
 5379.1104       8.5000       8.3400       0.2537      74.0334     145.8435     153.1058       0.3264      25.2999       1.9700
 5379.2628       8.5000       8.3329       0.2530      73.9183     146.1001     148.5873       0.3280      24.0944       1.9765
 5379.4152       8.5000       8.3679       0.2516      73.9341     147.0525     146.1335       0.3309      27.6035       1.9890
 5379.5676       8.5000       8.3141       0.2505      74.6588     148.4135     145.6116       0.3306      29.4769       1.9879
 5379.7200       8.5000       8.3409       0.2494      74.9448     147.9458     143.3017       0.3274      26.1813       1.9741
 5379.8724       8.5000       8.3556       0.2485      73.4638     144.9482     139.3893       0.3272      28.0468       1.9731
 5380.0248       8.5000       8.4220       0.2473      72.7037     142.2783     137.4136       0.3233      29.8686       1.9570
 5380.1772       8.5000       8.4372       0.2461      73.0849     141.6117     140.8382       0.3185      29.5161       1.9376
 5380.3296       8.5000       8.4809       0.2449      73.3195     140.3148     148.6019       0.3122      32.1611       1.9137
 5380.4820       8.5000       8.4956       0.2439      73.5920     136.9674     152.8826       0.2971      31.2996       1.8612
 5380.6344       8.5000       8.3578       0.2428      71.7751     133.7517     144.8115       0.2978      30.3471       1.8635
 5380.7868       8.5000       8.3288       0.2417      68.1515     132.8239     127.5351       0.3213      32.0598       1.9490
 5380.9392       8.5000       8.3440       0.2404      65.6038     134.4699     116.0761       0.3438      31.2674       2.0497
 5381.0916       8.5000       8.3462       0.2394      65.9088     135.7791     119.1750       0.3459      23.1984       2.0601
