~VERSION INFORMATION
VERS.           2.0   :CWLS Log ASCII Standard - VERSION 2.0
WRAP.           NO    :One Line per depth step
PROD.  Schlumberger   :LAS Producer
PROG.  DLIS to ASCII 2.3                               :LAS Program name and version
CREA.        2020/12/24 10:22                          :LAS Creation date {YYYY/MM/DD hh:mm}
DLIS_CREA.  2020-Dec-24 10:21                          :DLIS Creation date and time {YYYY-MMM-DD hh:mm}
SOURCE.     PNS_Processed.dlis                         :DLIS File Name
FILE-ID.     ToolSpecific_ConPr_R07_Drill_SONICVISION8 :File Identification Number
#--------------------------------------------------
~WELL INFORMATION
#MNEM.UNIT      DATA             DESCRIPTION
#---- ------ --------------   -----------------------------
STRT .M      4299.9660       :START DEPTH     
STOP .M      5201.7168       :STOP DEPTH     
STEP .M         0.1524       :STEP     
NULL .          -999.25      :NULL VALUE
COMP .        BP Development Australia Pty Ltd         :COMPANY
WELL .        Ironbark-1                               :WELL
FLD  .        Ironbark                                 :FIELD
LOC  .        WA-359-P                                 :LOCATION
CNTY .                                                 :COUNTY
STAT .        Western Australia                        :STATE
CTRY .        Australia                                :COUNTRY
API  .                                                 :API NUMBER
UWI  .        20AWA0029                                :UNIQUE WELL ID
DATE .        30-Oct-2020                              :LOG DATE {DD-MMM-YYYY}
SRVC .        Schlumberger                             :SERVICE COMPANY
LATI .DEG     19° 9' 34.079" S                        :LATITUDE
LONG .DEG     116° 4' 35.795" E                       :LONGITUDE
GDAT .                                                 :GeoDetic Datum
#-----------------------------------------------------------------------------
~PARAMETER INFORMATION
#MNEM.UNIT    VALUE                      DESCRIPTION
#---- -----   --------------------       ------------------------
RUN  .          7                        :RUN NUMBER
PDAT .        MSL                        :Permanent Datum
EPD  .M           0.000000               :Elevation of Permanent Datum above Mean Sea Level
LMF  .          DF                       :Logging Measured From (Name of Logging Elevation Reference)
APD  .M          23.850000               :Elevation of Depth Reference (LMF) above Permanent Datum
#-----------------------------------------------------------------------------
~CURVE INFORMATION
#MNEM.UNIT   API CODE                                  DESCRIPTION
#---- -----  --------                                  -----------------------
MD   .M                                                :DEPTH (BOREHOLE) {F10.4}
BS   .IN                                               :Bit Size {F13.4}
DCAV .IN                                               :Density Caliper, Average - filtered if Orion compressed {F13.4}
DEVI .DEG                                              :Hole Deviation {F13.4}
DTCO_MPS.US/F                                          :Compressional slowness {F13.4}
DTSH_MPS.US/F                                          :Shear slowness {F13.4}
GR_ARC.GAPI                                            :ARC Gamma Ray {F13.4}
PR   .UNITLESS                                         :Possion's Ratio {F13.4}
ROP5 .M/HR                                             :Rate of penetration averaged over the last 5 ft (1.5 m) {F13.4}
VPVS .UNITLESS                                         :VpVs Ratio {F13.4}
#-----------------------------------------------------------------------------
# 
#      MD         BS           DCAV         DEVI       DTCO_MPS     DTSH_MPS      GR_ARC        PR           ROP5         VPVS
#
~A  
# ...
 4703.2164      12.2500      12.3810       0.7953      77.2450     154.0375     182.7797       0.3320      14.6156       1.9942
 4703.3688      12.2500      12.4032       0.7948      77.3451     155.1136     167.9569       0.3345      15.6928       2.0056
 4703.5212      12.2500      12.3632       0.7942      79.4324     157.9072     156.4453       0.3306      18.1740       1.9882
 4703.6736      12.2500      12.3832       0.7936      81.0531     158.1201     154.0557       0.3217      19.1603       1.9508
 4703.8260      12.2500      12.4032       0.7931      79.9588     153.0945     156.8475       0.3123      20.5396       1.9146
 4703.9784      12.2500      12.3198       0.7925      79.6451     151.4308     161.9497       0.3088      23.0521       1.9013
 4704.1308      12.2500      12.4366       0.7919      78.9653     151.4874     167.0899       0.3134      24.4864       1.9184
 4704.2832      12.2500      12.5366       0.7914      78.4891     150.1153     170.4668       0.3118      21.2044       1.9126
 4704.4356      12.2500      12.3810       0.7908      78.3166     146.4851     170.5568       0.2996      28.4675       1.8703
 4704.5880      12.2500      12.3365       0.7902      76.7110     141.1994     168.9658       0.2906      28.0316       1.8405
 4704.7404      12.2500      12.3699       0.7897      72.8207     133.1308     166.1231       0.2865      26.7810       1.8281
 4704.8928      12.2500      12.4032       0.7891      71.4536     129.7163     156.7615       0.2820      28.1931       1.8153
 4705.0452      12.2500      12.2698       0.7887      73.5161     135.8032     144.5502       0.2925      20.5181       1.8471
 4705.1976      12.2500      12.2698       0.7880      75.7753     140.7772     141.2687       0.2960      21.4567       1.8578
 4705.3500      12.2500      12.2698       0.7875      76.2366     139.9463     145.3921       0.2888      19.4425       1.8357
 4705.5024      12.2500      12.5144       0.7868      75.6776     135.4921     148.6505       0.2731      19.3209       1.7903
 4705.6548      12.2500      12.3699       0.7863      74.9758     133.1979     149.5362       0.2677      16.9899       1.7769
 4705.8072      12.2500      12.5366       0.7856      72.9939     132.6502     145.6476       0.2825      18.5692       1.8175
 4705.9596      12.2500      12.2698       0.7853      73.9526     138.2168     134.7847       0.2964      16.9036       1.8687
 4706.1120      12.2500      12.2031       0.7846      78.7691     151.5580     127.5646       0.3143      15.4110       1.9270
 4706.2644      12.2500      12.2530       0.7841      86.9464     156.9968     130.4547       0.2786      14.2575       1.8068
 4706.4168      12.2500      12.3031       0.7835      89.3268     161.7785     133.4098       0.2806      13.8879       1.8114
 4706.5692      12.2500      12.6255       0.7829      85.9423     160.1519     127.3087       0.2976      16.0630       1.8644
 4706.7216      12.2500      12.9813       0.7824      79.8258     154.8076     121.2528       0.3188      15.7024       1.9401
 4706.8740      12.2500      13.3370       0.7818      75.3187     146.7392     124.1340       0.3207      17.0855       1.9497
 4707.0264      12.2500      12.4366       0.7814      71.2877     137.1049     126.6312       0.3137      16.5445       1.9233
 4707.1788      12.2500      12.4032       0.7806      72.5142     136.7250     127.2757       0.3042      18.8328       1.8855
 4707.3312      12.2500      12.4699       0.7802      73.7901     140.5359     131.7290       0.3097      15.6156       1.9046
 4707.4836      12.2500      12.3700       0.7797      74.9840     142.1131     138.2944       0.3071      15.1665       1.8953
 4707.6360      12.2500      12.2698       0.7790      74.1612     142.0710     143.4286       0.3127      14.9534       1.9158
 4707.7884      12.2500      12.4699       0.7786      72.7485     138.6441     143.8288       0.3100      13.8891       1.9058
 4707.9408      12.2500      12.6033       0.7780      72.4222     138.8837     140.0153       0.3132      13.9682       1.9177
 4708.0932      12.2500      12.3365       0.7775      73.8707     144.2729     136.7259       0.3222      12.6130       1.9530
 4708.2456      12.2500      12.4032       0.7769      75.8414     147.4526     135.4724       0.3201      13.0165       1.9445
 4708.3980      12.2500      12.3587       0.7763      76.7765     146.8598     139.7356       0.3119      12.8320       1.9128
 4708.5504      12.2500      12.3143       0.7758      77.0061     145.3192     148.6246       0.3047      12.2419       1.8871
 4708.7028      12.2500      12.5366       0.7752      75.3955     141.5081     150.5213       0.3018      11.7804       1.8768
 4708.8552      12.2500      12.3701       0.7747      72.7215     135.8200     146.2310       0.2990      13.1284       1.8676
 4709.0076      12.2500      12.2031       0.7741      71.4540     129.6026     144.0678       0.2811      14.1154       1.8136
 4709.1600      12.2500      12.3699       0.7737      69.7215     121.6468     140.5995       0.2544      14.2360       1.7441
 4709.3124      12.2500      12.4199       0.7731      66.8835     112.2832     128.6881       0.2245      17.2086       1.6786
 4709.4648      12.2500      12.4699       0.7725      65.1573     110.9982     108.9319       0.2363      17.7114       1.7039
 4709.6172      12.2500      12.4477       0.7721      64.4019     113.0878      90.1098       0.2599      16.8657       1.7560
 4709.7696      12.2500      12.4254       0.7713      64.7108     113.3073      76.8345       0.2579      16.4816       1.7510
 4709.9220      12.2500      12.4032       0.7709      65.3765     115.5265      70.3886       0.2644      12.8777       1.7670
 4710.0744      12.2500      12.4699       0.7703      67.8759     120.3637      77.0647       0.2668      11.0031       1.7734
 4710.2268      12.2500      12.5366       0.7697      69.7149     121.8157      99.1801       0.2565      10.7579       1.7474
 4710.3792      12.2500      12.3696       0.7694      70.2305     123.1437     121.0071       0.2588       9.6204       1.7536
 4710.5316      12.2500      12.2031       0.7688      67.7096     121.2321     124.6090       0.2733       9.5373       1.7907
 4710.6840      12.2500      12.2698       0.7682      65.4101     118.9143     112.2045       0.2829      10.3200       1.8180
 4710.8364      12.2500      12.2476       0.7677      68.9811     126.3759      94.8523       0.2876      10.2207       1.8340
 4710.9888      12.2500      12.2253       0.7671      77.0048     134.0345      93.1045       0.2533      10.0386       1.7419
 4711.1412      12.2500      12.2031       0.7665      77.6213     135.6239     113.1687       0.2563       9.8443       1.7473
 4711.2936      12.2500      12.4032       0.7661      76.5370     137.3462     134.0383       0.2747       8.0815       1.7946
 4711.4460      12.2500      12.4366       0.7656      76.4818     138.1904     143.2845       0.2792       9.1686       1.8070
 4711.5984      12.2500      12.2365       0.7650      75.4850     136.9362     143.6664       0.2817      11.0964       1.8144
 4711.7508      12.2500      12.3198       0.7644      73.0400     134.3286     141.1515       0.2901      11.6429       1.8392
 4711.9032      12.2500      12.4032       0.7639      71.8364     132.9125     137.9358       0.2937      13.4593       1.8502
 4712.0556      12.2500      12.2698       0.7635      70.6174     130.2329     135.6453       0.2917      12.8424       1.8442
 4712.2080      12.2500      12.3587       0.7628      70.5712     129.3951     133.2352       0.2883      12.5672       1.8336
 4712.3604      12.2500      12.3031       0.7624      70.6069     129.0529     128.4934       0.2863      12.0413       1.8280
 4712.5128      12.2500      12.3587       0.7618      69.5001     129.1816     124.7836       0.2961      12.1924       1.8589
 4712.6652      12.2500      13.5149       0.7611      71.0249     127.8220     124.9510       0.2764      15.0959       1.8001
