~VERSION INFORMATION
VERS.           2.0   :CWLS Log ASCII Standard - VERSION 2.0
WRAP.           NO    :One Line per depth step
PROD.  Schlumberger   :LAS Producer
PROG.  DLIS to ASCII 2.3                               :LAS Program name and version
CREA.        2020/12/07 11:58                          :LAS Creation date {YYYY/MM/DD hh:mm}
DLIS_CREA.  2020-Dec-07 11:16                          :DLIS Creation date and time {YYYY-MMM-DD hh:mm}
SOURCE.     sonicVISION_2.dlis                         :DLIS File Name
FILE-ID.     ToolSpecific_ConPr_R05_Drill_SONICVISION9 :File Identification Number
#--------------------------------------------------
~WELL INFORMATION
#MNEM.UNIT      DATA             DESCRIPTION
#---- ------ --------------   -----------------------------
STRT .M      2896.9716       :START DEPTH     
STOP .M      3794.9124       :STOP DEPTH     
STEP .M         0.1524       :STEP     
NULL .          -999.25      :NULL VALUE
COMP .        BP Development Australia Pty Ltd         :COMPANY
WELL .        Ironbark-1                               :WELL
FLD  .        WA-359-2                                 :FIELD
LOC  .        Northern Carnarvon Basin                 :LOCATION
CNTY .                                                 :COUNTY
STAT .        Western Australia                        :STATE
CTRY .        Australia                                :COUNTRY
API  .                                                 :API NUMBER
UWI  .        20AWA0029                                :UNIQUE WELL ID
DATE .        30-Nov-2020                              :LOG DATE {DD-MMM-YYYY}
SRVC .        Schlumberger                             :SERVICE COMPANY
LATI .DEG     19° 9' 34.079" S                        :LATITUDE
LONG .DEG     116° 4' 35.795" E                       :LONGITUDE
GDAT .                                                 :GeoDetic Datum
#-----------------------------------------------------------------------------
~PARAMETER INFORMATION
#MNEM.UNIT    VALUE                      DESCRIPTION
#---- -----   --------------------       ------------------------
RUN  .          Run5_16.5in              :RUN NUMBER
PDAT .        MSL                        :Permanent Datum
EPD  .C3           0.000000              :Elevation of Permanent Datum above Mean Sea Level
LMF  .          DF                       :Logging Measured From (Name of Logging Elevation Reference)
APD  .M          23.850000               :Elevation of Depth Reference (LMF) above Permanent Datum
#-----------------------------------------------------------------------------
~CURVE INFORMATION
#MNEM.UNIT   API CODE                                  DESCRIPTION
#---- -----  --------                                  -----------------------
DEPT .M                                                :DEPTH (BOREHOLE) {F10.4}
BS   .IN                                               :Bit Size {F13.4}
DEVI .DEG                                              :Hole Deviation {F13.4}
DTCO_MPS.US/F                                          : {F13.4}
DTSH_MPS.US/F                                          :Shear slowness {F13.4}
GR_ARC.GAPI                                            :ARC Gamma Ray {F13.4}
PR   .UNITLESS                                         :Possion's Ratio {F13.4}
ROP5 .M/HR                                             :Rate of penetration averaged over the last 5 ft (1.5 m) {F13.4}
VPVS .UNITLESS                                         :VpVs Ratio {F13.4}
#-----------------------------------------------------------------------------
# 
#     DEPT        BS           DEVI       DTCO_MPS     DTSH_MPS      GR_ARC        PR           ROP5         VPVS
#
~A  
# ...
 3547.7196      16.5000       2.9368      81.9753     147.3630      85.7333       0.2759      10.9811       1.7977
 3547.8720      16.5000       2.9368      81.1276     148.2492      81.3836       0.2863      13.5179       1.8274
 3548.0244      16.5000       2.9368      81.0690     148.5370      76.0756       0.2879      14.4634       1.8322
 3548.1768      16.5000       2.9368      81.6296     148.5370      66.5063       0.2837      16.2890       1.8196
 3548.3292      16.5000       2.9368      81.8681     148.2492      52.7908       0.2806      24.9435       1.8108
 3548.4816      16.5000       2.9368      81.9640     147.3728      44.6562       0.2761      28.4723       1.7980
 3548.6340      16.5000       2.9368      82.4124     147.3630      42.5433       0.2725      29.8795       1.7881
 3548.7864      16.5000       2.9368      83.1364     147.9516      39.3688       0.2693      29.5826       1.7796
 3548.9388      16.5000       2.9368      83.1925     147.3395      34.5104       0.2660      30.3016       1.7711
 3549.0912      16.5000       2.9368      82.9164     146.6653      33.6257       0.2651      27.2414       1.7688
 3549.2436      16.5000       2.9368      82.4564     145.4655      39.7448       0.2633      24.9217       1.7641
 3549.3960      16.5000       2.9368      82.7705     145.2051      46.7853       0.2593      26.2607       1.7543
 3549.5484      16.5000       2.9368      82.9988     145.3546      48.5620       0.2581      28.4885       1.7513
 3549.7008      16.5000       2.9368      83.5215     145.3110      43.3314       0.2533      26.4380       1.7398
 3549.8532      16.5000       2.9368      83.5435     144.7509      37.8574       0.2503      24.1446       1.7326
 3550.0056      16.5000       2.9368      83.4483     144.3533      42.5425       0.2490      24.1160       1.7299
 3550.1580      16.5000       2.9368      82.5697     144.0179      52.2542       0.2552      22.0426       1.7442
 3550.3104      16.5000       2.9368      81.3928     144.1032      61.4432       0.2658      18.6096       1.7705
 3550.4628      16.5000       2.9367      80.3416     144.8898      71.0404       0.2780      18.5003       1.8034
 3550.6152      16.5000       2.9367      79.6094     145.9733      81.1063       0.2883      18.8487       1.8336
 3550.7676      16.5000       2.9367      79.1479     145.2872      97.9599       0.2890      14.3824       1.8356
 3550.9200      16.5000       2.9370      78.3729     144.1020     117.0336       0.2900      14.6656       1.8387
 3551.0724      16.5000       2.9372      77.9551     144.0089     123.7383       0.2928      15.0301       1.8473
 3551.2248      16.5000       2.9375      78.5382     145.1841     112.4869       0.2932      16.2164       1.8486
 3551.3772      16.5000       2.9378      79.9524     147.7473      87.5828       0.2930      17.6077       1.8479
 3551.5296      16.5000       2.9380      81.7360     150.4201      68.2629       0.2905      15.0883       1.8403
 3551.6820      16.5000       2.9383      83.2096     151.2418      67.1930       0.2830      16.0914       1.8176
 3551.8344      16.5000       2.9386      83.6585     150.3873      73.2440       0.2759      19.3142       1.7976
 3551.9868      16.5000       2.9389      83.0384     148.9106      74.5336       0.2744      19.5299       1.7933
 3552.1392      16.5000       2.9391      82.2719     148.6553      69.6025       0.2792      18.6059       1.8069
 3552.2916      16.5000       2.9394      81.8302     148.8748      62.7168       0.2835      30.0959       1.8193
 3552.4440      16.5000       2.9397      82.0601     149.1095      62.4495       0.2828      28.2724       1.8171
 3552.5964      16.5000       2.9400      82.6329     149.2992      64.4367       0.2792      25.9778       1.8068
 3552.7488      16.5000       2.9403      82.1209     149.1614      65.1866       0.2825      23.4973       1.8164
 3552.9012      16.5000       2.9405      80.6304     148.2192      75.8955       0.2898      19.7473       1.8383
 3553.0536      16.5000       2.9408      79.3780     146.8423      89.4810       0.2936      23.4450       1.8499
 3553.2060      16.5000       2.9411      78.6905     145.9538      95.1137       0.2951      21.1396       1.8548
 3553.3584      16.5000       2.9413      78.9170     145.6812      87.2822       0.2923      20.9341       1.8460
 3553.5108      16.5000       2.9416      79.0954     146.6784      63.3375       0.2950      20.9951       1.8544
 3553.6632      16.5000       2.9419      79.9347     148.0918      40.0182       0.2944      23.4269       1.8527
 3553.8156      16.5000       2.9422      80.8375     149.7460      34.4340       0.2944      23.8032       1.8524
 3553.9680      16.5000       2.9424      82.3680     151.3552      45.5193       0.2896      21.6212       1.8375
 3554.1204      16.5000       2.9427      83.7871     152.5264      56.2990       0.2839      20.7546       1.8204
 3554.2728      16.5000       2.9430      84.4061     152.6706      58.0697       0.2799      19.8957       1.8088
 3554.4252      16.5000       2.9433      83.8335     151.8402      62.4881       0.2807      21.6427       1.8112
 3554.5776      16.5000       2.9436      82.6816     151.0151      72.2772       0.2860      22.9772       1.8265
 3554.7300      16.5000       2.9438      81.6152     150.3221      79.4531       0.2910      26.2219       1.8418
 3554.8824      16.5000       2.9441      81.1169     150.0861      79.4617       0.2937      26.4144       1.8502
 3555.0348      16.5000       2.9444      80.8177     149.9218      64.7782       0.2952      25.6798       1.8551
 3555.1872      16.5000       2.9447      80.7222     149.5054      45.2504       0.2943      25.9405       1.8521
 3555.3396      16.5000       2.9449      80.7087     148.4195      38.0786       0.2901      24.1533       1.8390
 3555.4920      16.5000       2.9452      80.5556     146.9786      37.2492       0.2853      24.8368       1.8246
 3555.6444      16.5000       2.9455      80.1718     145.6848      36.4757       0.2828      26.3190       1.8172
 3555.7968      16.5000       2.9457      79.6936     144.5850      37.8053       0.2818      28.9094       1.8143
 3555.9492      16.5000       2.9460      79.1910     143.3308      37.7469       0.2803      30.9497       1.8099
 3556.1016      16.5000       2.9463      78.8906     142.0809      36.3092       0.2771      28.6263       1.8010
 3556.2540      16.5000       2.9465      78.8897     141.4507      37.3253       0.2743      24.6569       1.7930
 3556.4064      16.5000       2.9468      78.8540     142.1019      36.9574       0.2775      23.8925       1.8021
 3556.5588      16.5000       2.9471      78.6766     142.4804      34.1960       0.2807      24.5350       1.8110
 3556.7112      16.5000       2.9474      78.0617     142.6978      36.0350       0.2865      24.9876       1.8280
 3556.8636      16.5000       2.9477      77.9033     142.6395      43.0874       0.2875      26.2182       1.8310
 3557.0160      16.5000       2.9479      78.0337     142.7321      46.7411       0.2868      26.5958       1.8291
 3557.1684      16.5000       2.9482      78.2905     143.2413      45.0832       0.2870      27.8410       1.8296
 3557.3208      16.5000       2.9485      78.5672     144.4975      46.7535       0.2901      29.1696       1.8392
 3557.4732      16.5000       2.9488      78.8875     146.4736      48.2283       0.2957      29.9048       1.8567
 3557.6256      16.5000       2.9490      79.1370     147.3433      47.1254       0.2973      28.1260       1.8619
 3557.7780      16.5000       2.9493      78.8328     148.2492      46.1626       0.3029      33.1666       1.8806
 3557.9304      16.5000       2.9496      78.1326     148.5370      41.5028       0.3087      34.9623       1.9011
 3558.0828      16.5000       2.9499      78.1090     148.5468      42.2890       0.3089      34.4607       1.9018
 3558.2352      16.5000       2.9502      78.5293     148.5566      53.0013       0.3061      33.3182       1.8917
