~VERSION INFORMATION
VERS.           2.0   :CWLS Log ASCII Standard - VERSION 2.0
WRAP.           NO    :One Line per depth step
PROD.  Schlumberger   :LAS Producer
PROG.  DLIS to ASCII 2.3                               :LAS Program name and version
CREA.        2020/12/24 10:22                          :LAS Creation date {YYYY/MM/DD hh:mm}
DLIS_CREA.  2020-Dec-24 10:21                          :DLIS Creation date and time {YYYY-MMM-DD hh:mm}
SOURCE.     PNS_Processed.dlis                         :DLIS File Name
FILE-ID.     ToolSpecific_ConPr_R07_Drill_SONICVISION8 :File Identification Number
#--------------------------------------------------
~WELL INFORMATION
#MNEM.UNIT      DATA             DESCRIPTION
#---- ------ --------------   -----------------------------
STRT .M      4299.9660       :START DEPTH     
STOP .M      5201.7168       :STOP DEPTH     
STEP .M         0.1524       :STEP     
NULL .          -999.25      :NULL VALUE
COMP .        BP Development Australia Pty Ltd         :COMPANY
WELL .        Ironbark-1                               :WELL
FLD  .        Ironbark                                 :FIELD
LOC  .        WA-359-P                                 :LOCATION
CNTY .                                                 :COUNTY
STAT .        Western Australia                        :STATE
CTRY .        Australia                                :COUNTRY
API  .                                                 :API NUMBER
UWI  .        20AWA0029                                :UNIQUE WELL ID
DATE .        30-Oct-2020                              :LOG DATE {DD-MMM-YYYY}
SRVC .        Schlumberger                             :SERVICE COMPANY
LATI .DEG     19° 9' 34.079" S                        :LATITUDE
LONG .DEG     116° 4' 35.795" E                       :LONGITUDE
GDAT .                                                 :GeoDetic Datum
#-----------------------------------------------------------------------------
~PARAMETER INFORMATION
#MNEM.UNIT    VALUE                      DESCRIPTION
#---- -----   --------------------       ------------------------
RUN  .          7                        :RUN NUMBER
PDAT .        MSL                        :Permanent Datum
EPD  .M           0.000000               :Elevation of Permanent Datum above Mean Sea Level
LMF  .          DF                       :Logging Measured From (Name of Logging Elevation Reference)
APD  .M          23.850000               :Elevation of Depth Reference (LMF) above Permanent Datum
#-----------------------------------------------------------------------------
~CURVE INFORMATION
#MNEM.UNIT   API CODE                                  DESCRIPTION
#---- -----  --------                                  -----------------------
MD   .M                                                :DEPTH (BOREHOLE) {F10.4}
BS   .IN                                               :Bit Size {F13.4}
DCAV .IN                                               :Density Caliper, Average - filtered if Orion compressed {F13.4}
DEVI .DEG                                              :Hole Deviation {F13.4}
DTCO_MPS.US/F                                          :Compressional slowness {F13.4}
DTSH_MPS.US/F                                          :Shear slowness {F13.4}
GR_ARC.GAPI                                            :ARC Gamma Ray {F13.4}
PR   .UNITLESS                                         :Possion's Ratio {F13.4}
ROP5 .M/HR                                             :Rate of penetration averaged over the last 5 ft (1.5 m) {F13.4}
VPVS .UNITLESS                                         :VpVs Ratio {F13.4}
#-----------------------------------------------------------------------------
# 
#      MD         BS           DCAV         DEVI       DTCO_MPS     DTSH_MPS      GR_ARC        PR           ROP5         VPVS
#
~A  
# ...
 5000.8536      12.2500      12.3632       1.3332      66.1486     121.5345     120.6146       0.2895       8.0192       1.8373
 5001.0060      12.2500      12.4366       1.3325      66.2288     121.7332     115.4711       0.2897       7.4904       1.8380
 5001.1584      12.2500      12.2253       1.3318      69.4541     127.8367     124.6540       0.2906       6.9321       1.8409
 5001.3108      12.2500      12.3478       1.3311      71.2356     128.0043     137.9129       0.2752       8.2488       1.7968
 5001.4632      12.2500      12.4699       1.3304      69.4100     117.7727     141.8513       0.2309       7.5303       1.6958
 5001.6156      12.2500      12.5366       1.3297      67.0969     110.4611     137.2690       0.2074       7.2763       1.6464
 5001.7680      12.2500      12.4699       1.3289      65.5381     109.4785     123.9696       0.2203       6.7453       1.6706
 5001.9204      12.2500      12.8034       1.3283      64.8524     105.5470     103.6542       0.1963       6.1504       1.6274
 5002.0728      12.2500      12.4032       1.3277      63.6598     103.8166      87.0469       0.1982       5.9317       1.6311
 5002.2252      12.2500      12.3587       1.3270      62.8350     104.8657      80.4371       0.2198       4.7345       1.6690
 5002.3776      12.2500      12.3143       1.3266      62.8457     106.2216      77.6440       0.2304       3.8889       1.6902
 5002.5300      12.2500      12.6033       1.3260      64.6968     110.8911      76.1215       0.2419       3.9628       1.7140
 5002.6824      12.2500      12.4697       1.3250      66.7217     115.4565      84.6627       0.2492       4.4261       1.7304
 5002.8348      12.2500      12.3365       1.3244      66.9119     117.2061     102.3205       0.2582       3.8663       1.7517
 5002.9872      12.2500      12.3031       1.3236      66.3785     117.5390     112.2691       0.2658       3.6584       1.7708
 5003.1396      12.2500      12.3265       1.3230      64.8471     118.1693     106.4642       0.2842       3.4340       1.8227
 5003.2920      12.2500      12.3498       1.3223      65.0149     117.0342     100.9686       0.2766       3.2094       1.8005
 5003.4444      12.2500      12.3587       1.3219      67.5234     119.3013     111.8723       0.2642       3.1081       1.7668
 5003.5968      12.2500      12.3532       1.3210      70.6795     128.8559     130.2077       0.2837       3.1771       1.8220
 5003.7492      12.2500      12.2698       1.3205      73.3803     139.9020     139.5703       0.3099       3.5809       1.9064
 5003.9016      12.2500      12.2698       1.3196      74.6977     144.4719     140.9994       0.3176       4.6801       1.9341
 5004.0540      12.2500      12.2920       1.3190      77.3229     150.3376     141.5253       0.3201       4.7471       1.9442
 5004.2064      12.2500      12.2920       1.3185      79.6617     154.2128     140.5936       0.3180       4.5307       1.9360
 5004.3588      12.2500      12.2865       1.3177      79.8037     155.6455     138.9942       0.3216       5.6006       1.9505
 5004.5112      12.2500      12.3226       1.3170      79.6293     152.7238     139.5110       0.3131       6.5578       1.9179
 5004.6636      12.2500      12.3587       1.3163      77.4789     145.2947     142.1315       0.3011       7.9386       1.8752
 5004.8160      12.2500      12.4921       1.3158      72.9209     136.3841     145.0406       0.2997       8.9791       1.8707
 5004.9684      12.2500      12.4699       1.3151      69.6465     133.4324     145.0231       0.3127      11.2356       1.9161
 5005.1208      12.2500      12.4477       1.3142      69.1306     131.0388     140.6341       0.3070      11.3202       1.8955
 5005.2732      12.2500      12.3031       1.3137      68.5017     128.4176     130.5406       0.3011      11.8662       1.8747
 5005.4256      12.2500      12.4032       1.3130      67.0513     126.9834     118.6456       0.3066      11.2171       1.8938
 5005.5780      12.2500      12.2831       1.3125      70.1999     133.8498     116.8053       0.3103       8.0478       1.9067
 5005.7304      12.2500      12.2698       1.3117      73.8296     141.5256     124.6945       0.3130       7.9836       1.9168
 5005.8828      12.2500      12.2698       1.3109      75.3417     144.2464     133.5827       0.3124       8.0892       1.9146
 5006.0352      12.2500      12.3532       1.3105      74.2779     141.9820     139.0710       0.3115       7.6117       1.9115
 5006.1876      12.2500      12.3765       1.3097      73.5521     137.0977     135.0555       0.2974       7.9671       1.8637
 5006.3400      12.2500      12.5566       1.3093      72.3667     130.0817     124.3362       0.2757       8.0994       1.7974
 5006.4924      12.2500      12.7367       1.3082      71.7315     128.5183     119.3803       0.2737       9.1724       1.7917
 5006.6448      12.2500      12.4699       1.3078      69.5760     123.6420     121.7895       0.2680       8.2546       1.7768
 5006.7972      12.2500      12.5144       1.3072      66.6819     118.0871     121.1513       0.2659       8.2458       1.7709
 5006.9496      12.2500      12.3365       1.3065      66.6102     117.2251     112.2093       0.2616       7.4058       1.7599
 5007.1020      12.2500      12.2531       1.3058      68.7127     119.6422     103.7280       0.2537       7.3953       1.7416
 5007.2544      12.2500      12.2920       1.3049      70.4384     120.5490     102.7992       0.2406       6.8074       1.7115
 5007.4068      12.2500      12.4032       1.3045      70.2317     123.3096     110.7843       0.2597       6.3567       1.7558
 5007.5592      12.2500      13.0480       1.3038      69.7839     122.7825     123.7770       0.2613       6.2703       1.7594
 5007.7116      12.2500      15.0045       1.3030      68.5665     117.7215     123.1957       0.2423       6.2272       1.7168
 5007.8640      12.2500      14.1383       1.3023      66.8116     117.4277     108.7432       0.2590       6.5212       1.7588
 5008.0164      12.2500      13.2694       1.3018      64.8112     117.6091     102.6891       0.2817       5.3872       1.8148
 5008.1688      12.2500      12.4032       1.3011      63.9720     118.1674     104.9382       0.2926       5.0212       1.8473
 5008.3212      12.2500      12.2698       1.3003      65.4762     118.4736     101.2278       0.2798       5.0096       1.8103
 5008.4736      12.2500      12.3365       1.2997      71.0614     124.6607      92.3666       0.2590       4.4563       1.7543
 5008.6260      12.2500      12.2698       1.2991      75.5726     136.8624      90.8935       0.2799       4.4419       1.8104
 5008.7784      12.2500      12.3198       1.2985      78.2289     144.7883     105.9405       0.2938       4.8409       1.8508
 5008.9308      12.2500      12.2164       1.2976      79.1910     144.0532     126.5625       0.2832       5.1037       1.8195
 5009.0832      12.2500      12.5366       1.2972      76.1049     142.3532     136.5965       0.2996       5.1302       1.8714
 5009.2356      12.2500      12.3365       1.2964      75.4192     141.5141     137.5636       0.3016       5.0624       1.8764
 5009.3880      12.2500      12.3032       1.2958      75.2454     140.8098     135.3618       0.3001       5.0122       1.8713
 5009.5404      12.2500      12.2698       1.2950      74.8484     138.5266     131.2872       0.2938       5.9784       1.8507
 5009.6928      12.2500      12.4699       1.2944      74.1468     138.9093     129.3605       0.3006       6.9676       1.8735
 5009.8452      12.2500      12.3899       1.2939      74.1088     141.7802     131.7900       0.3120       6.9518       1.9132
 5009.9976      12.2500      13.7038       1.2931      75.6283     142.9319     137.6660       0.3056       9.3518       1.8901
 5010.1500      12.2500      14.8711       1.2924      76.0152     142.5149     146.8916       0.3012      13.5911       1.8750
 5010.3024      12.2500      14.2824       1.2918      72.9089     138.4908     151.2589       0.3083      13.0087       1.8997
