~VERSION INFORMATION
VERS.           2.0   :CWLS Log ASCII Standard - VERSION 2.0
WRAP.           NO    :One Line per depth step
PROD.  Schlumberger   :LAS Producer
PROG.  DLIS to ASCII 2.3                               :LAS Program name and version
CREA.        2020/12/24 10:22                          :LAS Creation date {YYYY/MM/DD hh:mm}
DLIS_CREA.  2020-Dec-24 10:21                          :DLIS Creation date and time {YYYY-MMM-DD hh:mm}
SOURCE.     PNS_Processed.dlis                         :DLIS File Name
FILE-ID.     ToolSpecific_ConPr_R07_Drill_SONICVISION8 :File Identification Number
#--------------------------------------------------
~WELL INFORMATION
#MNEM.UNIT      DATA             DESCRIPTION
#---- ------ --------------   -----------------------------
STRT .M      4299.9660       :START DEPTH     
STOP .M      5201.7168       :STOP DEPTH     
STEP .M         0.1524       :STEP     
NULL .          -999.25      :NULL VALUE
COMP .        BP Development Australia Pty Ltd         :COMPANY
WELL .        Ironbark-1                               :WELL
FLD  .        Ironbark                                 :FIELD
LOC  .        WA-359-P                                 :LOCATION
CNTY .                                                 :COUNTY
STAT .        Western Australia                        :STATE
CTRY .        Australia                                :COUNTRY
API  .                                                 :API NUMBER
UWI  .        20AWA0029                                :UNIQUE WELL ID
DATE .        30-Oct-2020                              :LOG DATE {DD-MMM-YYYY}
SRVC .        Schlumberger                             :SERVICE COMPANY
LATI .DEG     19° 9' 34.079" S                        :LATITUDE
LONG .DEG     116° 4' 35.795" E                       :LONGITUDE
GDAT .                                                 :GeoDetic Datum
#-----------------------------------------------------------------------------
~PARAMETER INFORMATION
#MNEM.UNIT    VALUE                      DESCRIPTION
#---- -----   --------------------       ------------------------
RUN  .          7                        :RUN NUMBER
PDAT .        MSL                        :Permanent Datum
EPD  .M           0.000000               :Elevation of Permanent Datum above Mean Sea Level
LMF  .          DF                       :Logging Measured From (Name of Logging Elevation Reference)
APD  .M          23.850000               :Elevation of Depth Reference (LMF) above Permanent Datum
#-----------------------------------------------------------------------------
~CURVE INFORMATION
#MNEM.UNIT   API CODE                                  DESCRIPTION
#---- -----  --------                                  -----------------------
MD   .M                                                :DEPTH (BOREHOLE) {F10.4}
BS   .IN                                               :Bit Size {F13.4}
DCAV .IN                                               :Density Caliper, Average - filtered if Orion compressed {F13.4}
DEVI .DEG                                              :Hole Deviation {F13.4}
DTCO_MPS.US/F                                          :Compressional slowness {F13.4}
DTSH_MPS.US/F                                          :Shear slowness {F13.4}
GR_ARC.GAPI                                            :ARC Gamma Ray {F13.4}
PR   .UNITLESS                                         :Possion's Ratio {F13.4}
ROP5 .M/HR                                             :Rate of penetration averaged over the last 5 ft (1.5 m) {F13.4}
VPVS .UNITLESS                                         :VpVs Ratio {F13.4}
#-----------------------------------------------------------------------------
# 
#      MD         BS           DCAV         DEVI       DTCO_MPS     DTSH_MPS      GR_ARC        PR           ROP5         VPVS
#
~A  
# ...
 4588.0020      12.2500      12.2253       1.8167      70.6003     117.7202      33.6606       0.2191      20.3721       1.6674
 4588.1544      12.2500      12.2476       1.8166      70.0007     115.3766      28.6744       0.2087      22.0455       1.6482
 4588.3068      12.2500      12.2698       1.8165      69.6166     115.2192      28.6340       0.2124      19.6426       1.6551
 4588.4592      12.2500      12.3365       1.8164      69.2976     114.9107      34.1854       0.2142      19.1648       1.6582
 4588.6116      12.2500      12.3143       1.8164      69.0537     113.7453      38.2750       0.2081      20.6546       1.6472
 4588.7640      12.2500      12.3254       1.8163      68.5888     112.0819      38.0626       0.2005      21.9315       1.6341
 4588.9164      12.2500      12.3365       1.8162      66.0968     107.9004      37.3275       0.1997      24.9830       1.6328
 4589.0688      12.2500      12.4699       1.8161      62.9461     103.5369      40.4165       0.2067      22.6964       1.6449
 4589.2212      12.2500      12.5199       1.8160      63.1795     101.9457      49.3033       0.1880      23.1222       1.6136
 4589.3736      12.2500      12.5700       1.8159      62.7069     103.6913      64.2945       0.2093      20.7636       1.6544
 4589.5260      12.2500      12.4032       1.8158      61.4657     109.2486      87.4438       0.2671      21.6039       1.7772
 4589.6784      12.2500      12.3865       1.8157      65.1627     121.8764     111.9651       0.2990      19.0793       1.8691
 4589.8308      12.2500      12.3699       1.8156      69.9617     132.3126     120.0549       0.3059      17.6604       1.8914
 4589.9832      12.2500      12.5366       1.8155      70.1173     132.1983     113.1634       0.3043      15.9721       1.8855
 4590.1356      12.2500      12.6033       1.8154      68.0967     129.0569     112.6977       0.3071      15.6434       1.8952
 4590.2880      12.2500      12.4366       1.8153      67.5939     126.9964     121.7254       0.3023      15.0153       1.8788
 4590.4404      12.2500      12.2698       1.8153      68.2963     129.3779     124.9958       0.3068      14.6989       1.8943
 4590.5928      12.2500      12.2031       1.8151      69.1758     131.8222     117.7243       0.3100      15.5241       1.9057
 4590.7452      12.2500      12.1698       1.8151      70.1747     132.8960     107.8857       0.3067      13.0593       1.8938
 4590.8976      12.2500      12.1364       1.8150      70.6813     134.6502     105.6019       0.3097      13.9756       1.9051
 4591.0500      12.2500      12.1364       1.8149      71.3311     137.0885     112.2806       0.3143      13.8142       1.9219
 4591.2024      12.2500      12.1364       1.8148      71.8548     138.5430     120.9670       0.3160      13.9826       1.9281
 4591.3548      12.2500      12.2365       1.8147      73.6273     141.0874     127.6363       0.3128      16.0000       1.9162
 4591.5072      12.2500      12.2698       1.8146      76.6859     147.7451     131.5013       0.3156      17.5306       1.9266
 4591.6596      12.2500      12.2365       1.8145      76.7530     144.9054     131.9555       0.3045      18.9511       1.8875
 4591.8120      12.2500      12.2698       1.8144      72.7095     130.5470     131.6660       0.2735      20.0857       1.7939
 4591.9644      12.2500      12.2198       1.8144      68.7930     118.5845     134.8280       0.2461      17.8980       1.7236
 4592.1168      12.2500      12.1697       1.8143      68.2380     117.8783     139.3769       0.2480      17.8127       1.7275
 4592.2692      12.2500      12.2365       1.8142      68.2351     116.7157     141.7129       0.2402      22.4141       1.7105
 4592.4216      12.2500      12.2864       1.8141      68.0511     115.5448     142.3583       0.2344      22.9790       1.6979
 4592.5740      12.2500      12.3365       1.8140      66.5268     112.5240     139.5118       0.2312      21.5371       1.6913
 4592.7264      12.2500      12.4032       1.8140      65.7533     110.1592     122.4041       0.2232      18.4495       1.6753
 4592.8788      12.2500      12.1364       1.8138      66.1550     112.4529      92.2764       0.2339      19.1519       1.6998
 4593.0312      12.2500      12.2365       1.8137      66.9040     117.2182      73.3720       0.2582      20.4416       1.7521
 4593.1836      12.2500      12.3198       1.8137      67.3223     119.0220      69.0884       0.2647      17.6512       1.7680
 4593.3360      12.2500      12.4032       1.8136      68.9200     121.3957      63.9527       0.2621      16.4395       1.7615
 4593.4884      12.2500      12.3365       1.8135      70.0880     125.5274      57.5978       0.2733      17.8067       1.7909
 4593.6408      12.2500      12.3143       1.8134      72.2188     131.9797      54.5237       0.2861      17.8603       1.8273
 4593.7932      12.2500      12.3032       1.8133      72.9203     137.3442      55.8593       0.3034      17.1868       1.8836
 4593.9456      12.2500      12.2920       1.8133      73.3115     139.9631      64.6293       0.3109      15.1325       1.9093
 4594.0980      12.2500      12.2809       1.8132      76.2350     142.5697      86.8402       0.2998      15.3330       1.8705
 4594.2504      12.2500      12.2698       1.8131      78.9632     147.4135     112.7479       0.2987      18.5038       1.8667
 4594.4028      12.2500      12.2476       1.8130      80.3018     151.3824     124.1001       0.3042      17.8889       1.8852
 4594.5552      12.2500      12.2031       1.8129      81.1057     151.0037     124.5808       0.2972      15.8664       1.8619
 4594.7076      12.2500      12.2365       1.8128      79.8629     150.0999     124.0281       0.3025      17.8003       1.8797
 4594.8600      12.2500      12.2698       1.8128      76.6543     143.3741     125.9742       0.2996      18.8526       1.8701
 4595.0124      12.2500      12.2031       1.8126      73.7525     134.7055     132.9267       0.2857      19.9342       1.8262
 4595.1648      12.2500      12.2031       1.8126      72.6132     130.6108     138.4248       0.2763      18.5416       1.7988
 4595.3172      12.2500      12.2365       1.8125      71.8338     130.4351     133.9915       0.2823      19.6744       1.8158
 4595.4696      12.2500      12.2698       1.8124      70.0628     129.3683     124.0519       0.2924      23.3941       1.8468
 4595.6220      12.2500      12.2031       1.8123      68.6114     127.5417     120.6041       0.2962      22.8796       1.8590
 4595.7744      12.2500      12.3365       1.8123      67.9334     124.2137     124.2933       0.2866      25.8734       1.8285
 4595.9268      12.2500      12.2809       1.8122      67.0009     122.5413     127.4135       0.2868      24.1167       1.8290
 4596.0792      12.2500      12.2253       1.8121      67.8186     122.0970     124.6745       0.2768      22.2785       1.8005
 4596.2316      12.2500      12.1697       1.8120      69.9657     125.7194     115.7044       0.2753      21.8565       1.7965
 4596.3840      12.2500      12.2031       1.8119      75.9826     137.7813     107.0865       0.2815      18.1197       1.8137
 4596.5364      12.2500      12.1364       1.8118      81.4235     147.4491     108.9498       0.2806      18.0104       1.8109
 4596.6888      12.2500      12.2031       1.8118      86.4248     156.4945     121.3770       0.2805      17.6651       1.8107
 4596.8412      12.2500      12.2698       1.8117      88.3106     162.8114     129.0940       0.2914      17.3018       1.8436
 4596.9936      12.2500      12.2031       1.8116      89.1440     168.0525     127.8285       0.3040      16.6852       1.8852
 4597.1460      12.2500      12.2031       1.8115      87.8963     170.7542     127.6398       0.3196      17.3595       1.9429
 4597.2984      12.2500      12.2031       1.8115      85.1889     170.7875     129.8906       0.3343      17.1421       2.0052
 4597.4508      12.2500      12.2031       1.8114      82.3004     167.9256     129.9699       0.3419      18.4727       2.0405
