~VERSION INFORMATION
VERS.           2.0   :CWLS Log ASCII Standard - VERSION 2.0
WRAP.           NO    :One Line per depth step
PROD.  Schlumberger   :LAS Producer
PROG.  DLIS to ASCII 2.3                               :LAS Program name and version
CREA.        2020/12/24 10:22                          :LAS Creation date {YYYY/MM/DD hh:mm}
DLIS_CREA.  2020-Dec-24 10:21                          :DLIS Creation date and time {YYYY-MMM-DD hh:mm}
SOURCE.     PNS_Processed.dlis                         :DLIS File Name
FILE-ID.     ToolSpecific_ConPr_R07_Drill_SONICVISION8 :File Identification Number
#--------------------------------------------------
~WELL INFORMATION
#MNEM.UNIT      DATA             DESCRIPTION
#---- ------ --------------   -----------------------------
STRT .M      4299.9660       :START DEPTH     
STOP .M      5201.7168       :STOP DEPTH     
STEP .M         0.1524       :STEP     
NULL .          -999.25      :NULL VALUE
COMP .        BP Development Australia Pty Ltd         :COMPANY
WELL .        Ironbark-1                               :WELL
FLD  .        Ironbark                                 :FIELD
LOC  .        WA-359-P                                 :LOCATION
CNTY .                                                 :COUNTY
STAT .        Western Australia                        :STATE
CTRY .        Australia                                :COUNTRY
API  .                                                 :API NUMBER
UWI  .        20AWA0029                                :UNIQUE WELL ID
DATE .        30-Oct-2020                              :LOG DATE {DD-MMM-YYYY}
SRVC .        Schlumberger                             :SERVICE COMPANY
LATI .DEG     19° 9' 34.079" S                        :LATITUDE
LONG .DEG     116° 4' 35.795" E                       :LONGITUDE
GDAT .                                                 :GeoDetic Datum
#-----------------------------------------------------------------------------
~PARAMETER INFORMATION
#MNEM.UNIT    VALUE                      DESCRIPTION
#---- -----   --------------------       ------------------------
RUN  .          7                        :RUN NUMBER
PDAT .        MSL                        :Permanent Datum
EPD  .M           0.000000               :Elevation of Permanent Datum above Mean Sea Level
LMF  .          DF                       :Logging Measured From (Name of Logging Elevation Reference)
APD  .M          23.850000               :Elevation of Depth Reference (LMF) above Permanent Datum
#-----------------------------------------------------------------------------
~CURVE INFORMATION
#MNEM.UNIT   API CODE                                  DESCRIPTION
#---- -----  --------                                  -----------------------
MD   .M                                                :DEPTH (BOREHOLE) {F10.4}
BS   .IN                                               :Bit Size {F13.4}
DCAV .IN                                               :Density Caliper, Average - filtered if Orion compressed {F13.4}
DEVI .DEG                                              :Hole Deviation {F13.4}
DTCO_MPS.US/F                                          :Compressional slowness {F13.4}
DTSH_MPS.US/F                                          :Shear slowness {F13.4}
GR_ARC.GAPI                                            :ARC Gamma Ray {F13.4}
PR   .UNITLESS                                         :Possion's Ratio {F13.4}
ROP5 .M/HR                                             :Rate of penetration averaged over the last 5 ft (1.5 m) {F13.4}
VPVS .UNITLESS                                         :VpVs Ratio {F13.4}
#-----------------------------------------------------------------------------
# 
#      MD         BS           DCAV         DEVI       DTCO_MPS     DTSH_MPS      GR_ARC        PR           ROP5         VPVS
#
~A  
# ...
 4415.1804      12.2500      12.3498       1.7035      71.5645     121.2262      49.7553       0.2325      13.0271       1.6939
 4415.3328      12.2500      12.3031       1.7010      70.1293     118.5692      48.8465       0.2310      12.6767       1.6907
 4415.4852      12.2500      12.3365       1.6984      69.6503     117.8166      51.7359       0.2313      12.6995       1.6916
 4415.6376      12.2500      12.4366       1.6955      69.7070     118.7211      53.9688       0.2369      12.7713       1.7032
 4415.7900      12.2500      12.2031       1.6927      70.4073     119.2164      50.7084       0.2322      12.8108       1.6933
 4415.9424      12.2500      12.3365       1.6897      71.2395     120.5001      45.8951       0.2313      11.9884       1.6915
 4416.0948      12.2500      12.3365       1.6871      71.8017     121.9548      45.0732       0.2347      10.8291       1.6985
 4416.2472      12.2500      12.2698       1.6853      72.1417     122.6854      44.2068       0.2357       8.3852       1.7007
 4416.3996      12.2500      12.2365       1.6813      73.1750     123.0307      40.4339       0.2263       8.8663       1.6814
 4416.5520      12.2500      12.2698       1.6781      73.2650     123.7268      39.2842       0.2300       9.3742       1.6888
 4416.7044      12.2500      12.3143       1.6761      73.1426     122.9784      41.1240       0.2263       9.3120       1.6814
 4416.8568      12.2500      12.3587       1.6732      72.4682     122.2331      44.6050       0.2290       9.8015       1.6868
 4417.0092      12.2500      12.3143       1.6704      71.3605     120.4800      49.7015       0.2297      10.2548       1.6883
 4417.1616      12.2500      12.2698       1.6676      70.7650     119.0427      52.2847       0.2267      10.5269       1.6822
 4417.3140      12.2500      12.2698       1.6649      70.8403     120.0845      51.8980       0.2330      10.8032       1.6951
 4417.4664      12.2500      12.2365       1.6621      72.1522     123.4845      50.2276       0.2408      11.9064       1.7115
 4417.6188      12.2500      12.2865       1.6594      72.5964     124.1096      47.6402       0.2399      14.1911       1.7096
 4417.7712      12.2500      12.2782       1.6566      72.0351     123.7541      44.8562       0.2438      26.2248       1.7180
 4417.9236      12.2500      12.2698       1.6535      72.1985     123.5633      42.1884       0.2408      24.5226       1.7115
 4418.0760      12.2500      12.2031       1.6511      71.8986     124.1701      41.0446       0.2477      21.9255       1.7271
 4418.2284      12.2500      12.2365       1.6484      72.3138     121.3171      43.7608       0.2232      23.1905       1.6776
 4418.3808      12.2500      12.2031       1.6457      71.8931     119.4769      48.4160       0.2159      22.0782       1.6619
 4418.5332      12.2500      12.2031       1.6424      71.7187     120.1384      48.4277       0.2231      21.6410       1.6751
 4418.6856      12.2500      12.2698       1.6399      71.7436     120.1079      43.8540       0.2226      20.3614       1.6741
 4418.8380      12.2500      12.2031       1.6370      71.3391     120.5012      41.9281       0.2299      19.7682       1.6891
 4418.9904      12.2500      12.1364       1.6344      71.1749     123.5057      42.8523       0.2509      19.4719       1.7353
 4419.1428      12.2500      12.2698       1.6314      71.6525     125.5685      44.4570       0.2585      20.1245       1.7526
 4419.2952      12.2500      12.2365       1.6289      73.3103     126.7732      46.3564       0.2488      19.5699       1.7293
 4419.4476      12.2500      12.1364       1.6259      74.1523     127.7403      46.4942       0.2458      19.0550       1.7227
 4419.6000      12.2500      12.1864       1.6230      74.2254     128.7206      46.3316       0.2509      18.8400       1.7342
 4419.7524      12.2500      12.2365       1.6208      74.3824     128.5067      44.9141       0.2481      16.8617       1.7277
 4419.9048      12.2500      12.2031       1.6174      74.1304     128.0777      44.5482       0.2481      17.1483       1.7277
 4420.0572      12.2500      12.2698       1.6147      73.6247     126.9105      46.8762       0.2463      16.2837       1.7237
 4420.2096      12.2500      12.2365       1.6120      72.8117     124.2724      46.2223       0.2385      16.2932       1.7068
 4420.3620      12.2500      12.1364       1.6093      70.7112     121.9904      43.9644       0.2469      16.1467       1.7255
 4420.5144      12.2500      12.2031       1.6067      69.4296     120.0426      43.9698       0.2484      15.6755       1.7290
 4420.6668      12.2500      12.2031       1.6037      68.2641     121.1295      54.1875       0.2664      15.5810       1.7749
 4420.8192      12.2500      12.2031       1.6011      67.1448     122.4782      81.9309       0.2851      15.5536       1.8241
 4420.9716      12.2500      12.2698       1.5984      67.8568     123.4938     110.5833       0.2837      13.5515       1.8199
 4421.1240      12.2500      12.2031       1.5952      69.3934     128.1421     122.1818       0.2925      13.7134       1.8465
 4421.2764      12.2500      12.2031       1.5925      70.7680     132.2037     126.2234       0.2991      14.4126       1.8681
 4421.4288      12.2500      12.2253       1.5895      71.1406     134.3620     135.1790       0.3052      13.9996       1.8888
 4421.5812      12.2500      12.2976       1.5873      72.1428     137.4235     143.4494       0.3096      12.7396       1.9049
 4421.7336      12.2500      12.3699       1.5844      72.8856     140.7585     143.4340       0.3168      12.7903       1.9312
 4421.8860      12.2500      12.4032       1.5815      73.2535     143.7258     138.0649       0.3245      12.9495       1.9621
 4422.0384      12.2500      12.4032       1.5790      74.1427     143.2985     135.6599       0.3171      12.9958       1.9329
 4422.1908      12.2500      13.0035       1.5759      73.3281     140.7279     138.0210       0.3136      12.8276       1.9192
 4422.3432      12.2500      12.8034       1.5732      72.2511     139.1588     141.1356       0.3155      13.0365       1.9261
 4422.4956      12.2500      12.2698       1.5704      72.5379     138.9850     144.5653       0.3128      14.8689       1.9161
 4422.6480      12.2500      12.2865       1.5677      72.8469     138.5459     145.0565       0.3089      14.5227       1.9019
 4422.8004      12.2500      12.3031       1.5644      72.6961     136.7183     141.1230       0.3029      15.0140       1.8807
 4422.9528      12.2500      12.3365       1.5622      72.7363     136.3397     142.9228       0.3011      13.7371       1.8744
 4423.1052      12.2500      12.3032       1.5591      73.2070     136.9536     150.9379       0.3000      14.5981       1.8708
 4423.2576      12.2500      12.2698       1.5566      75.2098     141.1923     150.3259       0.3019      14.0563       1.8773
 4423.4100      12.2500      12.2365       1.5539      77.0079     144.6851     143.0712       0.3024      13.6897       1.8789
 4423.5624      12.2500      12.2698       1.5509      75.9284     143.4586     138.5679       0.3054      14.1251       1.8894
 4423.7148      12.2500      12.4032       1.5482      74.2757     140.8782     134.9767       0.3075      13.6005       1.8967
 4423.8672      12.2500      12.3532       1.5458      74.8829     142.4121     134.5036       0.3089      12.3965       1.9020
 4424.0196      12.2500      12.3031       1.5428      76.8641     144.6654     139.2937       0.3033      12.2466       1.8821
 4424.1720      12.2500      12.2365       1.5398      76.7827     144.7296     141.9358       0.3041      12.4618       1.8849
 4424.3244      12.2500      12.4032       1.5376      75.0631     140.7991     140.5549       0.3013      11.7135       1.8755
 4424.4768      12.2500      12.3365       1.5339      72.4241     134.8531     142.2673       0.2973      13.3362       1.8620
 4424.6292      12.2500      12.3365       1.5318      74.2754     139.0748     149.5681       0.3005      13.9600       1.8724
