~VERSION INFORMATION
VERS.           2.0   :CWLS Log ASCII Standard - VERSION 2.0
WRAP.           NO    :One Line per depth step
PROD.  Schlumberger   :LAS Producer
PROG.  DLIS to ASCII 2.3                               :LAS Program name and version
CREA.        2020/12/07 11:58                          :LAS Creation date {YYYY/MM/DD hh:mm}
DLIS_CREA.  2020-Dec-07 11:16                          :DLIS Creation date and time {YYYY-MMM-DD hh:mm}
SOURCE.     sonicVISION_2.dlis                         :DLIS File Name
FILE-ID.     ToolSpecific_ConPr_R05_Drill_SONICVISION9 :File Identification Number
#--------------------------------------------------
~WELL INFORMATION
#MNEM.UNIT      DATA             DESCRIPTION
#---- ------ --------------   -----------------------------
STRT .M      2896.9716       :START DEPTH     
STOP .M      3794.9124       :STOP DEPTH     
STEP .M         0.1524       :STEP     
NULL .          -999.25      :NULL VALUE
COMP .        BP Development Australia Pty Ltd         :COMPANY
WELL .        Ironbark-1                               :WELL
FLD  .        WA-359-2                                 :FIELD
LOC  .        Northern Carnarvon Basin                 :LOCATION
CNTY .                                                 :COUNTY
STAT .        Western Australia                        :STATE
CTRY .        Australia                                :COUNTRY
API  .                                                 :API NUMBER
UWI  .        20AWA0029                                :UNIQUE WELL ID
DATE .        30-Nov-2020                              :LOG DATE {DD-MMM-YYYY}
SRVC .        Schlumberger                             :SERVICE COMPANY
LATI .DEG     19° 9' 34.079" S                        :LATITUDE
LONG .DEG     116° 4' 35.795" E                       :LONGITUDE
GDAT .                                                 :GeoDetic Datum
#-----------------------------------------------------------------------------
~PARAMETER INFORMATION
#MNEM.UNIT    VALUE                      DESCRIPTION
#---- -----   --------------------       ------------------------
RUN  .          Run5_16.5in              :RUN NUMBER
PDAT .        MSL                        :Permanent Datum
EPD  .C3           0.000000              :Elevation of Permanent Datum above Mean Sea Level
LMF  .          DF                       :Logging Measured From (Name of Logging Elevation Reference)
APD  .M          23.850000               :Elevation of Depth Reference (LMF) above Permanent Datum
#-----------------------------------------------------------------------------
~CURVE INFORMATION
#MNEM.UNIT   API CODE                                  DESCRIPTION
#---- -----  --------                                  -----------------------
DEPT .M                                                :DEPTH (BOREHOLE) {F10.4}
BS   .IN                                               :Bit Size {F13.4}
DEVI .DEG                                              :Hole Deviation {F13.4}
DTCO_MPS.US/F                                          : {F13.4}
DTSH_MPS.US/F                                          :Shear slowness {F13.4}
GR_ARC.GAPI                                            :ARC Gamma Ray {F13.4}
PR   .UNITLESS                                         :Possion's Ratio {F13.4}
ROP5 .M/HR                                             :Rate of penetration averaged over the last 5 ft (1.5 m) {F13.4}
VPVS .UNITLESS                                         :VpVs Ratio {F13.4}
#-----------------------------------------------------------------------------
# 
#     DEPT        BS           DEVI       DTCO_MPS     DTSH_MPS      GR_ARC        PR           ROP5         VPVS
#
~A  
# ...
 3078.3276      16.5000       0.4403      84.1376     156.8506      27.0585       0.2980      18.5214       1.8642
 3078.4800      16.5000       0.4408      84.1731     154.1378      26.0783       0.2875      19.2404       1.8312
 3078.6324      16.5000       0.4414      83.6885     150.9687      27.0541       0.2782      18.9068       1.8039
 3078.7848      16.5000       0.4417      82.6037     150.9800      29.6671       0.2864      16.2543       1.8278
 3078.9372      16.5000       0.4422      81.5858     154.5020      33.2282       0.3067      16.9919       1.8937
 3079.0896      16.5000       0.4427      81.5879     158.8871      34.7207       0.3209      17.3107       1.9474
 3079.2420      16.5000       0.4431      81.5598     162.3992      32.9424       0.3314      17.4386       1.9912
 3079.3944      16.5000       0.4437      80.7734     162.1016      28.3566       0.3348      18.9686       2.0069
 3079.5468      16.5000       0.4442      76.2866     157.3466      25.5636       0.3464      18.0380       2.0626
 3079.6992      16.5000       0.4446      71.9854     150.0316      25.6212       0.3505      16.2821       2.0842
 3079.8516      16.5000       0.4451      67.9784     140.0412      25.0591       0.3459      16.1124       2.0601
 3080.0040      16.5000       0.4455      64.0661     135.9142      30.9546       0.3572      12.6686       2.1215
 3080.1564      16.5000       0.4460      63.2232     138.9330      40.8322       0.3694      12.0454       2.1975
 3080.3088      16.5000       0.4464      66.0771     144.9787      44.5029       0.3689      13.2491       2.1941
 3080.4612      16.5000       0.4470      74.6555     158.0012      45.7191       0.3563      13.5284       2.1164
 3080.6136      16.5000       0.4475      81.5652     162.9353      47.1155       0.3328      13.9853       1.9976
 3080.7660      16.5000       0.4480      84.5945     163.6584      49.3365       0.3177      14.0292       1.9346
 3080.9184      16.5000       0.4485      85.0121     164.8423      56.9938       0.3188      13.8948       1.9390
 3081.0708      16.5000       0.4490      84.4002     165.9867      67.2545       0.3256      14.4976       1.9667
 3081.2232      16.5000       0.4495      83.0490     165.4014      67.5075       0.3315      16.1087       1.9916
 3081.3756      16.5000       0.4500      81.2149     162.1573      60.1627       0.3326      16.2461       1.9966
 3081.5280      16.5000       0.4504      79.5364     158.9265      58.1231       0.3329      20.7012       1.9982
 3081.6804      16.5000       0.4510      78.6238     155.9735      61.7441       0.3297      23.8093       1.9838
 3081.8328      16.5000       0.4514      77.9996     153.6195      66.0545       0.3263      24.5124       1.9695
 3081.9852      16.5000       0.4519      77.4841     153.4450      65.6496       0.3289      23.0046       1.9803
 3082.1376      16.5000       0.4524      76.9820     155.3367      62.8482       0.3372      22.8801       2.0178
 3082.2900      16.5000       0.4529      77.8022     158.5204      73.0805       0.3413      22.5445       2.0375
 3082.4424      16.5000       0.4535      80.0195     162.1651      97.3049       0.3391      20.6503       2.0266
 3082.5948      16.5000       0.4539      83.4777     165.1799     114.7349       0.3285      17.7471       1.9787
 3082.7472      16.5000       0.4545      85.2095     165.7282     113.8094       0.3203      16.3770       1.9449
 3082.8996      16.5000       0.4549      85.4580     164.6772     109.6245       0.3157      14.7351       1.9270
 3083.0520      16.5000       0.4555      84.7322     162.9099     119.2007       0.3146      14.5006       1.9226
 3083.2044      16.5000       0.4559      84.1449     160.6330     135.7083       0.3109      11.6109       1.9090
 3083.3568      16.5000       0.4564      84.1398     158.9175     148.9582       0.3052      10.3240       1.8887
 3083.5092      16.5000       0.4569      84.5578     158.1469     157.1738       0.2998       8.7562       1.8703
 3083.6616      16.5000       0.4575      85.0168     158.4387     160.5725       0.2978       7.9959       1.8636
 3083.8140      16.5000       0.4579      85.2347     159.2492     159.3729       0.2993       7.2292       1.8684
 3083.9664      16.5000       0.4585      85.3889     160.4152     160.0258       0.3023       7.0939       1.8786
 3084.1188      16.5000       0.4590      85.2874     160.7744     163.4162       0.3042       7.1265       1.8851
 3084.2712      16.5000       0.4595      84.6445     159.1669     163.5987       0.3028       7.1446       1.8804
 3084.4236      16.5000       0.4601      83.6392     156.9829     163.3619       0.3018       7.5413       1.8769
 3084.5760      16.5000       0.4606      82.4946     154.1014     164.0927       0.2992       7.8262       1.8680
 3084.7284      16.5000       0.4611      81.7486     151.4165     166.1015       0.2943       8.7309       1.8522
 3084.8808      16.5000       0.4616      81.5235     149.9402     162.6474       0.2902       9.3535       1.8392
 3085.0332      16.5000       0.4621      81.4901     148.8506     156.5467       0.2860      10.9836       1.8266
 3085.1856      16.5000       0.4626      81.6425     148.5665     162.3644       0.2837      11.2478       1.8197
 3085.3380      16.5000       0.4632      80.9754     148.8444     171.6641       0.2898      12.6177       1.8381
 3085.4904      16.5000       0.4636      81.0198     149.7306     172.2069       0.2930      12.2169       1.8481
 3085.6428      16.5000       0.4642      81.8195     150.0381     168.6333       0.2884      12.3356       1.8338
 3085.7952      16.5000       0.4648      83.4256     150.6332     167.7910       0.2788      12.2891       1.8056
 3085.9476      16.5000       0.4653      84.7601     152.7033     170.1563       0.2774      12.2243       1.8016
 3086.1000      16.5000       0.4658      85.3283     154.4527     169.5680       0.2804      11.9543       1.8101
 3086.2524      16.5000       0.4664      84.8441     155.6464     160.9734       0.2886      11.8804       1.8345
 3086.4048      16.5000       0.4668      84.2156     155.9440     152.2922       0.2941      11.4946       1.8517
 3086.5572      16.5000       0.4674      83.9818     155.9440     148.8214       0.2958      10.9522       1.8569
 3086.7096      16.5000       0.4679      83.8251     155.6562     145.0907       0.2958      10.7201       1.8569
 3086.8620      16.5000       0.4685      83.4578     154.7700     147.7835       0.2950      10.7623       1.8545
 3087.0144      16.5000       0.4689      82.8337     154.4823     160.7144       0.2982      11.1693       1.8650
 3087.1668      16.5000       0.4694      82.4652     154.4724     163.9969       0.3007      11.0121       1.8732
 3087.3192      16.5000       0.4701      83.3201     154.4527     158.9223       0.2948      10.9345       1.8537
 3087.4716      16.5000       0.4707      83.6019     153.8674     167.6181       0.2906      10.3747       1.8405
 3087.6240      16.5000       0.4711      82.7746     151.7776     170.8023       0.2883       9.9351       1.8336
 3087.7764      16.5000       0.4717      81.1483     149.4528     151.6674       0.2910      10.0142       1.8417
 3087.9288      16.5000       0.4722      78.7732     146.5316     124.3760       0.2968       8.8004       1.8602
 3088.0812      16.5000       0.4727      76.6861     146.9977      97.3302       0.3130       8.8381       1.9169
 3088.2336      16.5000       0.4733      75.0214     151.7380      82.3816       0.3382       9.4550       2.0226
 3088.3860      16.5000       0.4739      75.5146     155.8305      81.4029       0.3465       9.6550       2.0636
 3088.5384      16.5000       0.4744      78.4214     159.8038      87.6818       0.3414      10.1624       2.0378
 3088.6908      16.5000       0.4750      82.4006     165.3653      89.6025       0.3348      10.9976       2.0068
 3088.8432      16.5000       0.4755      85.2753     168.3455      77.6593       0.3274      11.3557       1.9741
