~VERSION INFORMATION
VERS.           2.0   :CWLS Log ASCII Standard - VERSION 2.0
WRAP.           NO    :One Line per depth step
PROD.  Schlumberger   :LAS Producer
PROG.  DLIS to ASCII 2.3                               :LAS Program name and version
CREA.        2020/12/07 11:58                          :LAS Creation date {YYYY/MM/DD hh:mm}
DLIS_CREA.  2020-Dec-07 11:16                          :DLIS Creation date and time {YYYY-MMM-DD hh:mm}
SOURCE.     sonicVISION_2.dlis                         :DLIS File Name
FILE-ID.     ToolSpecific_ConPr_R05_Drill_SONICVISION9 :File Identification Number
#--------------------------------------------------
~WELL INFORMATION
#MNEM.UNIT      DATA             DESCRIPTION
#---- ------ --------------   -----------------------------
STRT .M      2896.9716       :START DEPTH     
STOP .M      3794.9124       :STOP DEPTH     
STEP .M         0.1524       :STEP     
NULL .          -999.25      :NULL VALUE
COMP .        BP Development Australia Pty Ltd         :COMPANY
WELL .        Ironbark-1                               :WELL
FLD  .        WA-359-2                                 :FIELD
LOC  .        Northern Carnarvon Basin                 :LOCATION
CNTY .                                                 :COUNTY
STAT .        Western Australia                        :STATE
CTRY .        Australia                                :COUNTRY
API  .                                                 :API NUMBER
UWI  .        20AWA0029                                :UNIQUE WELL ID
DATE .        30-Nov-2020                              :LOG DATE {DD-MMM-YYYY}
SRVC .        Schlumberger                             :SERVICE COMPANY
LATI .DEG     19° 9' 34.079" S                        :LATITUDE
LONG .DEG     116° 4' 35.795" E                       :LONGITUDE
GDAT .                                                 :GeoDetic Datum
#-----------------------------------------------------------------------------
~PARAMETER INFORMATION
#MNEM.UNIT    VALUE                      DESCRIPTION
#---- -----   --------------------       ------------------------
RUN  .          Run5_16.5in              :RUN NUMBER
PDAT .        MSL                        :Permanent Datum
EPD  .C3           0.000000              :Elevation of Permanent Datum above Mean Sea Level
LMF  .          DF                       :Logging Measured From (Name of Logging Elevation Reference)
APD  .M          23.850000               :Elevation of Depth Reference (LMF) above Permanent Datum
#-----------------------------------------------------------------------------
~CURVE INFORMATION
#MNEM.UNIT   API CODE                                  DESCRIPTION
#---- -----  --------                                  -----------------------
DEPT .M                                                :DEPTH (BOREHOLE) {F10.4}
BS   .IN                                               :Bit Size {F13.4}
DEVI .DEG                                              :Hole Deviation {F13.4}
DTCO_MPS.US/F                                          : {F13.4}
DTSH_MPS.US/F                                          :Shear slowness {F13.4}
GR_ARC.GAPI                                            :ARC Gamma Ray {F13.4}
PR   .UNITLESS                                         :Possion's Ratio {F13.4}
ROP5 .M/HR                                             :Rate of penetration averaged over the last 5 ft (1.5 m) {F13.4}
VPVS .UNITLESS                                         :VpVs Ratio {F13.4}
#-----------------------------------------------------------------------------
# 
#     DEPT        BS           DEVI       DTCO_MPS     DTSH_MPS      GR_ARC        PR           ROP5         VPVS
#
~A  
# ...
 3430.3716      16.5000       2.7740      87.6921     169.3939     140.0023       0.3169      25.5717       1.9317
 3430.5240      16.5000       2.7734      85.6974     167.9677     136.5344       0.3240      22.8196       1.9600
 3430.6764      16.5000       2.7728      84.1096     168.5625     130.1234       0.3342      20.4227       2.0041
 3430.8288      16.5000       2.7721      83.7460     170.1987     133.8262       0.3403      19.3409       2.0323
 3430.9812      16.5000       2.7715      83.9214     171.6010     140.1802       0.3428      18.2298       2.0448
 3431.1336      16.5000       2.7708      83.8789     172.3278     138.2204       0.3448      18.2936       2.0545
 3431.2860      16.5000       2.7702      84.2651     173.2083     134.0132       0.3450      19.0466       2.0555
 3431.4384      16.5000       2.7695      84.9593     173.9883     130.4902       0.3435      17.9238       2.0479
 3431.5908      16.5000       2.7689      85.3065     174.3652     129.2915       0.3427      16.1805       2.0440
 3431.7432      16.5000       2.7683      84.5177     173.8956     129.2482       0.3454      15.6537       2.0575
 3431.8956      16.5000       2.7677      83.7966     173.1007     124.6359       0.3470      16.0850       2.0657
 3432.0480      16.5000       2.7670      83.8071     172.1488     115.3391       0.3447      17.1847       2.0541
 3432.2004      16.5000       2.7664      84.5102     171.5807     105.0996       0.3399      18.3846       2.0303
 3432.3528      16.5000       2.7657      84.4986     171.9172     101.4971       0.3407      20.3978       2.0346
 3432.5052      16.5000       2.7651      84.7200     173.3549     105.8951       0.3431      21.7541       2.0462
 3432.6576      16.5000       2.7645      83.9636     175.0471     116.7621       0.3506      21.8651       2.0848
 3432.8100      16.5000       2.7638      83.8249     175.5534     134.4286       0.3523      22.0184       2.0943
 3432.9624      16.5000       2.7633      83.9943     174.7528     143.1952       0.3498      21.8393       2.0805
 3433.1148      16.5000       2.7625      84.3547     173.1384     133.8533       0.3444      24.3685       2.0525
 3433.2672      16.5000       2.7619      84.4733     171.6843     122.4813       0.3403      24.5888       2.0324
 3433.4196      16.5000       2.7611      86.7600     170.5457     117.9809       0.3254      22.9504       1.9657
 3433.5720      16.5000       2.7607      88.5028     170.0854     120.5527       0.3144      20.2784       1.9218
 3433.7244      16.5000       2.7600      89.6081     169.8512     130.4138       0.3072      22.1751       1.8955
 3433.8768      16.5000       2.7593      90.2697     169.7671     136.9003       0.3029      22.0025       1.8807
 3434.0292      16.5000       2.7587      91.1753     169.6918     137.9788       0.2971      19.6573       1.8612
 3434.1816      16.5000       2.7581      91.9700     169.6863     137.8911       0.2920      19.3584       1.8450
 3434.3340      16.5000       2.7575      92.3510     169.6702     140.0037       0.2895      18.5939       1.8372
 3434.4864      16.5000       2.7569      91.8858     169.7279     145.5422       0.2927      15.6082       1.8472
 3434.6388      16.5000       2.7562      91.4634     169.8366     142.7804       0.2958      14.5649       1.8569
 3434.7912      16.5000       2.7556      92.3309     169.4018     137.5684       0.2887      13.6341       1.8347
 3434.9436      16.5000       2.7550      92.7641     168.8870     136.8571       0.2840      12.1520       1.8206
 3435.0960      16.5000       2.7542      92.3355     168.5838     132.6790       0.2857      13.3167       1.8258
 3435.2484      16.5000       2.7537      90.0517     166.3634     130.6365       0.2928      12.0290       1.8474
 3435.4008      16.5000       2.7529      86.9515     163.3242     135.0025       0.3022      10.9482       1.8783
 3435.5532      16.5000       2.7523      83.3456     160.6706     138.7110       0.3159      10.3853       1.9278
 3435.7056      16.5000       2.7518      77.9666     157.5136     135.0764       0.3377      10.0712       2.0203
 3435.8580      16.5000       2.7512      77.4219     156.0539     128.6855       0.3367      10.2825       2.0156
 3436.0104      16.5000       2.7505      79.3164     158.0260     126.3352       0.3316      11.8812       1.9924
 3436.1628      16.5000       2.7499      81.3461     163.6951     126.1427       0.3360      12.1053       2.0123
 3436.3152      16.5000       2.7492      83.2233     169.6919     126.4723       0.3416      12.6510       2.0390
 3436.4676      16.5000       2.7486      84.6485     173.0832     126.4462       0.3428      13.3978       2.0447
 3436.6200      16.5000       2.7480      87.0862     174.1238     125.1464       0.3332      11.8209       1.9994
 3436.7724      16.5000       2.7475      88.4649     174.1346     120.3960       0.3261      11.5960       1.9684
 3436.9248      16.5000       2.7468      88.6764     173.6889     114.2290       0.3237      12.2319       1.9587
 3437.0772      16.5000       2.7460      87.6577     173.1800     112.6410       0.3278      13.2758       1.9756
 3437.2296      16.5000       2.7455      86.3251     173.1900     113.2762       0.3347      12.4695       2.0063
 3437.3820      16.5000       2.7449      85.8533     173.5690     119.9269       0.3380      11.9844       2.0217
 3437.5344      16.5000       2.7442      86.6315     173.9309     132.9713       0.3350      11.2467       2.0077
 3437.6868      16.5000       2.7435      87.5380     174.0839     139.0365       0.3308      11.5305       1.9887
 3437.8392      16.5000       2.7429      88.4429     174.2180     136.9922       0.3264      11.3138       1.9698
 3437.9916      16.5000       2.7422      89.3612     174.5988     132.6255       0.3225      12.0762       1.9539
 3438.1440      16.5000       2.7419      89.7740     175.2604     130.2124       0.3221      12.5601       1.9522
 3438.2964      16.5000       2.7420      89.8439     175.8104     133.3528       0.3233      12.3005       1.9568
 3438.4488      16.5000       2.7422      89.5010     176.2204     134.7141       0.3262      11.2490       1.9689
 3438.6012      16.5000       2.7423      89.2873     176.1188     130.2105       0.3270       9.8192       1.9725
 3438.7536      16.5000       2.7425      89.0384     175.6896     128.0497       0.3272      11.1618       1.9732
 3438.9060      16.5000       2.7427      88.7300     175.1272     129.2193       0.3273      12.0071       1.9737
 3439.0584      16.5000       2.7429      88.0705     174.9847     126.9002       0.3304      12.2336       1.9869
 3439.2108      16.5000       2.7430      87.5594     175.0608     125.9991       0.3332      10.5289       1.9993
 3439.3632      16.5000       2.7432      87.1273     175.2474     129.1811       0.3358       9.0592       2.0114
 3439.5156      16.5000       2.7434      86.5133     175.0720     128.0021       0.3385       7.9993       2.0236
 3439.6680      16.5000       2.7435      86.0991     174.0971     126.7719       0.3381       8.3223       2.0221
 3439.8204      16.5000       2.7437      86.0412     172.9722     129.2052       0.3356       8.6515       2.0103
 3439.9728      16.5000       2.7438      86.5048     172.1409     131.2259       0.3311       7.8670       1.9900
 3440.1252      16.5000       2.7441      87.1383     171.9844     129.7193       0.3273       8.9234       1.9737
 3440.2776      16.5000       2.7442      87.4866     171.7774     127.5885       0.3249       8.4379       1.9635
 3440.4300      16.5000       2.7444      87.5259     171.0694     128.3245       0.3227       8.0573       1.9545
 3440.5824      16.5000       2.7446      87.7375     170.4959     129.2629       0.3199       8.2698       1.9433
 3440.7348      16.5000       2.7447      88.8049     169.8070     130.2011       0.3118       9.0293       1.9121
 3440.8872      16.5000       2.7449      89.5094     169.3242     128.3563       0.3061      10.1943       1.8917
