~VERSION INFORMATION
VERS.           2.0   :CWLS Log ASCII Standard - VERSION 2.0
WRAP.           NO    :One Line per depth step
PROD.  Schlumberger   :LAS Producer
PROG.  DLIS to ASCII 2.3                               :LAS Program name and version
CREA.        2021/01/04 14:54                          :LAS Creation date {YYYY/MM/DD hh:mm}
DLIS_CREA.  2021-Jan-04 14:41                          :DLIS Creation date and time {YYYY-MMM-DD hh:mm}
SOURCE.     PnS_Processed.dlis                         :DLIS File Name
FILE-ID.     ConPr_R08_Drill_ARC6_TELE675_SONICVISION6 :File Identification Number
#--------------------------------------------------
~WELL INFORMATION
#MNEM.UNIT      DATA             DESCRIPTION
#---- ------ --------------   -----------------------------
STRT .M      5170.0176       :START DEPTH     
STOP .M      5614.8732       :STOP DEPTH     
STEP .M         0.1524       :STEP     
NULL .          -999.25      :NULL VALUE
COMP .        BP Development Australia Pty Ltd         :COMPANY
WELL .        Ironbark-1                               :WELL
FLD  .        Ironbark                                 :FIELD
LOC  .        WA-359-P                                 :LOCATION
CNTY .                                                 :COUNTY
STAT .        Western Australia                        :STATE
CTRY .        Australia                                :COUNTRY
API  .                                                 :API NUMBER
UWI  .        20AWA0029                                :UNIQUE WELL ID
DATE .        30-Oct-2020                              :LOG DATE {DD-MMM-YYYY}
SRVC .        Schlumberger                             :SERVICE COMPANY
LATI .DEG     19° 9' 34.079" S                        :LATITUDE
LONG .DEG     116° 4' 35.795" E                       :LONGITUDE
GDAT .                                                 :GeoDetic Datum
#-----------------------------------------------------------------------------
~PARAMETER INFORMATION
#MNEM.UNIT    VALUE                      DESCRIPTION
#---- -----   --------------------       ------------------------
RUN  .          Run8_8.5in               :RUN NUMBER
PDAT .        MSL                        :Permanent Datum
EPD  .M           0.000000               :Elevation of Permanent Datum above Mean Sea Level
LMF  .          DF                       :Logging Measured From (Name of Logging Elevation Reference)
APD  .M          23.850000               :Elevation of Depth Reference (LMF) above Permanent Datum
#-----------------------------------------------------------------------------
~CURVE INFORMATION
#MNEM.UNIT   API CODE                                  DESCRIPTION
#---- -----  --------                                  -----------------------
MD   .M                                                :DEPTH (BOREHOLE) {F10.4}
BS   .IN                                               :Bit Size {F13.4}
DCAV .IN                                               :Density Caliper, Average - filtered if Orion compressed {F13.4}
DEVI .DEG                                              :Hole Deviation {F13.4}
DTCO_MPS.US/F                                          :Compressional slowness {F13.4}
DTSH_MPS.US/F                                          :Shear slowness {F13.4}
GR_ARC.GAPI                                            :ARC Gamma Ray {F13.4}
PR   .UNITLESS                                         :Possion's Ratio {F13.4}
ROP5 .M/HR                                             :Rate of penetration averaged over the last 5 ft (1.5 m) {F13.4}
VPVS .UNITLESS                                         :VpVs Ratio {F13.4}
#-----------------------------------------------------------------------------
# 
#      MD         BS           DCAV         DEVI       DTCO_MPS     DTSH_MPS      GR_ARC        PR           ROP5         VPVS
#
~A  
# ...
 5458.0536       8.5000       8.3087       0.1085      61.2660      96.8988      69.5349       0.1670      10.5344       1.5816
 5458.2060       8.5000       8.3032       0.1081      61.3514      97.1153      79.9378       0.1679      11.3533       1.5829
 5458.3584       8.5000       8.2995       0.1076      60.2728      97.8976      78.1011       0.1948      11.3678       1.6242
 5458.5108       8.5000       8.3212       0.1071      59.7579      99.0823      70.1715       0.2142      11.4003       1.6581
 5458.6632       8.5000       8.3291       0.1066      60.0122     100.0188      68.1787       0.2187      11.9825       1.6666
 5458.8156       8.5000       8.3396       0.1060      61.7065     100.6732      69.8715       0.1991      12.3100       1.6315
 5458.9680       8.5000       8.3168       0.1056      62.2397     100.8643      72.2354       0.1925      11.1911       1.6206
 5459.1204       8.5000       8.3035       0.1051      61.6279      99.9794      77.8223       0.1936      10.8777       1.6223
 5459.2728       8.5000       8.3109       0.1048      61.0792      99.1114      81.5512       0.1938      10.1079       1.6227
 5459.4252       8.5000       8.3224       0.1044      60.6728      98.9568      76.6118       0.1988       9.4387       1.6310
 5459.5776       8.5000       8.3341       0.1038      59.7702      98.9287      67.8413       0.2126      10.3066       1.6552
 5459.7300       8.5000       8.3516       0.1035      59.3834      99.2025      64.7154       0.2208      10.2249       1.6705
 5459.8824       8.5000       8.3712       0.1030      61.1012      99.7953      66.5909       0.2002      10.9906       1.6333
 5460.0348       8.5000       8.3591       0.1027      61.3049      99.7696      65.2124       0.1967      10.1657       1.6274
 5460.1872       8.5000       8.3228       0.1023      60.3193      99.2670      61.3742       0.2073       9.2346       1.6457
 5460.3396       8.5000       8.3227       0.1019      60.8685      98.4787      58.1039       0.1909       9.0479       1.6179
 5460.4920       8.5000       8.3306       0.1016      60.5673      97.8881      56.9221       0.1898       8.8403       1.6162
 5460.6444       8.5000       8.3279       0.1011      59.2260      97.6582      58.9637       0.2091       9.0749       1.6489
 5460.7968       8.5000       8.3295       0.1009      59.9273      97.6371      60.1564       0.1978       8.8170       1.6293
 5460.9492       8.5000       8.3303       0.1006      61.1849      97.3467      59.1108       0.1735       8.9708       1.5910
 5461.1016       8.5000       8.3806       0.1002      61.4535      96.9352      58.5754       0.1640       8.7838       1.5774
 5461.2540       8.5000       8.3357       0.0999      60.2664      96.4590      59.2164       0.1798       8.9199       1.6005
 5461.4064       8.5000       8.3048       0.0995      59.0950      96.1334      58.5079       0.1963       8.9030       1.6268
 5461.5588       8.5000       8.3078       0.0993      59.2308      96.5012      59.4229       0.1978       9.1108       1.6292
 5461.7112       8.5000       8.3254       0.0990      61.1302      97.6396      63.5466       0.1777       9.7569       1.5972
 5461.8636       8.5000       8.3533       0.0987      63.0955      98.6844      60.8102       0.1543      10.1071       1.5640
 5462.0160       8.5000       8.3810       0.0984      62.6899      99.1248      55.0376       0.1667      10.4529       1.5812
 5462.1684       8.5000       8.3587       0.0982      61.8594      99.3391      60.7403       0.1833      10.0548       1.6059
 5462.3208       8.5000       8.3482       0.0979      62.5661      99.4302      68.3122       0.1723      11.6193       1.5892
 5462.4732       8.5000       8.3395       0.0978      61.6915      98.6102      66.0137       0.1785      11.0534       1.5984
 5462.6256       8.5000       8.3166       0.0975      60.1537      97.6331      62.1703       0.1941      10.2561       1.6231
 5462.7780       8.5000       8.2919       0.0974      60.2542      97.3210      63.8476       0.1892       9.7406       1.6152
 5462.9304       8.5000       8.3095       0.0971      60.3658      97.3368      64.4343       0.1875       9.7950       1.6124
 5463.0828       8.5000       8.3078       0.0969      61.0292      97.5042      60.1476       0.1779      10.5424       1.5977
 5463.2352       8.5000       8.3323       0.0968      62.3293      97.5648      60.4008       0.1552      11.1704       1.5653
 5463.3876       8.5000       8.3225       0.0966      63.0544      98.0816      65.3650       0.1478       9.7412       1.5555
 5463.5400       8.5000       8.3139       0.0965      63.1639      98.5147      70.9857       0.1510      10.3280       1.5597
 5463.6924       8.5000       8.3042       0.0964      62.1461      98.7626      79.1778       0.1723      10.2771       1.5892
 5463.8448       8.5000       8.3025       0.0962      62.3954      98.8771      80.4818       0.1691      11.1453       1.5847
 5463.9972       8.5000       8.2780       0.0961      62.1384      98.9089      70.4508       0.1740      11.2307       1.5918
 5464.1496       8.5000       8.3260       0.0960      60.7773      98.5661      63.9005       0.1933      11.5716       1.6218
 5464.3020       8.5000       8.3352       0.0960      60.6838      98.5380      64.8973       0.1945      12.1743       1.6238
 5464.4544       8.5000       8.3422       0.0959      60.8133      98.3321      61.1110       0.1903      11.7133       1.6169
 5464.6068       8.5000       8.3336       0.0958      61.7514      98.1628      60.0067       0.1726      10.7510       1.5896
 5464.7592       8.5000       8.3532       0.0958      61.0404      98.3011      88.3660       0.1862      10.0470       1.6104
 5464.9116       8.5000       8.3938       0.0957      58.9977      98.1506     141.7735       0.2171      10.5552       1.6636
 5465.0640       8.5000       8.3419       0.0957      58.6332   -9999.0000     187.3837   -9999.0000       9.5511   -9999.0000
 5465.2164       8.5000       8.3378       0.0957      59.7139   -9999.0000     211.2692   -9999.0000      10.3958   -9999.0000
 5465.3688       8.5000       8.3190       0.0957      60.6566   -9999.0000     195.1175   -9999.0000      10.3726   -9999.0000
 5465.5212       8.5000       8.3696       0.0957      60.9553   -9999.0000     148.8500   -9999.0000      11.6320   -9999.0000
 5465.6736       8.5000       8.3817       0.0957      61.5627   -9999.0000     134.7550   -9999.0000      12.6430   -9999.0000
 5465.8260       8.5000       8.3631       0.0958      66.2876   -9999.0000     155.7796   -9999.0000      14.0679   -9999.0000
 5465.9784       8.5000       8.3437       0.0958      73.8709   -9999.0000     169.0750   -9999.0000      12.4656   -9999.0000
 5466.1308       8.5000       8.3480       0.0959      76.4050   -9999.0000     170.2338   -9999.0000      14.9094   -9999.0000
 5466.2832       8.5000       8.3368       0.0960      76.6432   -9999.0000     171.7980   -9999.0000      16.9133   -9999.0000
 5466.4356       8.5000       8.3463       0.0961      76.4878     142.4851     173.5892       0.2976      22.9010       1.8628
 5466.5880       8.5000       8.3502       0.0962      75.7351     147.6405     174.8285       0.3214      33.1035       1.9494
 5466.7404       8.5000       8.3382       0.0963      76.6602     152.0922     178.2265       0.3297      34.4013       1.9840
 5466.8928       8.5000       8.3166       0.0964      81.5219     156.4269     181.7483       0.3136      31.2219       1.9188
 5467.0452       8.5000       8.3164       0.0965      86.4356     162.9196     182.1164       0.3041      29.0740       1.8849
 5467.1976       8.5000       8.3135       0.0967      87.9526     165.8364     178.6385       0.3043      29.7667       1.8855
 5467.3500       8.5000       8.3199       0.0969      88.7597     164.6849     176.5105       0.2953      31.0270       1.8554
 5467.5024       8.5000       8.3268       0.0970      89.2652     164.7252     178.8741       0.2921      43.9724       1.8453
