~VERSION INFORMATION
VERS.           2.0   :CWLS Log ASCII Standard - VERSION 2.0
WRAP.           NO    :One Line per depth step
PROD.  Schlumberger   :LAS Producer
PROG.  DLIS to ASCII 2.3                               :LAS Program name and version
CREA.        2020/12/24 10:22                          :LAS Creation date {YYYY/MM/DD hh:mm}
DLIS_CREA.  2020-Dec-24 10:21                          :DLIS Creation date and time {YYYY-MMM-DD hh:mm}
SOURCE.     PNS_Processed.dlis                         :DLIS File Name
FILE-ID.     ToolSpecific_ConPr_R07_Drill_SONICVISION8 :File Identification Number
#--------------------------------------------------
~WELL INFORMATION
#MNEM.UNIT      DATA             DESCRIPTION
#---- ------ --------------   -----------------------------
STRT .M      4299.9660       :START DEPTH     
STOP .M      5201.7168       :STOP DEPTH     
STEP .M         0.1524       :STEP     
NULL .          -999.25      :NULL VALUE
COMP .        BP Development Australia Pty Ltd         :COMPANY
WELL .        Ironbark-1                               :WELL
FLD  .        Ironbark                                 :FIELD
LOC  .        WA-359-P                                 :LOCATION
CNTY .                                                 :COUNTY
STAT .        Western Australia                        :STATE
CTRY .        Australia                                :COUNTRY
API  .                                                 :API NUMBER
UWI  .        20AWA0029                                :UNIQUE WELL ID
DATE .        30-Oct-2020                              :LOG DATE {DD-MMM-YYYY}
SRVC .        Schlumberger                             :SERVICE COMPANY
LATI .DEG     19° 9' 34.079" S                        :LATITUDE
LONG .DEG     116° 4' 35.795" E                       :LONGITUDE
GDAT .                                                 :GeoDetic Datum
#-----------------------------------------------------------------------------
~PARAMETER INFORMATION
#MNEM.UNIT    VALUE                      DESCRIPTION
#---- -----   --------------------       ------------------------
RUN  .          7                        :RUN NUMBER
PDAT .        MSL                        :Permanent Datum
EPD  .M           0.000000               :Elevation of Permanent Datum above Mean Sea Level
LMF  .          DF                       :Logging Measured From (Name of Logging Elevation Reference)
APD  .M          23.850000               :Elevation of Depth Reference (LMF) above Permanent Datum
#-----------------------------------------------------------------------------
~CURVE INFORMATION
#MNEM.UNIT   API CODE                                  DESCRIPTION
#---- -----  --------                                  -----------------------
MD   .M                                                :DEPTH (BOREHOLE) {F10.4}
BS   .IN                                               :Bit Size {F13.4}
DCAV .IN                                               :Density Caliper, Average - filtered if Orion compressed {F13.4}
DEVI .DEG                                              :Hole Deviation {F13.4}
DTCO_MPS.US/F                                          :Compressional slowness {F13.4}
DTSH_MPS.US/F                                          :Shear slowness {F13.4}
GR_ARC.GAPI                                            :ARC Gamma Ray {F13.4}
PR   .UNITLESS                                         :Possion's Ratio {F13.4}
ROP5 .M/HR                                             :Rate of penetration averaged over the last 5 ft (1.5 m) {F13.4}
VPVS .UNITLESS                                         :VpVs Ratio {F13.4}
#-----------------------------------------------------------------------------
# 
#      MD         BS           DCAV         DEVI       DTCO_MPS     DTSH_MPS      GR_ARC        PR           ROP5         VPVS
#
~A  
# ...
 4530.3948      12.2500      12.2698       1.1009      76.3574     143.9809     162.6819       0.3041      29.0072       1.8855
 4530.5472      12.2500      12.2698       1.1038      75.2293     140.7741     154.0228       0.3001      32.6819       1.8714
 4530.6996      12.2500      12.2698       1.1065      73.2334     138.3111     141.4299       0.3052      31.3717       1.8887
 4530.8520      12.2500      12.2698       1.1091      72.6782     135.7970     128.7292       0.2992      30.4598       1.8684
 4531.0044      12.2500      12.2031       1.1119      72.0660     133.8046     123.8528       0.2957      31.3171       1.8567
 4531.1568      12.2500      12.2327       1.1144      72.5507     135.1716     130.0833       0.2977      30.9645       1.8631
 4531.3092      12.2500      12.2624       1.1174      72.8662     136.4540     140.8162       0.3005      31.3055       1.8728
 4531.4616      12.2500      12.2920       1.1198      72.6417     135.6705     144.0200       0.2990      33.4594       1.8677
 4531.6140      12.2500      12.2809       1.1228      72.5784     134.2310     140.4211       0.2934      38.8858       1.8495
 4531.7664      12.2500      12.2698       1.1255      72.5837     134.5871     140.4444       0.2949      38.8102       1.8542
 4531.9188      12.2500      12.2865       1.1284      73.3355     137.1276     143.4379       0.2997      40.1780       1.8699
 4532.0712      12.2500      12.3031       1.1309      73.6762     138.8058     141.1753       0.3038      38.3121       1.8840
 4532.2236      12.2500      12.2698       1.1335      73.4364     139.6597     137.0516       0.3089      35.8730       1.9018
 4532.3760      12.2500      12.2920       1.1365      73.7852     139.7762     139.8549       0.3068      36.2623       1.8945
 4532.5284      12.2500      12.3143       1.1391      73.9772     139.2182     137.6104       0.3033      36.4199       1.8820
 4532.6808      12.2500      12.3365       1.1425      72.8170     137.9208     127.2895       0.3068      36.5864       1.8941
 4532.8332      12.2500      12.3365       1.1445      73.2958     139.0695     130.8764       0.3077      31.1100       1.8974
 4532.9856      12.2500      12.2697       1.1473      76.0367     143.3135     140.2738       0.3041      30.3882       1.8849
 4533.1380      12.2500      12.2031       1.1503      77.1986     144.7706     139.8489       0.3013      29.6634       1.8753
 4533.2904      12.2500      12.2698       1.1530      78.0800     145.2269     138.3564       0.2966      27.5175       1.8600
 4533.4428      12.2500      12.2253       1.1554      77.3913     140.6239     136.0672       0.2826      25.5755       1.8169
 4533.5952      12.2500      12.1809       1.1585      74.8874     133.8589     130.3913       0.2718      26.6816       1.7872
 4533.7476      12.2500      12.1364       1.1614      70.2467     124.9697     120.9833       0.2690      28.9050       1.7798
 4533.9000      12.2500      12.1364       1.1640      65.8852     119.9358     106.1702       0.2835      29.3550       1.8205
 4534.0524      12.2500      12.2031       1.1673      64.2946     115.3838      93.5029       0.2745      29.7815       1.7947
 4534.2048      12.2500      12.2031       1.1693      65.0739     118.4753      94.9519       0.2839      27.0410       1.8207
 4534.3572      12.2500      12.1864       1.1721      67.7988     124.1659     110.1448       0.2875      26.8374       1.8312
 4534.5096      12.2500      12.1697       1.1750      70.8447     131.5078     126.8212       0.2954      25.3791       1.8561
 4534.6620      12.2500      12.1531       1.1778      71.9433     134.7068     140.5128       0.3004      24.2321       1.8724
 4534.8144      12.2500      12.1364       1.1807      71.5275     130.0936     148.5947       0.2823      24.9775       1.8187
 4534.9668      12.2500      12.2031       1.1837      70.4335     121.6007     144.6786       0.2470      24.8719       1.7263
 4535.1192      12.2500      12.2698       1.1860      68.3194     115.0361     133.4293       0.2268      19.9657       1.6837
 4535.2716      12.2500      12.2920       1.1888      66.1745     113.1534     121.6596       0.2383      18.4317       1.7113
 4535.4240      12.2500      12.3143       1.1919      64.5628     114.1152     107.2449       0.2641      18.0466       1.7676
 4535.5764      12.2500      12.3365       1.1945      67.8420     124.2525      92.0547       0.2855      17.1635       1.8290
 4535.7288      12.2500      12.2031       1.1971      74.2950     142.8752      85.3589       0.3143      17.3126       1.9224
 4535.8812      12.2500      12.1864       1.2000      75.3427     146.2960      90.2878       0.3195      17.6202       1.9417
 4536.0336      12.2500      12.1697       1.2030      75.6035     148.4727      98.5910       0.3249      17.8265       1.9638
 4536.1860      12.2500      12.2087       1.2056      76.3036     150.7123     102.0823       0.3276      17.3658       1.9751
 4536.3384      12.2500      12.2476       1.2085      79.0111     157.3248     107.7859       0.3313      17.6326       1.9911
 4536.4908      12.2500      12.2253       1.2114      85.8756     172.2061     123.6658       0.3344      18.3128       2.0051
 4536.6432      12.2500      12.2031       1.2140      88.4925     178.0300     137.4085       0.3359      21.2528       2.0119
 4536.7956      12.2500      12.2364       1.2167      87.1257     175.7186     141.4847       0.3370      22.3040       2.0168
 4536.9480      12.2500      12.2698       1.2198      85.3347     172.9331     143.1348       0.3391      22.6170       2.0266
 4537.1004      12.2500      12.2031       1.2226      84.8723     170.9991     141.9096       0.3365      22.9349       2.0148
 4537.2528      12.2500      12.2031       1.2251      84.9902     168.5418     139.9834       0.3294      23.1739       1.9831
 4537.4052      12.2500      12.2365       1.2280      84.8384     164.9334     143.0746       0.3200      24.1664       1.9442
 4537.5576      12.2500      12.2698       1.2309      83.0594     163.3785     147.0155       0.3257      24.2615       1.9672
 4537.7100      12.2500      12.2698       1.2332      81.4338     162.8294     148.4708       0.3332      25.2152       1.9996
 4537.8624      12.2500      12.2698       1.2366      80.7105     162.1689     149.3525       0.3354      26.0543       2.0093
 4538.0148      12.2500      12.2698       1.2393      80.2722     161.5898     150.4360       0.3362      26.1064       2.0130
 4538.1672      12.2500      12.4032       1.2420      79.9227     160.2093     148.7151       0.3343      26.1844       2.0045
 4538.3196      12.2500      12.2031       1.2450      79.0512     156.5383     144.4413       0.3288      27.3050       1.9802
 4538.4720      12.2500      12.3365       1.2478      78.0898     154.4134     145.1123       0.3282      27.3196       1.9774
 4538.6244      12.2500      12.2698       1.2506      77.4610     154.8366     148.2548       0.3331      27.6435       1.9989
 4538.7768      12.2500      12.3365       1.2534      77.4933     155.4404     144.7625       0.3346      27.8654       2.0059
 4538.9292      12.2500      12.3365       1.2562      77.7972     155.7615     140.3106       0.3338      27.9838       2.0022
 4539.0816      12.2500      12.3365       1.2590      77.7362     154.6643     138.9254       0.3310      28.5201       1.9897
 4539.2340      12.2500      12.2031       1.2618      76.3399     155.1435     135.8831       0.3401      28.6112       2.0324
 4539.3864      12.2500      12.2365       1.2647      75.5318     153.6487     131.7297       0.3404      28.3040       2.0341
 4539.5388      12.2500      12.2698       1.2676      74.1386     147.7832     128.0331       0.3318      28.7561       1.9933
 4539.6912      12.2500      12.3365       1.2704      72.3401     142.5590     125.4270       0.3264      29.5472       1.9706
 4539.8436      12.2500      12.3365       1.2732      72.5979     141.5334     122.5661       0.3213      28.2364       1.9494
