~VERSION INFORMATION
VERS.           2.0   :CWLS Log ASCII Standard - VERSION 2.0
WRAP.           NO    :One Line per depth step
PROD.  Schlumberger   :LAS Producer
PROG.  DLIS to ASCII 2.3                               :LAS Program name and version
CREA.        2020/12/07 11:58                          :LAS Creation date {YYYY/MM/DD hh:mm}
DLIS_CREA.  2020-Dec-07 11:16                          :DLIS Creation date and time {YYYY-MMM-DD hh:mm}
SOURCE.     sonicVISION_2.dlis                         :DLIS File Name
FILE-ID.     ToolSpecific_ConPr_R05_Drill_SONICVISION9 :File Identification Number
#--------------------------------------------------
~WELL INFORMATION
#MNEM.UNIT      DATA             DESCRIPTION
#---- ------ --------------   -----------------------------
STRT .M      2896.9716       :START DEPTH     
STOP .M      3794.9124       :STOP DEPTH     
STEP .M         0.1524       :STEP     
NULL .          -999.25      :NULL VALUE
COMP .        BP Development Australia Pty Ltd         :COMPANY
WELL .        Ironbark-1                               :WELL
FLD  .        WA-359-2                                 :FIELD
LOC  .        Northern Carnarvon Basin                 :LOCATION
CNTY .                                                 :COUNTY
STAT .        Western Australia                        :STATE
CTRY .        Australia                                :COUNTRY
API  .                                                 :API NUMBER
UWI  .        20AWA0029                                :UNIQUE WELL ID
DATE .        30-Nov-2020                              :LOG DATE {DD-MMM-YYYY}
SRVC .        Schlumberger                             :SERVICE COMPANY
LATI .DEG     19° 9' 34.079" S                        :LATITUDE
LONG .DEG     116° 4' 35.795" E                       :LONGITUDE
GDAT .                                                 :GeoDetic Datum
#-----------------------------------------------------------------------------
~PARAMETER INFORMATION
#MNEM.UNIT    VALUE                      DESCRIPTION
#---- -----   --------------------       ------------------------
RUN  .          Run5_16.5in              :RUN NUMBER
PDAT .        MSL                        :Permanent Datum
EPD  .C3           0.000000              :Elevation of Permanent Datum above Mean Sea Level
LMF  .          DF                       :Logging Measured From (Name of Logging Elevation Reference)
APD  .M          23.850000               :Elevation of Depth Reference (LMF) above Permanent Datum
#-----------------------------------------------------------------------------
~CURVE INFORMATION
#MNEM.UNIT   API CODE                                  DESCRIPTION
#---- -----  --------                                  -----------------------
DEPT .M                                                :DEPTH (BOREHOLE) {F10.4}
BS   .IN                                               :Bit Size {F13.4}
DEVI .DEG                                              :Hole Deviation {F13.4}
DTCO_MPS.US/F                                          : {F13.4}
DTSH_MPS.US/F                                          :Shear slowness {F13.4}
GR_ARC.GAPI                                            :ARC Gamma Ray {F13.4}
PR   .UNITLESS                                         :Possion's Ratio {F13.4}
ROP5 .M/HR                                             :Rate of penetration averaged over the last 5 ft (1.5 m) {F13.4}
VPVS .UNITLESS                                         :VpVs Ratio {F13.4}
#-----------------------------------------------------------------------------
# 
#     DEPT        BS           DEVI       DTCO_MPS     DTSH_MPS      GR_ARC        PR           ROP5         VPVS
#
~A  
# ...
 3718.4076      16.5000       2.9324      73.3800     128.3112     144.5476       0.2570       6.5911       1.7486
 3718.5600      16.5000       2.9325      72.5588     127.1039     129.5425       0.2583       5.8988       1.7517
 3718.7124      16.5000       2.9328      71.8979     127.1331     120.8772       0.2649       6.4425       1.7682
 3718.8648      16.5000       2.9327      70.4604     127.4058     118.3741       0.2797       5.8591       1.8082
 3719.0172      16.5000       2.9325      68.2710     128.8391     120.5167       0.3048       5.8166       1.8872
 3719.1696      16.5000       2.9324      69.8436     131.0472     124.6469       0.3016       5.8548       1.8763
 3719.3220      16.5000       2.9322      71.7059     132.9445     128.0723       0.2949       6.7123       1.8540
 3719.4744      16.5000       2.9321      72.6700     133.4626     130.5978       0.2893       6.4922       1.8366
 3719.6268      16.5000       2.9319      72.2800     133.2870     133.8193       0.2917       6.2784       1.8440
 3719.7792      16.5000       2.9318      72.0206     132.2839     138.6578       0.2894       6.0619       1.8368
 3719.9316      16.5000       2.9316      72.9210     131.6164     143.8686       0.2785       6.1191       1.8049
 3720.0840      16.5000       2.9314      73.2101     131.0893     146.6382       0.2734       5.9500       1.7906
 3720.2364      16.5000       2.9313      71.5648     130.2076     142.5461       0.2836       6.0505       1.8194
 3720.3888      16.5000       2.9311      69.8741     128.7395     132.8433       0.2912       6.5994       1.8425
 3720.5412      16.5000       2.9310      69.2011     127.0625     126.3917       0.2892       5.7373       1.8361
 3720.6936      16.5000       2.9308      69.9409     124.3241     127.8668       0.2685       5.9457       1.7776
 3720.8460      16.5000       2.9306      70.6969     121.4806     126.8994       0.2439       5.5209       1.7183
 3720.9984      16.5000       2.9305      70.2448     120.0745     113.4901       0.2398       5.4388       1.7094
 3721.1508      16.5000       2.9303      70.4284     120.8292      96.1762       0.2427       5.4616       1.7156
 3721.3032      16.5000       2.9301      71.1632     124.5473      89.7562       0.2576       5.7373       1.7502
 3721.4556      16.5000       2.9300      73.3940     129.5434      96.9001       0.2636       5.2806       1.7650
 3721.6080      16.5000       2.9298      75.9990     135.8366     109.1320       0.2722       5.8768       1.7873
 3721.7604      16.5000       2.9297      79.1378     141.5734     120.3006       0.2728       5.8988       1.7889
 3721.9128      16.5000       2.9295      80.5659     145.1403     127.9331       0.2773       5.7642       1.8015
 3722.0652      16.5000       2.9293      81.1266     146.0197     136.2668       0.2767       6.3891       1.7999
 3722.2176      16.5000       2.9292      81.5717     145.6171     143.5130       0.2713       5.9836       1.7851
 3722.3700      16.5000       2.9291      82.3281     145.5826     141.6866       0.2649       5.9526       1.7683
 3722.5224      16.5000       2.9289      82.7862     146.2417     138.5257       0.2642       6.3270       1.7665
 3722.6748      16.5000       2.9287      83.7499     147.5588     137.9799       0.2624       6.1604       1.7619
 3722.8272      16.5000       2.9286      83.8083     147.9786     137.6569       0.2639       6.1383       1.7657
 3722.9796      16.5000       2.9284      81.9495     146.3624     139.8858       0.2717       7.1985       1.7860
 3723.1320      16.5000       2.9283      78.9639     143.3629     142.6953       0.2823       6.3842       1.8156
 3723.2844      16.5000       2.9281      78.6967     140.5114     137.0173       0.2715       6.3404       1.7855
 3723.4368      16.5000       2.9280      80.5016     141.1394     127.2367       0.2589       5.9026       1.7532
 3723.5892      16.5000       2.9277      82.1722     144.3891     129.9785       0.2605       6.1673       1.7572
 3723.7416      16.5000       2.9276      81.6868     148.4436     137.7345       0.2828       6.0077       1.8172
 3723.8940      16.5000       2.9274      79.7544     152.2531     137.1425       0.3109       6.1412       1.9090
 3724.0464      16.5000       2.9273      80.2568     154.6561     133.2038       0.3157       5.6188       1.9270
 3724.1988      16.5000       2.9272      80.9385     155.5020     132.5809       0.3142       5.4734       1.9212
 3724.3512      16.5000       2.9270      81.0481     154.9988     137.9542       0.3118       5.1924       1.9124
 3724.5036      16.5000       2.9268      80.7210     153.3201     142.3071       0.3083       4.8510       1.8994
 3724.6560      16.5000       2.9267      80.9266     153.7284     137.1026       0.3083       5.0210       1.8996
 3724.8084      16.5000       2.9265      80.6334     153.4225     128.6887       0.3092       4.8746       1.9027
 3724.9608      16.5000       2.9263      80.1195     151.7804     129.3802       0.3069       5.2356       1.8944
 3725.1132      16.5000       2.9262      79.7847     149.2759     140.6485       0.3000       4.7083       1.8710
 3725.2656      16.5000       2.9260      81.3582     148.0963     150.2398       0.2839       4.9466       1.8203
 3725.4180      16.5000       2.9259      82.9217     147.5645     149.3027       0.2693       5.0413       1.7796
 3725.5704      16.5000       2.9257      82.7772     148.5400     134.4441       0.2748       5.4505       1.7945
 3725.7228      16.5000       2.9255      81.4328     149.7203     110.0485       0.2899       5.8929       1.8386
 3725.8752      16.5000       2.9254      80.1726     149.9987      92.5807       0.3000       6.3422       1.8709
 3726.0276      16.5000       2.9252      81.0195     149.3621      85.2613       0.2915       7.4271       1.8435
 3726.1800      16.5000       2.9251      82.3646     145.5092      77.4874       0.2643       8.5072       1.7666
 3726.3324      16.5000       2.9249      82.0608     138.3436      71.4623       0.2286       9.3390       1.6859
 3726.4848      16.5000       2.9247      80.2864     135.2776      72.3041       0.2281       9.0123       1.6849
 3726.6372      16.5000       2.9246      78.3864     133.9116      76.8137       0.2394      10.7483       1.7084
 3726.7896      16.5000       2.9244      76.8536     133.9417      86.4703       0.2546      10.6621       1.7428
 3726.9420      16.5000       2.9243      75.1405     135.0835     103.7156       0.2760      10.4304       1.7977
 3727.0944      16.5000       2.9241      73.4482     138.0015     121.0194       0.3024      10.0388       1.8789
 3727.2468      16.5000       2.9239      73.9429     139.9100     128.6999       0.3062       9.2260       1.8921
 3727.3992      16.5000       2.9238      76.1465     141.2822     130.7479       0.2953       7.7691       1.8554
 3727.5516      16.5000       2.9236      79.1199     142.6846     130.0107       0.2780       7.3551       1.8034
 3727.7040      16.5000       2.9235      81.4444     145.5921     128.5488       0.2723       6.5382       1.7876
 3727.8564      16.5000       2.9233      82.7292     148.4971     133.4988       0.2750       5.4877       1.7950
 3728.0088      16.5000       2.9231      83.0553     149.3534     141.1323       0.2762       5.6848       1.7982
 3728.1612      16.5000       2.9230      82.9045     147.9696     142.4517       0.2712       5.1615       1.7848
 3728.3136      16.5000       2.9228      81.8437     146.5735     140.0732       0.2735       5.0822       1.7909
 3728.4660      16.5000       2.9227      81.2585     146.7831     139.9272       0.2791       4.5310       1.8064
 3728.6184      16.5000       2.9225      80.9334     147.2840     138.0874       0.2837       4.5436       1.8198
 3728.7708      16.5000       2.9224      81.3344     147.0253     136.3571       0.2795       4.5679       1.8077
 3728.9232      16.5000       2.9221      81.0533     145.1448     132.9408       0.2734       4.9654       1.7907
