~VERSION INFORMATION
VERS.           2.0   :CWLS Log ASCII Standard - VERSION 2.0
WRAP.           NO    :One Line per depth step
PROD.  Schlumberger   :LAS Producer
PROG.  DLIS to ASCII 2.3                               :LAS Program name and version
CREA.        2020/12/07 11:58                          :LAS Creation date {YYYY/MM/DD hh:mm}
DLIS_CREA.  2020-Dec-07 11:16                          :DLIS Creation date and time {YYYY-MMM-DD hh:mm}
SOURCE.     sonicVISION_2.dlis                         :DLIS File Name
FILE-ID.     ToolSpecific_ConPr_R05_Drill_SONICVISION9 :File Identification Number
#--------------------------------------------------
~WELL INFORMATION
#MNEM.UNIT      DATA             DESCRIPTION
#---- ------ --------------   -----------------------------
STRT .M      2896.9716       :START DEPTH     
STOP .M      3794.9124       :STOP DEPTH     
STEP .M         0.1524       :STEP     
NULL .          -999.25      :NULL VALUE
COMP .        BP Development Australia Pty Ltd         :COMPANY
WELL .        Ironbark-1                               :WELL
FLD  .        WA-359-2                                 :FIELD
LOC  .        Northern Carnarvon Basin                 :LOCATION
CNTY .                                                 :COUNTY
STAT .        Western Australia                        :STATE
CTRY .        Australia                                :COUNTRY
API  .                                                 :API NUMBER
UWI  .        20AWA0029                                :UNIQUE WELL ID
DATE .        30-Nov-2020                              :LOG DATE {DD-MMM-YYYY}
SRVC .        Schlumberger                             :SERVICE COMPANY
LATI .DEG     19° 9' 34.079" S                        :LATITUDE
LONG .DEG     116° 4' 35.795" E                       :LONGITUDE
GDAT .                                                 :GeoDetic Datum
#-----------------------------------------------------------------------------
~PARAMETER INFORMATION
#MNEM.UNIT    VALUE                      DESCRIPTION
#---- -----   --------------------       ------------------------
RUN  .          Run5_16.5in              :RUN NUMBER
PDAT .        MSL                        :Permanent Datum
EPD  .C3           0.000000              :Elevation of Permanent Datum above Mean Sea Level
LMF  .          DF                       :Logging Measured From (Name of Logging Elevation Reference)
APD  .M          23.850000               :Elevation of Depth Reference (LMF) above Permanent Datum
#-----------------------------------------------------------------------------
~CURVE INFORMATION
#MNEM.UNIT   API CODE                                  DESCRIPTION
#---- -----  --------                                  -----------------------
DEPT .M                                                :DEPTH (BOREHOLE) {F10.4}
BS   .IN                                               :Bit Size {F13.4}
DEVI .DEG                                              :Hole Deviation {F13.4}
DTCO_MPS.US/F                                          : {F13.4}
DTSH_MPS.US/F                                          :Shear slowness {F13.4}
GR_ARC.GAPI                                            :ARC Gamma Ray {F13.4}
PR   .UNITLESS                                         :Possion's Ratio {F13.4}
ROP5 .M/HR                                             :Rate of penetration averaged over the last 5 ft (1.5 m) {F13.4}
VPVS .UNITLESS                                         :VpVs Ratio {F13.4}
#-----------------------------------------------------------------------------
# 
#     DEPT        BS           DEVI       DTCO_MPS     DTSH_MPS      GR_ARC        PR           ROP5         VPVS
#
~A  
# ...
 3366.3636      16.5000       2.9211      87.9785     164.8017     142.1829       0.3007      19.6913       1.8732
 3366.5160      16.5000       2.9210      87.9150     165.6238     140.3797       0.3039      19.2046       1.8839
 3366.6684      16.5000       2.9210      87.9095     165.7754     137.2177       0.3044      20.4418       1.8857
 3366.8208      16.5000       2.9209      87.8965     165.8133     134.3033       0.3046      22.0416       1.8865
 3366.9732      16.5000       2.9208      87.9466     165.3361     136.7483       0.3027      26.0940       1.8800
 3367.1256      16.5000       2.9207      87.9626     164.9852     133.8870       0.3014      24.2635       1.8756
 3367.2780      16.5000       2.9207      88.5001     166.8668     121.8194       0.3043      24.8599       1.8855
 3367.4304      16.5000       2.9206      89.0617     169.5788     118.6782       0.3096      25.8955       1.9041
 3367.5828      16.5000       2.9205      89.6066     170.9024     128.4600       0.3104      26.0481       1.9073
 3367.7352      16.5000       2.9205      88.8725     170.8881     139.6211       0.3146      23.9910       1.9228
 3367.8876      16.5000       2.9204      88.2447     169.9330     144.8144       0.3154      23.7222       1.9257
 3368.0400      16.5000       2.9203      88.0317     167.3419     139.2660       0.3087      22.9109       1.9009
 3368.1924      16.5000       2.9203      86.5759     164.2021     128.5871       0.3075      20.0633       1.8966
 3368.3448      16.5000       2.9202      84.5784     162.3554     127.2041       0.3138      19.3264       1.9196
 3368.4972      16.5000       2.9201      82.0221     161.1371     131.1220       0.3251      17.0366       1.9646
 3368.6496      16.5000       2.9200      81.1543     162.1263     130.7380       0.3328      16.8771       1.9978
 3368.8020      16.5000       2.9200      81.7754     163.0788     127.0626       0.3320      16.6692       1.9942
 3368.9544      16.5000       2.9199      83.0822     163.8376     123.7019       0.3269      17.0594       1.9720
 3369.1068      16.5000       2.9198      83.7529     166.8268     128.1439       0.3315      16.8571       1.9919
 3369.2592      16.5000       2.9198      84.6343     171.1604     134.0698       0.3382      16.7936       2.0224
 3369.4116      16.5000       2.9197      86.2612     174.1046     133.6079       0.3373      16.1906       2.0183
 3369.5640      16.5000       2.9196      87.8372     176.0024     136.0476       0.3342      16.1059       2.0037
 3369.7164      16.5000       2.9196      88.9819     176.3949     143.2852       0.3293      17.1046       1.9824
 3369.8688      16.5000       2.9195      89.1118     174.7957     145.0948       0.3244      17.2287       1.9615
 3370.0212      16.5000       2.9194      87.8398     170.6288     141.5889       0.3197      19.7304       1.9425
 3370.1736      16.5000       2.9194      86.3315     167.8258     139.6169       0.3201      19.5004       1.9440
 3370.3260      16.5000       2.9193      85.3676     169.2440     133.2888       0.3294      18.8319       1.9825
 3370.4784      16.5000       2.9192      85.5931     172.8302     115.5311       0.3375      17.5280       2.0192
 3370.6308      16.5000       2.9192      86.1656     175.6849     106.5966       0.3416      15.3815       2.0389
 3370.7832      16.5000       2.9191      87.8102     176.9706     121.2846       0.3367      15.2188       2.0154
 3370.9356      16.5000       2.9190      88.8317     176.2248     135.5741       0.3297      14.8823       1.9838
 3371.0880      16.5000       2.9190      88.8689     173.8617     137.5359       0.3232      14.7120       1.9564
 3371.2404      16.5000       2.9189      87.3988     172.0626     133.6404       0.3261      15.3694       1.9687
 3371.3928      16.5000       2.9188      86.2931     171.7954     124.6037       0.3313      15.5878       1.9908
 3371.5452      16.5000       2.9188      86.2969     172.8286     122.5527       0.3339      15.1885       2.0027
 3371.6976      16.5000       2.9187      86.7525     173.8398     129.8159       0.3342      15.8018       2.0039
 3371.8500      16.5000       2.9186      87.6006     174.6699     130.7106       0.3320      16.0864       1.9939
 3372.0024      16.5000       2.9186      88.4170     174.9799     126.8670       0.3286      16.5954       1.9790
 3372.1548      16.5000       2.9185      88.8414     174.9422     125.1628       0.3262      20.0152       1.9692
 3372.3072      16.5000       2.9184      88.6222     174.9099     123.6571       0.3273      22.8918       1.9737
 3372.4596      16.5000       2.9184      88.7311     175.2369     131.0383       0.3276      25.8769       1.9749
 3372.6120      16.5000       2.9183      89.3145     175.9364     139.1701       0.3264      24.9061       1.9699
 3372.7644      16.5000       2.9182      90.0084     176.3992     133.0362       0.3240      23.4403       1.9598
 3372.9168      16.5000       2.9182      90.0391     175.9171     126.7219       0.3225      19.4627       1.9538
 3373.0692      16.5000       2.9181      89.5227     174.6571     125.8413       0.3218      19.3042       1.9510
 3373.2216      16.5000       2.9181      88.3561     173.5319     127.7411       0.3250      18.3734       1.9640
 3373.3740      16.5000       2.9180      87.5446     173.3774     133.4917       0.3289      18.3742       1.9804
 3373.5264      16.5000       2.9179      87.2460     174.3540     134.7147       0.3330      16.8075       1.9984
 3373.6788      16.5000       2.9179      87.6526     175.8264     131.3283       0.3346      16.9995       2.0059
 3373.8312      16.5000       2.9178      87.5601     177.0346     130.2645       0.3381      17.1305       2.0219
 3373.9836      16.5000       2.9177      87.6753     177.6581     130.3158       0.3390      16.5269       2.0263
 3374.1360      16.5000       2.9177      88.3737     177.7457     135.1930       0.3358      17.4253       2.0113
 3374.2884      16.5000       2.9176      89.4566     177.6255     141.8587       0.3301      17.4016       1.9856
 3374.4408      16.5000       2.9175      89.9069     177.6872     139.8272       0.3279      17.7360       1.9763
 3374.5932      16.5000       2.9175      89.6569     178.3868     130.1519       0.3310      14.7867       1.9897
 3374.7456      16.5000       2.9174      90.2562     179.4250     124.0433       0.3306      15.7512       1.9880
 3374.8980      16.5000       2.9174      90.7501     179.7022     130.3323       0.3288      12.2324       1.9802
 3375.0504      16.5000       2.9173      90.9445     179.6850     138.0036       0.3278      12.9106       1.9758
 3375.2028      16.5000       2.9172      90.7731     179.6545     135.4268       0.3286      12.4564       1.9792
 3375.3552      16.5000       2.9172      90.7151     179.5280     131.8580       0.3286      11.9838       1.9790
 3375.5076      16.5000       2.9171      90.6598     179.0125     130.9762       0.3275      11.4091       1.9746
 3375.6600      16.5000       2.9171      90.5906     178.2195     126.6690       0.3258      10.3663       1.9673
 3375.8124      16.5000       2.9170      90.7284     177.8154     126.9309       0.3240       9.9920       1.9599
 3375.9648      16.5000       2.9169      90.8273     177.5496     128.2074       0.3228      10.7549       1.9548
 3376.1172      16.5000       2.9169      90.5155     176.9270     124.0606       0.3227      12.0777       1.9547
 3376.2696      16.5000       2.9168      89.5631     175.7617     121.8627       0.3246      11.7305       1.9624
 3376.4220      16.5000       2.9167      88.4729     173.6262     126.9006       0.3246      15.1198       1.9625
 3376.5744      16.5000       2.9167      86.9164     171.2121     134.7175       0.3264      15.5367       1.9698
 3376.7268      16.5000       2.9166      84.0540     169.4843     137.2054       0.3369      14.4723       2.0164
 3376.8792      16.5000       2.9166      80.9795     169.7969     136.4087       0.3528      14.3072       2.0968
