~VERSION INFORMATION
VERS.           2.0   :CWLS Log ASCII Standard - VERSION 2.0
WRAP.           NO    :One Line per depth step
PROD.  Schlumberger   :LAS Producer
PROG.  DLIS to ASCII 2.3                               :LAS Program name and version
CREA.        2021/01/04 14:54                          :LAS Creation date {YYYY/MM/DD hh:mm}
DLIS_CREA.  2021-Jan-04 14:41                          :DLIS Creation date and time {YYYY-MMM-DD hh:mm}
SOURCE.     PnS_Processed.dlis                         :DLIS File Name
FILE-ID.     ConPr_R08_Drill_ARC6_TELE675_SONICVISION6 :File Identification Number
#--------------------------------------------------
~WELL INFORMATION
#MNEM.UNIT      DATA             DESCRIPTION
#---- ------ --------------   -----------------------------
STRT .M      5170.0176       :START DEPTH     
STOP .M      5614.8732       :STOP DEPTH     
STEP .M         0.1524       :STEP     
NULL .          -999.25      :NULL VALUE
COMP .        BP Development Australia Pty Ltd         :COMPANY
WELL .        Ironbark-1                               :WELL
FLD  .        Ironbark                                 :FIELD
LOC  .        WA-359-P                                 :LOCATION
CNTY .                                                 :COUNTY
STAT .        Western Australia                        :STATE
CTRY .        Australia                                :COUNTRY
API  .                                                 :API NUMBER
UWI  .        20AWA0029                                :UNIQUE WELL ID
DATE .        30-Oct-2020                              :LOG DATE {DD-MMM-YYYY}
SRVC .        Schlumberger                             :SERVICE COMPANY
LATI .DEG     19° 9' 34.079" S                        :LATITUDE
LONG .DEG     116° 4' 35.795" E                       :LONGITUDE
GDAT .                                                 :GeoDetic Datum
#-----------------------------------------------------------------------------
~PARAMETER INFORMATION
#MNEM.UNIT    VALUE                      DESCRIPTION
#---- -----   --------------------       ------------------------
RUN  .          Run8_8.5in               :RUN NUMBER
PDAT .        MSL                        :Permanent Datum
EPD  .M           0.000000               :Elevation of Permanent Datum above Mean Sea Level
LMF  .          DF                       :Logging Measured From (Name of Logging Elevation Reference)
APD  .M          23.850000               :Elevation of Depth Reference (LMF) above Permanent Datum
#-----------------------------------------------------------------------------
~CURVE INFORMATION
#MNEM.UNIT   API CODE                                  DESCRIPTION
#---- -----  --------                                  -----------------------
MD   .M                                                :DEPTH (BOREHOLE) {F10.4}
BS   .IN                                               :Bit Size {F13.4}
DCAV .IN                                               :Density Caliper, Average - filtered if Orion compressed {F13.4}
DEVI .DEG                                              :Hole Deviation {F13.4}
DTCO_MPS.US/F                                          :Compressional slowness {F13.4}
DTSH_MPS.US/F                                          :Shear slowness {F13.4}
GR_ARC.GAPI                                            :ARC Gamma Ray {F13.4}
PR   .UNITLESS                                         :Possion's Ratio {F13.4}
ROP5 .M/HR                                             :Rate of penetration averaged over the last 5 ft (1.5 m) {F13.4}
VPVS .UNITLESS                                         :VpVs Ratio {F13.4}
#-----------------------------------------------------------------------------
# 
#      MD         BS           DCAV         DEVI       DTCO_MPS     DTSH_MPS      GR_ARC        PR           ROP5         VPVS
#
~A  
# ...
 5602.0716       8.5000       8.3306       0.1810   -9999.0000   -9999.0000     125.2238   -9999.0000      15.9350   -9999.0000
 5602.2240       8.5000       8.3306       0.1810   -9999.0000   -9999.0000     126.3276   -9999.0000      15.9493   -9999.0000
 5602.3764       8.5000       8.3306       0.1809   -9999.0000   -9999.0000     128.1064   -9999.0000      19.8456   -9999.0000
 5602.5288       8.5000       8.3306       0.1809   -9999.0000   -9999.0000     132.4869   -9999.0000      17.0119   -9999.0000
 5602.6812       8.5000       8.3306       0.1809   -9999.0000   -9999.0000     136.9465   -9999.0000      10.8253   -9999.0000
 5602.8336       8.5000       8.3306       0.1809   -9999.0000   -9999.0000     139.9406   -9999.0000      11.4331   -9999.0000
 5602.9860       8.5000       8.3306       0.1809   -9999.0000   -9999.0000     141.6705   -9999.0000      12.6896   -9999.0000
 5603.1384       8.5000       8.3306       0.1809   -9999.0000   -9999.0000     147.1275   -9999.0000      12.7048   -9999.0000
 5603.2908       8.5000       8.3306       0.1809   -9999.0000   -9999.0000     155.7801   -9999.0000      12.5307   -9999.0000
 5603.4432       8.5000       8.3306       0.1809   -9999.0000   -9999.0000     155.4265   -9999.0000      12.2078   -9999.0000
 5603.5956       8.5000       8.3306       0.1809   -9999.0000   -9999.0000     141.8306   -9999.0000      15.3809   -9999.0000
 5603.7480       8.5000       8.3306       0.1809   -9999.0000   -9999.0000     122.2900   -9999.0000      15.4926   -9999.0000
 5603.9004       8.5000       8.3306       0.1809   -9999.0000   -9999.0000     104.3316   -9999.0000      13.8337   -9999.0000
 5604.0528       8.5000       8.3306       0.1808   -9999.0000   -9999.0000      90.1160   -9999.0000      15.2336   -9999.0000
 5604.2052       8.5000       8.3306       0.1808   -9999.0000   -9999.0000      80.9420   -9999.0000      25.6839   -9999.0000
 5604.3576       8.5000       8.3306       0.1808   -9999.0000   -9999.0000      77.4788   -9999.0000      26.3499   -9999.0000
 5604.5100       8.5000       8.3306       0.1808   -9999.0000   -9999.0000      78.0695   -9999.0000      19.3683   -9999.0000
 5604.6624       8.5000       8.3306       0.1808   -9999.0000   -9999.0000      80.9013   -9999.0000      16.7727   -9999.0000
 5604.8148       8.5000       8.3306       0.1808   -9999.0000   -9999.0000      81.0915   -9999.0000      15.3470   -9999.0000
 5604.9672       8.5000       8.3306       0.1808   -9999.0000   -9999.0000      78.3329   -9999.0000      11.1191   -9999.0000
 5605.1196       8.5000       8.3306       0.1808   -9999.0000   -9999.0000      82.0282   -9999.0000      11.1821   -9999.0000
 5605.2720       8.5000       8.3306       0.1808   -9999.0000   -9999.0000      97.7850   -9999.0000      11.3106   -9999.0000
 5605.4244       8.5000       8.3306       0.1808   -9999.0000   -9999.0000     117.5517   -9999.0000       9.8733   -9999.0000
 5605.5768       8.5000       8.3306       0.1808   -9999.0000   -9999.0000     123.1301   -9999.0000       8.8265   -9999.0000
 5605.7292       8.5000       8.3306       0.1807   -9999.0000   -9999.0000     112.6271   -9999.0000       9.0869   -9999.0000
 5605.8816       8.5000       8.3306       0.1807   -9999.0000   -9999.0000     119.9301   -9999.0000       7.9216   -9999.0000
 5606.0340       8.5000       8.3306       0.1807   -9999.0000   -9999.0000     154.5021   -9999.0000       7.7607   -9999.0000
 5606.1864       8.5000       8.3306       0.1807   -9999.0000   -9999.0000     173.2777   -9999.0000       8.3836   -9999.0000
 5606.3388       8.5000       8.3306       0.1807   -9999.0000   -9999.0000     166.9555   -9999.0000       7.6331   -9999.0000
 5606.4912       8.5000       8.3306       0.1807   -9999.0000   -9999.0000     158.8054   -9999.0000       8.9024   -9999.0000
 5606.6436       8.5000       8.3306       0.1807   -9999.0000   -9999.0000     151.3042   -9999.0000       8.8902   -9999.0000
 5606.7960       8.5000       8.3306       0.1807   -9999.0000   -9999.0000     146.3226   -9999.0000       8.1555   -9999.0000
 5606.9484       8.5000       8.3306       0.1807   -9999.0000   -9999.0000     151.9006   -9999.0000       9.3304   -9999.0000
 5607.1008       8.5000       8.3306       0.1807   -9999.0000   -9999.0000     167.7523   -9999.0000      10.2676   -9999.0000
 5607.2532       8.5000       8.3306       0.1807   -9999.0000   -9999.0000     174.8316   -9999.0000      10.6328   -9999.0000
 5607.4056       8.5000       8.3306       0.1806   -9999.0000   -9999.0000     162.9733   -9999.0000      12.8741   -9999.0000
 5607.5580       8.5000       8.3306       0.1806   -9999.0000   -9999.0000     150.4451   -9999.0000      13.0595   -9999.0000
 5607.7104       8.5000       8.3306       0.1806   -9999.0000   -9999.0000     143.9319   -9999.0000      13.0665   -9999.0000
 5607.8628       8.5000       8.3306       0.1806   -9999.0000   -9999.0000     135.5916   -9999.0000      17.3934   -9999.0000
 5608.0152       8.5000       8.3306       0.1806   -9999.0000   -9999.0000   -9999.0000   -9999.0000      20.3139   -9999.0000
 5608.1676       8.5000       8.3306       0.1806   -9999.0000   -9999.0000   -9999.0000   -9999.0000      19.0994   -9999.0000
 5608.3200       8.5000       8.3306       0.1806   -9999.0000   -9999.0000   -9999.0000   -9999.0000      23.8428   -9999.0000
 5608.4724       8.5000       8.3306       0.1806   -9999.0000   -9999.0000   -9999.0000   -9999.0000      28.2279   -9999.0000
 5608.6248       8.5000       8.3306       0.1806   -9999.0000   -9999.0000   -9999.0000   -9999.0000      22.0925   -9999.0000
 5608.7772       8.5000       8.3306       0.1806   -9999.0000   -9999.0000   -9999.0000   -9999.0000      19.0247   -9999.0000
 5608.9296       8.5000       8.3306       0.1805   -9999.0000   -9999.0000   -9999.0000   -9999.0000      18.8383   -9999.0000
 5609.0820       8.5000       8.3306       0.1805   -9999.0000   -9999.0000   -9999.0000   -9999.0000      26.7630   -9999.0000
 5609.2344       8.5000       8.3306       0.1805   -9999.0000   -9999.0000   -9999.0000   -9999.0000      26.1421   -9999.0000
 5609.3868       8.5000       8.3306       0.1805   -9999.0000   -9999.0000   -9999.0000   -9999.0000      19.5640   -9999.0000
 5609.5392       8.5000       8.3306       0.1805   -9999.0000   -9999.0000   -9999.0000   -9999.0000      19.1170   -9999.0000
 5609.6916       8.5000       8.3306       0.1805   -9999.0000   -9999.0000   -9999.0000   -9999.0000      20.2149   -9999.0000
 5609.8440       8.5000       8.3306       0.1805   -9999.0000   -9999.0000   -9999.0000   -9999.0000      19.8893   -9999.0000
 5609.9964       8.5000       8.3306       0.1805   -9999.0000   -9999.0000   -9999.0000   -9999.0000      14.3186   -9999.0000
 5610.1488       8.5000       8.3306       0.1805   -9999.0000   -9999.0000   -9999.0000   -9999.0000      14.2621   -9999.0000
 5610.3012       8.5000       8.3306       0.1805   -9999.0000   -9999.0000   -9999.0000   -9999.0000      13.1626   -9999.0000
 5610.4536       8.5000       8.3306       0.1805   -9999.0000   -9999.0000   -9999.0000   -9999.0000      11.4131   -9999.0000
 5610.6060       8.5000       8.3306       0.1804   -9999.0000   -9999.0000   -9999.0000   -9999.0000      10.5129   -9999.0000
 5610.7584       8.5000       8.3306       0.1804   -9999.0000   -9999.0000   -9999.0000   -9999.0000      10.4220   -9999.0000
 5610.9108       8.5000       8.3306       0.1804   -9999.0000   -9999.0000   -9999.0000   -9999.0000      11.8120   -9999.0000
 5611.0632       8.5000       8.3306       0.1804   -9999.0000   -9999.0000   -9999.0000   -9999.0000      11.9329   -9999.0000
 5611.2156       8.5000       8.3306       0.1804   -9999.0000   -9999.0000   -9999.0000   -9999.0000       8.0012   -9999.0000
 5611.3680       8.5000       8.3306       0.1804   -9999.0000   -9999.0000   -9999.0000   -9999.0000       7.8734   -9999.0000
 5611.5204       8.5000       8.3306       0.1804   -9999.0000   -9999.0000   -9999.0000   -9999.0000       9.1393   -9999.0000
