~VERSION INFORMATION
VERS.           2.0   :CWLS Log ASCII Standard - VERSION 2.0
WRAP.           NO    :One Line per depth step
PROD.  Schlumberger   :LAS Producer
PROG.  DLIS to ASCII 2.3                               :LAS Program name and version
CREA.        2020/12/24 10:22                          :LAS Creation date {YYYY/MM/DD hh:mm}
DLIS_CREA.  2020-Dec-24 10:21                          :DLIS Creation date and time {YYYY-MMM-DD hh:mm}
SOURCE.     PNS_Processed.dlis                         :DLIS File Name
FILE-ID.     ToolSpecific_ConPr_R07_Drill_SONICVISION8 :File Identification Number
#--------------------------------------------------
~WELL INFORMATION
#MNEM.UNIT      DATA             DESCRIPTION
#---- ------ --------------   -----------------------------
STRT .M      4299.9660       :START DEPTH     
STOP .M      5201.7168       :STOP DEPTH     
STEP .M         0.1524       :STEP     
NULL .          -999.25      :NULL VALUE
COMP .        BP Development Australia Pty Ltd         :COMPANY
WELL .        Ironbark-1                               :WELL
FLD  .        Ironbark                                 :FIELD
LOC  .        WA-359-P                                 :LOCATION
CNTY .                                                 :COUNTY
STAT .        Western Australia                        :STATE
CTRY .        Australia                                :COUNTRY
API  .                                                 :API NUMBER
UWI  .        20AWA0029                                :UNIQUE WELL ID
DATE .        30-Oct-2020                              :LOG DATE {DD-MMM-YYYY}
SRVC .        Schlumberger                             :SERVICE COMPANY
LATI .DEG     19° 9' 34.079" S                        :LATITUDE
LONG .DEG     116° 4' 35.795" E                       :LONGITUDE
GDAT .                                                 :GeoDetic Datum
#-----------------------------------------------------------------------------
~PARAMETER INFORMATION
#MNEM.UNIT    VALUE                      DESCRIPTION
#---- -----   --------------------       ------------------------
RUN  .          7                        :RUN NUMBER
PDAT .        MSL                        :Permanent Datum
EPD  .M           0.000000               :Elevation of Permanent Datum above Mean Sea Level
LMF  .          DF                       :Logging Measured From (Name of Logging Elevation Reference)
APD  .M          23.850000               :Elevation of Depth Reference (LMF) above Permanent Datum
#-----------------------------------------------------------------------------
~CURVE INFORMATION
#MNEM.UNIT   API CODE                                  DESCRIPTION
#---- -----  --------                                  -----------------------
MD   .M                                                :DEPTH (BOREHOLE) {F10.4}
BS   .IN                                               :Bit Size {F13.4}
DCAV .IN                                               :Density Caliper, Average - filtered if Orion compressed {F13.4}
DEVI .DEG                                              :Hole Deviation {F13.4}
DTCO_MPS.US/F                                          :Compressional slowness {F13.4}
DTSH_MPS.US/F                                          :Shear slowness {F13.4}
GR_ARC.GAPI                                            :ARC Gamma Ray {F13.4}
PR   .UNITLESS                                         :Possion's Ratio {F13.4}
ROP5 .M/HR                                             :Rate of penetration averaged over the last 5 ft (1.5 m) {F13.4}
VPVS .UNITLESS                                         :VpVs Ratio {F13.4}
#-----------------------------------------------------------------------------
# 
#      MD         BS           DCAV         DEVI       DTCO_MPS     DTSH_MPS      GR_ARC        PR           ROP5         VPVS
#
~A  
# ...
 4770.4248      12.2500      12.5283       0.7274      66.1076     108.4200      95.5128       0.2041      10.4275       1.6401
 4770.5772      12.2500      12.4699       0.7275      65.7229     108.1714      88.4178       0.2071       9.9131       1.6465
 4770.7296      12.2500      13.1202       0.7276      62.9729     106.5754      73.5133       0.2315       9.3660       1.6927
 4770.8820      12.2500      12.1864       0.7276      62.5507     103.5324      72.6966       0.2120       8.8403       1.6551
 4771.0344      12.2500      12.3587       0.7277      62.7607     101.7276      88.8146       0.1924       9.3104       1.6208
 4771.1868      12.2500      12.3699       0.7278      64.1162     105.8787     113.3119       0.2102      12.3504       1.6512
 4771.3392      12.2500      12.2698       0.7278      66.1547     110.7233     124.0897       0.2223      13.4055       1.6736
 4771.4916      12.2500      12.3699       0.7279      68.6786     115.0578     100.3833       0.2232      15.1271       1.6754
 4771.6440      12.2500      12.4699       0.7280      69.8792     116.8838      67.4950       0.2218      13.0239       1.6727
 4771.7964      12.2500      12.2365       0.7281      69.7940     117.7465      50.9768       0.2291      12.8730       1.6871
 4771.9488      12.2500      12.2698       0.7282      69.8895     117.1253      44.6693       0.2235      12.7712       1.6759
 4772.1012      12.2500      12.3365       0.7282      69.0321     116.1363      41.3180       0.2268      11.9095       1.6824
 4772.2536      12.2500      12.3365       0.7283      68.3388     115.0639      38.8647       0.2275      14.8867       1.6837
 4772.4060      12.2500      12.3365       0.7284      68.7419     114.7440      37.0552       0.2199      17.1450       1.6693
 4772.5584      12.2500      12.3098       0.7285      69.0623     112.9025      37.3909       0.2009      17.4958       1.6348
 4772.7108      12.2500      12.2898       0.7285      68.1809     111.6897      38.4931       0.2029      15.2037       1.6382
 4772.8632      12.2500      12.2698       0.7286      67.1094     110.3781      37.7087       0.2067      17.7895       1.6447
 4773.0156      12.2500      12.2698       0.7287      66.2958     109.2669      36.3350       0.2087      18.4893       1.6482
 4773.1680      12.2500      12.2698       0.7288      66.1646     109.0693      35.0284       0.2088      23.0092       1.6485
 4773.3204      12.2500      12.2698       0.7289      66.8199     109.0861      33.5790       0.1997      23.1677       1.6326
 4773.4728      12.2500      12.2031       0.7289      67.0568     109.6768      32.7580       0.2014      17.6046       1.6356
 4773.6252      12.2500      12.2253       0.7290      66.9665     109.9308      32.9026       0.2049      21.0746       1.6416
 4773.7776      12.2500      12.2531       0.7291      67.4735     109.9771      33.7271       0.1982      22.4515       1.6299
 4773.9300      12.2500      12.2298       0.7292      66.8555     109.8198      32.6122       0.2055      22.1711       1.6427
 4774.0824      12.2500      12.2476       0.7293      66.5283     109.9300      30.2044       0.2110      18.0081       1.6524
 4774.2348      12.2500      12.3031       0.7294      66.9397     109.9607      30.5021       0.2055      21.5095       1.6428
 4774.3872      12.2500      12.3365       0.7295      68.0219     110.1389      32.7573       0.1916      26.3784       1.6192
 4774.5396      12.2500      12.2031       0.7295      68.2167     111.3010      34.6793       0.1991      21.3396       1.6316
 4774.6920      12.2500      12.2920       0.7296      68.3388     111.5220      36.3914       0.1994      19.0630       1.6319
 4774.8444      12.2500      12.4032       0.7297      68.5543     112.2787      38.9773       0.2028      18.9836       1.6378
 4774.9968      12.2500      12.3031       0.7298      68.0587     111.7385      44.8136       0.2051      25.6358       1.6418
 4775.1492      12.2500      12.3365       0.7299      67.3181     111.8610      56.6705       0.2160      21.1324       1.6617
 4775.3016      12.2500      12.3365       0.7300      67.2281     112.1942      65.9440       0.2199      20.5700       1.6689
 4775.4540      12.2500      12.2698       0.7301      67.6606     112.6584      65.0984       0.2179      19.6900       1.6651
 4775.6064      12.2500      12.3032       0.7302      68.6841     113.8979      63.0452       0.2143      20.0012       1.6583
 4775.7588      12.2500      12.3365       0.7303      70.1130     115.6172      60.6912       0.2092      19.8376       1.6490
 4775.9112      12.2500      12.3365       0.7304      70.3170     116.8602      53.7542       0.2162      18.6855       1.6619
 4776.0636      12.2500      12.3365       0.7305      69.3663     116.4201      47.5192       0.2248      18.3410       1.6784
 4776.2160      12.2500      12.2698       0.7306      68.4665     116.0336      43.6515       0.2329      18.4767       1.6948
 4776.3684      12.2500      12.5366       0.7307      69.0341     117.2297      42.2688       0.2346      18.5538       1.6981
 4776.5208      12.2500      12.4831       0.7313      70.4073     119.3608      43.5436       0.2332      18.3164       1.6954
 4776.6732      12.2500      12.4298       0.7320      72.6618     121.2286      43.8356       0.2196      21.2144       1.6686
 4776.8256      12.2500      12.3765       0.7325      72.9984     122.0855      43.5232       0.2217      19.5255       1.6725
 4776.9780      12.2500      12.3231       0.7336      72.4285     121.6603      43.4664       0.2255      20.3855       1.6797
 4777.1304      12.2500      12.2698       0.7340      72.0917     120.3513      42.5958       0.2202      21.9965       1.6694
 4777.2828      12.2500      12.3365       0.7349      70.4919     117.0409      41.5086       0.2153      21.4083       1.6603
 4777.4352      12.2500      12.4699       0.7356      69.6107     116.0873      39.9271       0.2190      21.6586       1.6677
 4777.5876      12.2500      12.2698       0.7362      69.3216     113.5811      36.3183       0.2030      21.1398       1.6385
 4777.7400      12.2500      12.2475       0.7370      69.3994     114.4256      32.3717       0.2090      20.5629       1.6488
 4777.8924      12.2500      12.2253       0.7379      70.1288     115.7209      31.9295       0.2098      17.9041       1.6501
 4778.0448      12.2500      12.2031       0.7386      70.6841     116.0213      34.0887       0.2048      15.6417       1.6415
 4778.1972      12.2500      12.2031       0.7393      70.8415     116.8764      36.3480       0.2094      16.2413       1.6499
 4778.3496      12.2500      12.1364       0.7401      70.6366     118.3561      37.5119       0.2233      17.7553       1.6756
 4778.5020      12.2500      12.1586       0.7406      71.0596     119.3513      36.5906       0.2254      16.9553       1.6796
 4778.6544      12.2500      12.1809       0.7415      71.2155     119.1827      35.7675       0.2223      18.4265       1.6736
 4778.8068      12.2500      12.2031       0.7421      70.9104     118.8988      36.2075       0.2239      16.3897       1.6768
 4778.9592      12.2500      12.2364       0.7429      70.1210     116.7915      35.6345       0.2180      16.7266       1.6656
 4779.1116      12.2500      12.2698       0.7437      69.5149     116.0068      34.2157       0.2197      19.5774       1.6689
 4779.2640      12.2500      12.4699       0.7442      68.8115     117.8900      33.4551       0.2413      18.4392       1.7133
 4779.4164      12.2500      12.2031       0.7452      70.1840     120.4911      34.6833       0.2432      20.4782       1.7169
 4779.5688      12.2500      12.2031       0.7457      71.4840     122.8494      38.0575       0.2439      21.3117       1.7185
 4779.7212      12.2500      12.1864       0.7464      72.9741     126.9938      39.7594       0.2535      17.8874       1.7402
 4779.8736      12.2500      12.1697       0.7473      74.6952     130.3456      37.0850       0.2555      17.4122       1.7450
