~VERSION INFORMATION
VERS.           2.0   :CWLS Log ASCII Standard - VERSION 2.0
WRAP.           NO    :One Line per depth step
PROD.  Schlumberger   :LAS Producer
PROG.  DLIS to ASCII 2.3                               :LAS Program name and version
CREA.        2021/01/04 14:54                          :LAS Creation date {YYYY/MM/DD hh:mm}
DLIS_CREA.  2021-Jan-04 14:41                          :DLIS Creation date and time {YYYY-MMM-DD hh:mm}
SOURCE.     PnS_Processed.dlis                         :DLIS File Name
FILE-ID.     ConPr_R08_Drill_ARC6_TELE675_SONICVISION6 :File Identification Number
#--------------------------------------------------
~WELL INFORMATION
#MNEM.UNIT      DATA             DESCRIPTION
#---- ------ --------------   -----------------------------
STRT .M      5170.0176       :START DEPTH     
STOP .M      5614.8732       :STOP DEPTH     
STEP .M         0.1524       :STEP     
NULL .          -999.25      :NULL VALUE
COMP .        BP Development Australia Pty Ltd         :COMPANY
WELL .        Ironbark-1                               :WELL
FLD  .        Ironbark                                 :FIELD
LOC  .        WA-359-P                                 :LOCATION
CNTY .                                                 :COUNTY
STAT .        Western Australia                        :STATE
CTRY .        Australia                                :COUNTRY
API  .                                                 :API NUMBER
UWI  .        20AWA0029                                :UNIQUE WELL ID
DATE .        30-Oct-2020                              :LOG DATE {DD-MMM-YYYY}
SRVC .        Schlumberger                             :SERVICE COMPANY
LATI .DEG     19° 9' 34.079" S                        :LATITUDE
LONG .DEG     116° 4' 35.795" E                       :LONGITUDE
GDAT .                                                 :GeoDetic Datum
#-----------------------------------------------------------------------------
~PARAMETER INFORMATION
#MNEM.UNIT    VALUE                      DESCRIPTION
#---- -----   --------------------       ------------------------
RUN  .          Run8_8.5in               :RUN NUMBER
PDAT .        MSL                        :Permanent Datum
EPD  .M           0.000000               :Elevation of Permanent Datum above Mean Sea Level
LMF  .          DF                       :Logging Measured From (Name of Logging Elevation Reference)
APD  .M          23.850000               :Elevation of Depth Reference (LMF) above Permanent Datum
#-----------------------------------------------------------------------------
~CURVE INFORMATION
#MNEM.UNIT   API CODE                                  DESCRIPTION
#---- -----  --------                                  -----------------------
MD   .M                                                :DEPTH (BOREHOLE) {F10.4}
BS   .IN                                               :Bit Size {F13.4}
DCAV .IN                                               :Density Caliper, Average - filtered if Orion compressed {F13.4}
DEVI .DEG                                              :Hole Deviation {F13.4}
DTCO_MPS.US/F                                          :Compressional slowness {F13.4}
DTSH_MPS.US/F                                          :Shear slowness {F13.4}
GR_ARC.GAPI                                            :ARC Gamma Ray {F13.4}
PR   .UNITLESS                                         :Possion's Ratio {F13.4}
ROP5 .M/HR                                             :Rate of penetration averaged over the last 5 ft (1.5 m) {F13.4}
VPVS .UNITLESS                                         :VpVs Ratio {F13.4}
#-----------------------------------------------------------------------------
# 
#      MD         BS           DCAV         DEVI       DTCO_MPS     DTSH_MPS      GR_ARC        PR           ROP5         VPVS
#
~A  
# ...
 5573.2680       8.5000       8.3584       0.2102      86.7971     142.5472     135.9355       0.2054      17.9907       1.6423
 5573.4204       8.5000       8.3928       0.2100      93.7275     148.2468     131.2085       0.1670      17.2940       1.5817
 5573.5728       8.5000       9.3301       0.2094      98.8582     148.8390     132.7012       0.1053      18.7985       1.5056
 5573.7252       8.5000       8.8274       0.2090      96.4764     145.1685     132.7915       0.1045      18.8798       1.5047
 5573.8776       8.5000       8.7509       0.2087      83.2077     141.3680     132.6183       0.2350      18.4049       1.6990
 5574.0300       8.5000       8.3642       0.2082      76.1332     137.5502     136.6111       0.2792      19.1923       1.8067
 5574.1824       8.5000       8.3661       0.2079      77.0596     138.4954     135.0780       0.2758      19.2954       1.7973
 5574.3348       8.5000       8.3235       0.2075      89.3163     157.2394     122.9516       0.2618      21.7468       1.7605
 5574.4872       8.5000       8.3184       0.2071      96.5565     177.7092     113.8489       0.2906      23.4800       1.8405
 5574.6396       8.5000       8.3481       0.2067      95.6848     181.0677     119.0631       0.3063      24.5550       1.8923
 5574.7920       8.5000       8.9160       0.2062      91.3523     174.6802     135.9587       0.3118      30.2777       1.9122
 5574.9444       8.5000       8.7854       0.2059      87.3507     168.0588     148.4642       0.3149      31.9511       1.9240
 5575.0968       8.5000       8.5314       0.2055      85.7328     164.3410     150.4806       0.3130      31.2362       1.9169
 5575.2492       8.5000       8.5635       0.2052      84.7370     162.8885     149.0159       0.3145      29.2418       1.9223
 5575.4016       8.5000       8.5793       0.2047      84.0616     161.9838     145.9591       0.3157      32.5393       1.9270
 5575.5540       8.5000       8.3236       0.2044      82.4877     159.5991     144.8730       0.3178      29.2566       1.9348
 5575.7064       8.5000       8.3284       0.2040      81.0197     156.4381     146.3271       0.3167      33.1245       1.9309
 5575.8588       8.5000       8.3614       0.2035      79.7335     153.6104     145.9783       0.3156      33.5096       1.9265
 5576.0112       8.5000       8.3375       0.2032      78.6722     153.7619     144.2095       0.3227      30.4173       1.9545
 5576.1636       8.5000       8.3288       0.2029      77.6203     152.2241     143.9012       0.3243      24.7013       1.9611
 5576.3160       8.5000       8.3298       0.2024      76.2715     149.5528     145.5755       0.3242      22.5407       1.9608
 5576.4684       8.5000       8.3248       0.2021      76.1430     148.1404     143.2241       0.3205      22.1730       1.9456
 5576.6208       8.5000       8.3280       0.2018      76.2563     146.0162     136.8746       0.3125      17.8043       1.9148
 5576.7732       8.5000       8.3224       0.2014      76.6739     143.3168     131.7329       0.2995      17.6251       1.8692
 5576.9256       8.5000       8.3493       0.2011      76.7224     141.6982     126.2429       0.2926      15.1142       1.8469
 5577.0780       8.5000       8.3543       0.2006      74.7777     139.0935     122.5512       0.2967      15.0382       1.8601
 5577.2304       8.5000       8.3432       0.2003      71.4648     134.9113     120.6488       0.3050      13.3992       1.8878
 5577.3828       8.5000       8.3793       0.1999      68.3607     130.7186     116.5997       0.3118       9.4255       1.9122
 5577.5352       8.5000       8.3141       0.1996      67.3567     129.1173     115.7641       0.3131       9.3048       1.9169
 5577.6876       8.5000       8.3142       0.1993      67.9026     128.9453     124.9447       0.3081      10.0442       1.8990
 5577.8400       8.5000       8.3073       0.1989      68.1614     129.2843     136.6590       0.3075      10.5427       1.8967
 5577.9924       8.5000       8.3290       0.1986      68.1503     132.2197     138.3674       0.3191      10.4411       1.9401
 5578.1448       8.5000       8.3362       0.1982      67.7620     136.3586     133.6908       0.3360      11.8896       2.0123
 5578.2972       8.5000       8.3604       0.1979      67.4991     138.1064     131.7246       0.3431      12.4044       2.0460
 5578.4496       8.5000       8.3246       0.1975      68.4495     140.5629     135.4723       0.3446      14.0938       2.0535
 5578.6020       8.5000       8.3318       0.1972      71.5542     144.9624     143.7032       0.3389      14.3402       2.0259
 5578.7544       8.5000       8.3102       0.1969      74.4759     146.4837     151.0931       0.3257      15.6569       1.9669
 5578.9068       8.5000       8.3135       0.1965      75.4622     146.2166     153.5380       0.3185      30.0484       1.9376
 5579.0592       8.5000       8.3183       0.1962      75.4674     144.3911     151.2594       0.3121      26.6951       1.9133
 5579.2116       8.5000       8.3315       0.1959      71.8650     137.6070     148.4166       0.3125      26.0270       1.9148
 5579.3640       8.5000       8.3162       0.1956      66.7737     133.9543     145.5521       0.3347      24.7336       2.0061
 5579.5164       8.5000       8.3341       0.1953      64.4816     133.9617     133.5928       0.3492      26.3811       2.0775
 5579.6688       8.5000       8.3354       0.1951      64.3247     129.7708     130.5370       0.3371      21.9637       2.0174
 5579.8212       8.5000       8.3781       0.1947      64.3180     117.7863     140.3240       0.2876      15.8264       1.8313
 5579.9736       8.5000       8.3787       0.1944      63.6984     110.4869     119.6594       0.2511      12.4815       1.7345
 5580.1260       8.5000       8.3198       0.1941      64.2983     113.7787      89.9610       0.2654      12.8718       1.7695
 5580.2784       8.5000       8.3378       0.1938      69.4363     129.3484      92.1668       0.2976      13.3040       1.8628
 5580.4308       8.5000       8.4001       0.1935      78.5834     140.7962     103.2755       0.2738      13.4377       1.7917
 5580.5832       8.5000       8.3336       0.1931      82.4636     141.7755     107.8976       0.2444      15.0531       1.7192
 5580.7356       8.5000       8.3207       0.1929      81.8099     140.0464     108.2952       0.2410      13.3164       1.7119
 5580.8880       8.5000       8.3103       0.1926      78.3731     134.9401     106.0439       0.2455       9.8576       1.7218
 5581.0404       8.5000       8.3297       0.1922      71.7372     131.4922     106.9732       0.2881       9.9870       1.8330
 5581.1928       8.5000       8.3612       0.1921      65.0718     132.2762     110.8148       0.3404       9.1469       2.0328
 5581.3452       8.5000       8.3194       0.1918      62.6073     133.2731     115.4687       0.3584      10.7794       2.1287
 5581.4976       8.5000       8.3189       0.1915      64.5976     134.6564     117.9825       0.3505      13.1467       2.0845
 5581.6500       8.5000       8.3191       0.1913      68.5528     139.2479     116.5303       0.3401      12.2862       2.0313
 5581.8024       8.5000       8.3788       0.1909      71.5618     142.8456     113.3646       0.3325      12.2443       1.9961
 5581.9548       8.5000       8.3283       0.1907      73.4728     143.4508     109.8671       0.3222      11.1017       1.9524
 5582.1072       8.5000       8.3121       0.1904      73.2742     141.8294     112.2169       0.3180      10.1280       1.9356
 5582.2596       8.5000       8.3193       0.1901      72.8175     138.1752     118.5327       0.3077      10.9742       1.8976
 5582.4120       8.5000       8.3443       0.1899      73.3293     136.2581     115.2226       0.2962      10.2889       1.8582
 5582.5644       8.5000       8.3482       0.1896      74.5015     136.1560     103.0584       0.2863      10.0994       1.8276
 5582.7168       8.5000       8.3190       0.1893      74.7945     134.0927      93.5336       0.2742      12.1931       1.7928
