~VERSION INFORMATION
VERS.           2.0   :CWLS Log ASCII Standard - VERSION 2.0
WRAP.           NO    :One Line per depth step
PROD.  Schlumberger   :LAS Producer
PROG.  DLIS to ASCII 2.3                               :LAS Program name and version
CREA.        2021/01/04 14:54                          :LAS Creation date {YYYY/MM/DD hh:mm}
DLIS_CREA.  2021-Jan-04 14:41                          :DLIS Creation date and time {YYYY-MMM-DD hh:mm}
SOURCE.     PnS_Processed.dlis                         :DLIS File Name
FILE-ID.     ConPr_R08_Drill_ARC6_TELE675_SONICVISION6 :File Identification Number
#--------------------------------------------------
~WELL INFORMATION
#MNEM.UNIT      DATA             DESCRIPTION
#---- ------ --------------   -----------------------------
STRT .M      5170.0176       :START DEPTH     
STOP .M      5614.8732       :STOP DEPTH     
STEP .M         0.1524       :STEP     
NULL .          -999.25      :NULL VALUE
COMP .        BP Development Australia Pty Ltd         :COMPANY
WELL .        Ironbark-1                               :WELL
FLD  .        Ironbark                                 :FIELD
LOC  .        WA-359-P                                 :LOCATION
CNTY .                                                 :COUNTY
STAT .        Western Australia                        :STATE
CTRY .        Australia                                :COUNTRY
API  .                                                 :API NUMBER
UWI  .        20AWA0029                                :UNIQUE WELL ID
DATE .        30-Oct-2020                              :LOG DATE {DD-MMM-YYYY}
SRVC .        Schlumberger                             :SERVICE COMPANY
LATI .DEG     19° 9' 34.079" S                        :LATITUDE
LONG .DEG     116° 4' 35.795" E                       :LONGITUDE
GDAT .                                                 :GeoDetic Datum
#-----------------------------------------------------------------------------
~PARAMETER INFORMATION
#MNEM.UNIT    VALUE                      DESCRIPTION
#---- -----   --------------------       ------------------------
RUN  .          Run8_8.5in               :RUN NUMBER
PDAT .        MSL                        :Permanent Datum
EPD  .M           0.000000               :Elevation of Permanent Datum above Mean Sea Level
LMF  .          DF                       :Logging Measured From (Name of Logging Elevation Reference)
APD  .M          23.850000               :Elevation of Depth Reference (LMF) above Permanent Datum
#-----------------------------------------------------------------------------
~CURVE INFORMATION
#MNEM.UNIT   API CODE                                  DESCRIPTION
#---- -----  --------                                  -----------------------
MD   .M                                                :DEPTH (BOREHOLE) {F10.4}
BS   .IN                                               :Bit Size {F13.4}
DCAV .IN                                               :Density Caliper, Average - filtered if Orion compressed {F13.4}
DEVI .DEG                                              :Hole Deviation {F13.4}
DTCO_MPS.US/F                                          :Compressional slowness {F13.4}
DTSH_MPS.US/F                                          :Shear slowness {F13.4}
GR_ARC.GAPI                                            :ARC Gamma Ray {F13.4}
PR   .UNITLESS                                         :Possion's Ratio {F13.4}
ROP5 .M/HR                                             :Rate of penetration averaged over the last 5 ft (1.5 m) {F13.4}
VPVS .UNITLESS                                         :VpVs Ratio {F13.4}
#-----------------------------------------------------------------------------
# 
#      MD         BS           DCAV         DEVI       DTCO_MPS     DTSH_MPS      GR_ARC        PR           ROP5         VPVS
#
~A  
# ...
 5486.8572       8.5000       8.3337       0.1722      66.5247     100.9272      45.1801       0.1159       7.8600       1.5171
 5487.0096       8.5000       8.3356       0.1720      65.5201     100.3991      45.0069       0.1291       7.7096       1.5323
 5487.1620       8.5000       8.3283       0.1716      65.0980      99.3498      58.0271       0.1238       7.8912       1.5262
 5487.3144       8.5000       8.3282       0.1715      64.8833      98.3170      92.2140       0.1142       7.6033       1.5153
 5487.4668       8.5000       8.3025       0.1711      64.5999      98.0021     114.5931       0.1158       7.5593       1.5171
 5487.6192       8.5000       8.3132       0.1709      64.0578      97.9790      94.1116       0.1267       7.9852       1.5295
 5487.7716       8.5000       8.3110       0.1706      63.2168      97.5486      62.0780       0.1380       8.5088       1.5431
 5487.9240       8.5000       8.3234       0.1704      59.6790      96.5213      51.0419       0.1906       9.3611       1.6173
 5488.0764       8.5000       8.3192       0.1702      57.5597      95.8911      61.2100       0.2184       9.7151       1.6659
 5488.2288       8.5000       8.3163       0.1699      59.2845      95.3788      72.7244       0.1852      11.9457       1.6088
 5488.3812       8.5000       8.3348       0.1696      61.0434      94.7803      67.3669       0.1456      12.2111       1.5527
 5488.5336       8.5000       8.3529       0.1695      61.4846      93.9659      56.5369       0.1257      12.0698       1.5283
 5488.6860       8.5000       8.3211       0.1692      60.6288      92.7990      54.4703       0.1276      13.6558       1.5306
 5488.8384       8.5000       8.3220       0.1690      59.6117      91.8406      57.3895       0.1360      15.6727       1.5406
 5488.9908       8.5000       8.3336       0.1688      59.6706      90.9268      56.0192       0.1218      14.6968       1.5238
 5489.1432       8.5000       8.3632       0.1685      60.9913      90.8698      50.7645       0.0901      15.8462       1.4899
 5489.2956       8.5000       8.3316       0.1683      60.8230      92.1781      49.6681       0.1144      14.4412       1.5155
 5489.4480       8.5000       8.3199       0.1681      59.2154      92.7084      56.7380       0.1554      14.0062       1.5656
 5489.6004       8.5000       8.3187       0.1679      58.8315      92.4593      66.9240       0.1598      13.2697       1.5716
 5489.7528       8.5000       8.3076       0.1677      58.5597      92.6419      67.0450       0.1673      12.5426       1.5820
 5489.9052       8.5000       8.3051       0.1675      59.6179      93.9297      55.1908       0.1627      13.8047       1.5755
 5490.0576       8.5000       8.3029       0.1673      60.6916      94.7402      43.9952       0.1520      13.6686       1.5610
 5490.2100       8.5000       8.3137       0.1670      60.7734      94.9279      38.9618       0.1527      12.7401       1.5620
 5490.3624       8.5000       8.3264       0.1669      61.4116      95.4244      37.4554       0.1465      11.9199       1.5538
 5490.5148       8.5000       8.3167       0.1667      62.5965      97.4636      37.5334       0.1489      11.8466       1.5570
 5490.6672       8.5000       8.3169       0.1665      63.9461      99.6187      40.3043       0.1496      11.7572       1.5579
 5490.8196       8.5000       8.3634       0.1663      64.2748     100.0473      48.6641       0.1486      10.2107       1.5566
 5490.9720       8.5000       8.4173       0.1661      64.7262      99.5563      57.2728       0.1339      10.9040       1.5381
 5491.1244       8.5000       8.4506       0.1659      64.9546      97.7052      57.5182       0.1040      12.0966       1.5042
 5491.2768       8.5000       8.3897       0.1658      61.9726      96.1092      53.1878       0.1441      12.1481       1.5508
 5491.4292       8.5000       8.3280       0.1656      60.4796      96.5731      53.8512       0.1774      12.9951       1.5968
 5491.5816       8.5000       8.3469       0.1654      61.6213      99.6490      60.4845       0.1904      13.8764       1.6171
 5491.7340       8.5000       8.3357       0.1652      61.4506      99.8963      59.8902       0.1956      13.6695       1.6256
 5491.8864       8.5000       8.3942       0.1650      61.0853      97.9659      49.2147       0.1819      15.8825       1.6038
 5492.0388       8.5000       8.3390       0.1649      59.7232      95.5904      48.3353       0.1799      16.0329       1.6006
 5492.1912       8.5000       8.3473       0.1647      60.2604      92.9013      56.6253       0.1368      16.6770       1.5417
 5492.3436       8.5000       8.3252       0.1646      61.0796      91.7391      61.5595       0.1019      23.2042       1.5020
 5492.4960       8.5000       8.3325       0.1644      60.9279      94.0781      72.3376       0.1388      20.6315       1.5441
 5492.6484       8.5000       8.3168       0.1643      61.3106   -9999.0000      93.5759   -9999.0000      19.4468   -9999.0000
 5492.8008       8.5000       8.3500       0.1642      62.1479   -9999.0000     120.5160   -9999.0000      20.0367   -9999.0000
 5492.9532       8.5000       8.3326       0.1640      63.2301   -9999.0000     149.8104   -9999.0000      17.4030   -9999.0000
 5493.1056       8.5000       8.3361       0.1639      65.6109   -9999.0000     170.1313   -9999.0000      15.6035   -9999.0000
 5493.2580       8.5000       8.2980       0.1637      65.9715   -9999.0000     176.2657   -9999.0000      16.0491   -9999.0000
 5493.4104       8.5000       8.3103       0.1636      65.6735   -9999.0000     174.5733   -9999.0000      15.6936   -9999.0000
 5493.5628       8.5000       8.3260       0.1635      68.8730   -9999.0000     168.5717   -9999.0000      15.3950   -9999.0000
 5493.7152       8.5000       8.3063       0.1634      71.0983   -9999.0000     161.4024   -9999.0000      15.6837   -9999.0000
 5493.8676       8.5000       8.3267       0.1632      72.0630   -9999.0000     156.4411   -9999.0000      15.5847   -9999.0000
 5494.0200       8.5000       8.3871       0.1631      74.9486   -9999.0000     154.5823   -9999.0000      14.7331   -9999.0000
 5494.1724       8.5000       8.3728       0.1630      77.7187   -9999.0000     154.8105   -9999.0000      13.9767   -9999.0000
 5494.3248       8.5000       8.3418       0.1629      77.0178   -9999.0000     154.8419   -9999.0000      14.5708   -9999.0000
 5494.4772       8.5000       8.3383       0.1628      75.4295     151.2611     157.9795       0.3345      16.4411       2.0053
 5494.6296       8.5000       8.3405       0.1627      74.9267     152.9450     163.5442       0.3421      18.4709       2.0413
 5494.7820       8.5000       8.3449       0.1626      74.8904     154.3000     164.6833       0.3459      21.2511       2.0603
 5494.9344       8.5000       8.3357       0.1625      74.9790     154.7216     162.4316       0.3465      22.3680       2.0635
 5495.0868       8.5000       8.3330       0.1624      75.0514     153.4881     161.1840       0.3429      27.0349       2.0451
 5495.2392       8.5000       8.3382       0.1623      75.4199     152.4449     162.9636       0.3380      24.2068       2.0213
 5495.3916       8.5000       8.3678       0.1622      76.5773     152.3806     164.1466       0.3311      24.3256       1.9899
 5495.5440       8.5000       8.3231       0.1621      77.6038     148.5114     163.7051       0.3122      30.6644       1.9137
 5495.6964       8.5000       8.3442       0.1620      78.4592     143.5587     166.2800       0.2870      36.8645       1.8297
 5495.8488       8.5000       8.3199       0.1620      78.5396     143.2473     168.5806       0.2851      33.5949       1.8239
 5496.0012       8.5000       8.3535       0.1619      79.0824     147.1068     166.1377       0.2968      35.7388       1.8602
 5496.1536       8.5000       8.3410       0.1618      79.6455     149.5737     163.0542       0.3021      36.7983       1.8780
 5496.3060       8.5000       8.2956       0.1618      79.5626     146.6883     160.7694       0.2916      36.3796       1.8437
