~VERSION INFORMATION
VERS.           2.0   :CWLS Log ASCII Standard - VERSION 2.0
WRAP.           NO    :One Line per depth step
PROD.  Schlumberger   :LAS Producer
PROG.  DLIS to ASCII 2.3                               :LAS Program name and version
CREA.        2020/12/07 11:58                          :LAS Creation date {YYYY/MM/DD hh:mm}
DLIS_CREA.  2020-Dec-07 11:16                          :DLIS Creation date and time {YYYY-MMM-DD hh:mm}
SOURCE.     sonicVISION_2.dlis                         :DLIS File Name
FILE-ID.     ToolSpecific_ConPr_R05_Drill_SONICVISION9 :File Identification Number
#--------------------------------------------------
~WELL INFORMATION
#MNEM.UNIT      DATA             DESCRIPTION
#---- ------ --------------   -----------------------------
STRT .M      2896.9716       :START DEPTH     
STOP .M      3794.9124       :STOP DEPTH     
STEP .M         0.1524       :STEP     
NULL .          -999.25      :NULL VALUE
COMP .        BP Development Australia Pty Ltd         :COMPANY
WELL .        Ironbark-1                               :WELL
FLD  .        WA-359-2                                 :FIELD
LOC  .        Northern Carnarvon Basin                 :LOCATION
CNTY .                                                 :COUNTY
STAT .        Western Australia                        :STATE
CTRY .        Australia                                :COUNTRY
API  .                                                 :API NUMBER
UWI  .        20AWA0029                                :UNIQUE WELL ID
DATE .        30-Nov-2020                              :LOG DATE {DD-MMM-YYYY}
SRVC .        Schlumberger                             :SERVICE COMPANY
LATI .DEG     19° 9' 34.079" S                        :LATITUDE
LONG .DEG     116° 4' 35.795" E                       :LONGITUDE
GDAT .                                                 :GeoDetic Datum
#-----------------------------------------------------------------------------
~PARAMETER INFORMATION
#MNEM.UNIT    VALUE                      DESCRIPTION
#---- -----   --------------------       ------------------------
RUN  .          Run5_16.5in              :RUN NUMBER
PDAT .        MSL                        :Permanent Datum
EPD  .C3           0.000000              :Elevation of Permanent Datum above Mean Sea Level
LMF  .          DF                       :Logging Measured From (Name of Logging Elevation Reference)
APD  .M          23.850000               :Elevation of Depth Reference (LMF) above Permanent Datum
#-----------------------------------------------------------------------------
~CURVE INFORMATION
#MNEM.UNIT   API CODE                                  DESCRIPTION
#---- -----  --------                                  -----------------------
DEPT .M                                                :DEPTH (BOREHOLE) {F10.4}
BS   .IN                                               :Bit Size {F13.4}
DEVI .DEG                                              :Hole Deviation {F13.4}
DTCO_MPS.US/F                                          : {F13.4}
DTSH_MPS.US/F                                          :Shear slowness {F13.4}
GR_ARC.GAPI                                            :ARC Gamma Ray {F13.4}
PR   .UNITLESS                                         :Possion's Ratio {F13.4}
ROP5 .M/HR                                             :Rate of penetration averaged over the last 5 ft (1.5 m) {F13.4}
VPVS .UNITLESS                                         :VpVs Ratio {F13.4}
#-----------------------------------------------------------------------------
# 
#     DEPT        BS           DEVI       DTCO_MPS     DTSH_MPS      GR_ARC        PR           ROP5         VPVS
#
~A  
# ...
 3131.6676      16.5000       0.8088      82.7752     156.5104     150.8185       0.3058      18.7542       1.8908
 3131.8200      16.5000       0.8099      83.3424     156.8940     145.6172       0.3035      19.9507       1.8825
 3131.9724      16.5000       0.8109      82.7386     156.6903     142.5467       0.3067      20.7849       1.8938
 3132.1248      16.5000       0.8119      81.9046     156.7188     141.3514       0.3121      18.3600       1.9134
 3132.2772      16.5000       0.8131      81.1375     157.1426     138.9867       0.3182      18.2945       1.9367
 3132.4296      16.5000       0.8144      80.5351     158.1294     138.5558       0.3249      19.8369       1.9635
 3132.5820      16.5000       0.8152      80.5477     158.5434     147.4448       0.3260      19.4502       1.9683
 3132.7344      16.5000       0.8165      80.8079     158.0285     163.9149       0.3230      19.4825       1.9556
 3132.8868      16.5000       0.8174      81.2801     157.2673     175.2659       0.3178      19.4084       1.9349
 3133.0392      16.5000       0.8186      81.7476     157.8759     173.1085       0.3168      19.5580       1.9313
 3133.1916      16.5000       0.8196      82.4181     159.3852     162.3789       0.3175      19.2803       1.9339
 3133.3440      16.5000       0.8208      82.9232     161.5246     157.8113       0.3211      18.6427       1.9479
 3133.4964      16.5000       0.8219      83.0233     162.1536     160.3264       0.3224      19.7230       1.9531
 3133.6488      16.5000       0.8230      83.3603     162.2071     162.5500       0.3206      22.0156       1.9459
 3133.8012      16.5000       0.8241      83.3710     161.9475     168.3861       0.3197      21.3540       1.9425
 3133.9536      16.5000       0.8252      83.4391     160.5027     170.1397       0.3148      20.3000       1.9236
 3134.1060      16.5000       0.8263      83.3117     159.2231     163.6160       0.3115      21.1850       1.9112
 3134.2584      16.5000       0.8273      83.7035     158.7686     162.7051       0.3075      20.2910       1.8968
 3134.4108      16.5000       0.8284      84.0327     157.6917     169.4208       0.3017      21.9403       1.8766
 3134.5632      16.5000       0.8296      84.2205     155.0985     174.5282       0.2909      21.7947       1.8416
 3134.7156      16.5000       0.8308      84.1627     152.0316     170.4565       0.2791      21.8281       1.8064
 3134.8680      16.5000       0.8318      83.6739     148.2295     165.5909       0.2662      21.1740       1.7715
 3135.0204      16.5000       0.8329      83.1865     147.3169     163.7525       0.2659      21.0671       1.7709
 3135.1728      16.5000       0.8341      82.9296     147.8052     159.6967       0.2703      21.1015       1.7823
 3135.3252      16.5000       0.8352      82.8077     148.0384     163.3057       0.2723      20.9390       1.7877
 3135.4776      16.5000       0.8363      82.2693     147.2946     167.8502       0.2733      20.7265       1.7904
 3135.6300      16.5000       0.8375      81.7493     147.5858     166.0861       0.2787      20.6415       1.8053
 3135.7824      16.5000       0.8386      81.8852     149.0866     168.7675       0.2840      20.5172       1.8207
 3135.9348      16.5000       0.8398      82.8721     150.8507     173.4708       0.2839      20.7037       1.8203
 3136.0872      16.5000       0.8410      84.0507     152.3953     171.1885       0.2814      21.4354       1.8131
 3136.2396      16.5000       0.8419      84.6647     152.7771     167.3947       0.2784      21.5052       1.8045
 3136.3920      16.5000       0.8431      85.0124     152.0690     172.9663       0.2727      22.4085       1.7888
 3136.5444      16.5000       0.8442      84.9979     151.0742     188.2973       0.2684      22.7222       1.7774
 3136.6968      16.5000       0.8454      84.4147     148.8653     197.9736       0.2630      23.1606       1.7635
 3136.8492      16.5000       0.8466      82.3526     145.9601     189.1291       0.2665      24.3812       1.7724
 3137.0016      16.5000       0.8476      79.1713     142.9209     175.5703       0.2786      25.1225       1.8052
 3137.1540      16.5000       0.8488      75.9776     137.7321     162.7326       0.2813      24.7429       1.8128
 3137.3064      16.5000       0.8498      73.7919     134.5325     140.9486       0.2848      23.2030       1.8231
 3137.4588      16.5000       0.8510      72.5477     133.0651     121.8822       0.2885      20.7700       1.8342
 3137.6112      16.5000       0.8523      73.9215     135.1406     120.0741       0.2865      19.5700       1.8282
 3137.7636      16.5000       0.8535      77.5573     141.1842     134.9028       0.2839      19.4717       1.8204
 3137.9160      16.5000       0.8545      79.9536     145.5440     155.8054       0.2839      18.9248       1.8204
 3138.0684      16.5000       0.8557      80.6581     147.3913     167.5932       0.2863      18.5535       1.8274
 3138.2208      16.5000       0.8569      80.8591     148.6367     166.0767       0.2898      18.4434       1.8382
 3138.3732      16.5000       0.8580      80.8970     150.0866     160.3766       0.2953      17.8126       1.8553
 3138.5256      16.5000       0.8593      81.0689     152.0123     158.2213       0.3013      17.6607       1.8751
 3138.6780      16.5000       0.8602      81.4369     153.5488     159.0903       0.3043      16.8944       1.8855
 3138.8304      16.5000       0.8614      81.7986     155.5589     155.2778       0.3089      17.4589       1.9017
 3138.9828      16.5000       0.8626      81.9174     157.0795     147.7927       0.3132      18.5616       1.9175
 3139.1352      16.5000       0.8638      82.0733     157.2355     146.9064       0.3128      19.0290       1.9158
 3139.2876      16.5000       0.8649      82.6570     156.8564     149.5251       0.3078      19.0306       1.8977
 3139.4400      16.5000       0.8661      83.3302     157.6195     150.4836       0.3060      19.2508       1.8915
 3139.5924      16.5000       0.8673      83.1920     159.3464     154.7531       0.3126      19.2812       1.9154
 3139.7448      16.5000       0.8686      81.9637     160.4900     159.4504       0.3236      19.0047       1.9581
 3139.8972      16.5000       0.8696      81.1251     160.4347     157.4567       0.3282      18.0641       1.9776
 3140.0496      16.5000       0.8708      80.6385     160.9098     157.1046       0.3323      18.1884       1.9954
 3140.2020      16.5000       0.8719      80.2081     161.6416     164.5443       0.3367      19.8262       2.0153
 3140.3544      16.5000       0.8731      79.5833     161.7441     167.9295       0.3403      20.9569       2.0324
 3140.5068      16.5000       0.8740      78.1544     161.1396     165.2991       0.3462      20.2665       2.0618
 3140.6592      16.5000       0.8756      78.4535     161.9900     165.0578       0.3468      20.9972       2.0648
 3140.8116      16.5000       0.8766      79.3753     163.6010     161.9554       0.3461      20.9070       2.0611
 3140.9640      16.5000       0.8778      80.5244     166.7579     157.7076       0.3480      21.5330       2.0709
 3141.1164      16.5000       0.8791      80.7912     167.2858     160.6297       0.3479      21.5537       2.0706
 3141.2688      16.5000       0.8801      80.9897     164.3085     162.6231       0.3395      21.5911       2.0288
 3141.4212      16.5000       0.8813      81.6001     158.2032     159.7173       0.3188      23.0977       1.9388
 3141.5736      16.5000       0.8826      82.2174     155.2536     154.6701       0.3051      23.4003       1.8883
 3141.7260      16.5000       0.8837      82.4318     155.0570     146.7916       0.3030      22.8790       1.8810
 3141.8784      16.5000       0.8848      82.6389     157.3843     141.5446       0.3097      22.1185       1.9045
 3142.0308      16.5000       0.8862      81.8413     160.3220     148.9219       0.3238      24.2039       1.9589
 3142.1832      16.5000       0.8872      83.4145     161.2169     163.3845       0.3172      23.0133       1.9327
