~VERSION INFORMATION
VERS.           2.0   :CWLS Log ASCII Standard - VERSION 2.0
WRAP.           NO    :One Line per depth step
PROD.  Schlumberger   :LAS Producer
PROG.  DLIS to ASCII 2.3                               :LAS Program name and version
CREA.        2021/01/04 14:54                          :LAS Creation date {YYYY/MM/DD hh:mm}
DLIS_CREA.  2021-Jan-04 14:41                          :DLIS Creation date and time {YYYY-MMM-DD hh:mm}
SOURCE.     PnS_Processed.dlis                         :DLIS File Name
FILE-ID.     ConPr_R08_Drill_ARC6_TELE675_SONICVISION6 :File Identification Number
#--------------------------------------------------
~WELL INFORMATION
#MNEM.UNIT      DATA             DESCRIPTION
#---- ------ --------------   -----------------------------
STRT .M      5170.0176       :START DEPTH     
STOP .M      5614.8732       :STOP DEPTH     
STEP .M         0.1524       :STEP     
NULL .          -999.25      :NULL VALUE
COMP .        BP Development Australia Pty Ltd         :COMPANY
WELL .        Ironbark-1                               :WELL
FLD  .        Ironbark                                 :FIELD
LOC  .        WA-359-P                                 :LOCATION
CNTY .                                                 :COUNTY
STAT .        Western Australia                        :STATE
CTRY .        Australia                                :COUNTRY
API  .                                                 :API NUMBER
UWI  .        20AWA0029                                :UNIQUE WELL ID
DATE .        30-Oct-2020                              :LOG DATE {DD-MMM-YYYY}
SRVC .        Schlumberger                             :SERVICE COMPANY
LATI .DEG     19° 9' 34.079" S                        :LATITUDE
LONG .DEG     116° 4' 35.795" E                       :LONGITUDE
GDAT .                                                 :GeoDetic Datum
#-----------------------------------------------------------------------------
~PARAMETER INFORMATION
#MNEM.UNIT    VALUE                      DESCRIPTION
#---- -----   --------------------       ------------------------
RUN  .          Run8_8.5in               :RUN NUMBER
PDAT .        MSL                        :Permanent Datum
EPD  .M           0.000000               :Elevation of Permanent Datum above Mean Sea Level
LMF  .          DF                       :Logging Measured From (Name of Logging Elevation Reference)
APD  .M          23.850000               :Elevation of Depth Reference (LMF) above Permanent Datum
#-----------------------------------------------------------------------------
~CURVE INFORMATION
#MNEM.UNIT   API CODE                                  DESCRIPTION
#---- -----  --------                                  -----------------------
MD   .M                                                :DEPTH (BOREHOLE) {F10.4}
BS   .IN                                               :Bit Size {F13.4}
DCAV .IN                                               :Density Caliper, Average - filtered if Orion compressed {F13.4}
DEVI .DEG                                              :Hole Deviation {F13.4}
DTCO_MPS.US/F                                          :Compressional slowness {F13.4}
DTSH_MPS.US/F                                          :Shear slowness {F13.4}
GR_ARC.GAPI                                            :ARC Gamma Ray {F13.4}
PR   .UNITLESS                                         :Possion's Ratio {F13.4}
ROP5 .M/HR                                             :Rate of penetration averaged over the last 5 ft (1.5 m) {F13.4}
VPVS .UNITLESS                                         :VpVs Ratio {F13.4}
#-----------------------------------------------------------------------------
# 
#      MD         BS           DCAV         DEVI       DTCO_MPS     DTSH_MPS      GR_ARC        PR           ROP5         VPVS
#
~A  
# ...
 5227.6248       8.5000       8.3221       0.1854      66.2787     117.2266     102.3982       0.2651      10.8268       1.7687
 5227.7772       8.5000       8.3341       0.1854      63.6966     112.4363     104.6653       0.2637       8.8910       1.7652
 5227.9296       8.5000       8.3595       0.1853      62.6043     110.4268      98.6210       0.2632       9.3702       1.7639
 5228.0820       8.5000       8.3619       0.1853      62.8035     110.6900      97.0770       0.2626       8.9706       1.7625
 5228.2344       8.5000       8.3562       0.1852      64.5516     112.9311     120.0211       0.2574       7.5744       1.7495
 5228.3868       8.5000       8.3737       0.1852      66.2235     113.4156     139.1753       0.2413       6.8454       1.7126
 5228.5392       8.5000       8.3483       0.1851      65.3801     112.0643     123.7156       0.2420       6.1017       1.7140
 5228.6916       8.5000       8.3358       0.1851      62.5965     110.1451      99.5598       0.2615       5.9502       1.7596
 5228.8440       8.5000       8.3341       0.1850      61.9792     108.7464     103.5806       0.2594       4.5231       1.7546
 5228.9964       8.5000       8.3476       0.1850      64.0432     113.5094     132.6223       0.2665       4.2253       1.7724
 5229.1488       8.5000       8.3525       0.1849      69.4004     130.5115     155.1886       0.3029       3.9607       1.8806
 5229.3012       8.5000       8.3433       0.1849      75.4623     142.6812     165.6873       0.3058       4.1933       1.8908
 5229.4536       8.5000       8.3643       0.1848      77.8120     146.5103     175.2123       0.3036       4.2869       1.8829
 5229.6060       8.5000       8.3434       0.1848      78.6865     148.3661     180.7153       0.3043       4.2484       1.8855
 5229.7584       8.5000       8.3363       0.1847      78.4796     149.2623     178.7057       0.3090       4.7389       1.9019
 5229.9108       8.5000       8.3480       0.1847      77.3320     148.9112     173.5384       0.3154       5.0072       1.9256
 5230.0632       8.5000       8.3700       0.1847      76.4493     147.9668     170.3351       0.3179       5.2176       1.9355
 5230.2156       8.5000       8.4135       0.1846      77.0337     149.2099     173.3388       0.3183       5.4085       1.9369
 5230.3680       8.5000       8.3868       0.1846      78.3121     151.8764     187.5475       0.3189       7.3245       1.9394
 5230.5204       8.5000       8.3746       0.1845      78.8134     150.1089     204.8859       0.3097       8.7255       1.9046
 5230.6728       8.5000       8.3659       0.1845      78.5213     145.2410     209.2489       0.2935      10.9962       1.8497
 5230.8252       8.5000       8.3403       0.1844      77.9293     141.8370     203.9054       0.2838      11.6165       1.8201
 5230.9776       8.5000       8.3438       0.1844      77.4889     137.7003     205.3886       0.2683      11.4279       1.7770
 5231.1300       8.5000       8.3368       0.1843      77.6851     133.5538     213.2949       0.2443      12.5036       1.7192
 5231.2824       8.5000       8.3627       0.1843      76.5067     127.3596     191.2376       0.2177      13.0356       1.6647
 5231.4348       8.5000       8.3615       0.1842      71.8456     118.9078     133.0150       0.2125      14.6935       1.6550
 5231.5872       8.5000       8.3778       0.1842      66.7977     109.5516      92.2679       0.2041      15.9408       1.6401
 5231.7396       8.5000       8.3483       0.1842      64.3534     106.2014      86.5251       0.2099      17.0581       1.6503
 5231.8920       8.5000       8.3407       0.1841      64.2273     109.1262      98.1068       0.2350      14.2130       1.6991
 5232.0444       8.5000       8.3315       0.1841      68.6183     115.2897     118.6453       0.2257      11.0632       1.6802
 5232.1968       8.5000       8.3281       0.1840      73.5709     124.8562     141.1169       0.2341       9.1170       1.6971
 5232.3492       8.5000       8.3696       0.1840      76.8955     139.2049     154.8491       0.2804       8.7242       1.8103
 5232.5016       8.5000       8.3637       0.1839      78.3629     146.2931     156.1431       0.2988       8.5249       1.8669
 5232.6540       8.5000       8.3347       0.1839      77.5065     146.4987     156.2662       0.3056       7.3229       1.8901
 5232.8064       8.5000       8.3665       0.1838      78.5444     146.8493     155.9461       0.2996       7.4293       1.8696
 5232.9588       8.5000       8.3364       0.1838      81.0492     145.8773     146.0644       0.2767       7.0313       1.7999
 5233.1112       8.5000       8.3503       0.1837      79.6753     143.4361     129.6333       0.2769       7.4181       1.8003
 5233.2636       8.5000       8.4143       0.1837      75.7442     141.3090     117.6294       0.2984       7.3251       1.8656
 5233.4160       8.5000       8.3494       0.1837      70.6635     140.4422     112.0019       0.3305       8.1970       1.9875
 5233.5684       8.5000       8.3577       0.1836      68.5782     139.9512     112.0493       0.3420       8.4393       2.0408
 5233.7208       8.5000       8.3582       0.1836      69.1744     142.1270     119.0282       0.3448       9.8306       2.0546
 5233.8732       8.5000       8.3457       0.1835      69.9890     143.4893     129.8685       0.3439       9.7100       2.0502
 5234.0256       8.5000       8.3346       0.1835      70.8509     142.4864     137.4429       0.3358      10.0098       2.0111
 5234.1780       8.5000       8.3665       0.1834      73.0224     140.5593     136.8920       0.3152      12.5809       1.9249
 5234.3304       8.5000       8.3725       0.1834      74.3778     137.8058     136.1055       0.2945      11.0850       1.8528
 5234.4828       8.5000       8.3624       0.1834      73.7843     136.7944     142.5759       0.2948      11.4508       1.8540
 5234.6352       8.5000       8.3564       0.1832      71.4882     136.2905     147.6311       0.3102      10.7259       1.9065
 5234.7876       8.5000       8.3792       0.1824      70.1945     133.1686     141.2671       0.3076      11.0632       1.8971
 5234.9400       8.5000       8.3600       0.1817      69.6443     127.8194     133.5925       0.2889      10.3640       1.8353
 5235.0924       8.5000       8.3395       0.1811      68.7799     122.6061     130.7487       0.2704       9.2306       1.7826
 5235.2448       8.5000       8.3276       0.1803      67.9930     120.2926     125.4987       0.2653       8.3501       1.7692
 5235.3972       8.5000       8.3071       0.1796      67.3574     119.9781     123.9704       0.2699       8.8995       1.7812
 5235.5496       8.5000       8.2957       0.1789      66.5511     119.1683     126.4013       0.2734       8.1140       1.7906
 5235.7020       8.5000       8.3078       0.1782      65.1070     117.3661     121.7811       0.2777       7.3178       1.8027
 5235.8544       8.5000       8.3337       0.1774      63.8504     114.9423     113.8591       0.2769       7.3614       1.8002
 5236.0068       8.5000       8.3678       0.1766      63.6433     115.7885     113.2975       0.2835       7.2792       1.8193
 5236.1592       8.5000       8.3546       0.1759      64.8700     120.6803     121.8238       0.2968       6.8727       1.8603
 5236.3116       8.5000       8.3529       0.1753      66.4939     123.0993     132.1487       0.2940       5.9501       1.8513
 5236.4640       8.5000       8.3614       0.1747      66.8529     123.6486     135.5411       0.2935       6.0593       1.8496
 5236.6164       8.5000       8.3565       0.1739      65.7299     122.8287     130.6599       0.2994       7.3718       1.8687
 5236.7688       8.5000       8.3509       0.1732      66.4411     123.3944     121.1102       0.2959       8.2625       1.8572
 5236.9212       8.5000       8.3408       0.1723      67.9723     127.2609     113.5852       0.3004       8.4363       1.8722
 5237.0736       8.5000       8.3304       0.1719      67.3729     130.3501     113.2686       0.3177       8.2963       1.9348
